{
   "html_attributions" : [],
   "results" : [
      {
         "geometry" : {
            "location" : {
               "lat" : 43.7434787,
               "lng" : -79.60618910000001
            },
            "viewport" : {
               "northeast" : {
                  "lat" : 43.7450712302915,
                  "lng" : -79.6047647197085
               },
               "southwest" : {
                  "lat" : 43.7423732697085,
                  "lng" : -79.60746268029152
               }
            }
         },
         "icon" : "https://maps.gstatic.com/mapfiles/place_api/icons/cafe-71.png",
         "id" : "225d94a394d1e9afe37e4386c2bfe8fab7dcc4b3",
         "name" : "Tim Hortons",
         "opening_hours" : {
            "open_now" : false,
            "weekday_text" : []
         },
         "photos" : [
            {
               "height" : 2688,
               "html_attributions" : [
                  "\u003ca href=\"https://maps.google.com/maps/contrib/108629124963353928615/photos\"\u003eSadia Butt\u003c/a\u003e"
               ],
               "photo_reference" : "CmRaAAAAkiKCDNpaRct5vXjLQTtikcCQ_q_lJv-X0KAw8r6NovGrKAsXWBnb6d6LDueg3Ax78hODZQo6LZlubII7ArAxrARjxmDcmcljB2_l2dt6xlbrt-w0o96JVRHcDsDcwKOiEhAso958w4IFazci7PhesUfRGhRIVT-Mqjoy-OWA72PDh4ZGaa-x5A",
               "width" : 1520
            }
         ],
         "place_id" : "ChIJOSYGIYQ6K4gRUfh0fmZIUDI",
         "price_level" : 1,
         "rating" : 3.8,
         "reference" : "CmRRAAAAxIOO6Jsl8XI9nR_iJw1PGbgrW0NWslNrf-9VNR1i9Mam0eXHtZiVlki4KXWB1jNRSnwlG7hNLY4hfPoOmgF62g-nTQpFRGlAB8rH57EtmqVPLoGC3exMf1GqwpLpC-BYEhB2K9Esom62CVSSvBKSZam8GhT-ZHBmvNkN31cI-W8t5_Y0ZTkdgw",
         "scope" : "GOOGLE",
         "types" : [ "cafe", "food", "point_of_interest", "establishment" ],
         "vicinity" : "1751 Albion Road, Etobicoke"
      },
      {
         "geometry" : {
            "location" : {
               "lat" : 43.7420147,
               "lng" : -79.58968969999999
            },
            "viewport" : {
               "northeast" : {
                  "lat" : 43.7432761802915,
                  "lng" : -79.58798706970849
               },
               "southwest" : {
                  "lat" : 43.7405782197085,
                  "lng" : -79.5906850302915
               }
            }
         },
         "icon" : "https://maps.gstatic.com/mapfiles/place_api/icons/cafe-71.png",
         "id" : "9c4668e88c6a5160c971f9750176a00f673de72b",
         "name" : "Tim Hortons",
         "opening_hours" : {
            "open_now" : false,
            "weekday_text" : []
         },
         "photos" : [
            {
               "height" : 960,
               "html_attributions" : [
                  "\u003ca href=\"https://maps.google.com/maps/contrib/102020719348213566144/photos\"\u003eTim Hortons\u003c/a\u003e"
               ],
               "photo_reference" : "CmRaAAAAxzLnPsEB2XsRKpLb5JsFVLE6eX6UCyqA7vc6IPS3UhRqrLDIwu-PIGr-ZbxYM9AoE0A1ggy-N045q80V_0vcC3pW75w5Y6EufVYn8zzJsNRpv5aMdITzLh65WmpeJRCWEhA2jfe4kAowDZN2HllXKpNoGhQGIULMX7PTkCqzDP0TsW0w5lEJGA",
               "width" : 960
            }
         ],
         "place_id" : "ChIJac7dhfE6K4gR_hPh9armaZs",
         "price_level" : 1,
         "rating" : 3.7,
         "reference" : "CmRSAAAAvzHoBywh_Fur-WQwaHTK_YV4a7Dp9Bhs1uVa_9z8Ws9tPvhhiWd5UgS3xYehGQD24eoHMo59_mApf4OLKc7js1DGQNIzed99SS97e-0mntlBhNTHihpq1757gWFQJW_uEhDEahTmp5hcCqWzQktS5NSJGhQH5U5oLkIqH5GgVgi9qSkgE8ObxA",
         "scope" : "GOOGLE",
         "types" : [ "cafe", "food", "point_of_interest", "establishment" ],
         "vicinity" : "6220 Finch Avenue West, Etobicoke"
      },
      {
         "geometry" : {
            "location" : {
               "lat" : 43.7507612,
               "lng" : -79.58534179999999
            },
            "viewport" : {
               "northeast" : {
                  "lat" : 43.7520798302915,
                  "lng" : -79.58411441970848
               },
               "southwest" : {
                  "lat" : 43.7493818697085,
                  "lng" : -79.58681238029149
               }
            }
         },
         "icon" : "https://maps.gstatic.com/mapfiles/place_api/icons/cafe-71.png",
         "id" : "cb09b9a2ec08cad044f1ee45435e45a2ced69ed3",
         "name" : "Tim Hortons",
         "opening_hours" : {
            "open_now" : false,
            "weekday_text" : []
         },
         "photos" : [
            {
               "height" : 950,
               "html_attributions" : [
                  "\u003ca href=\"https://maps.google.com/maps/contrib/104679511345192528666/photos\"\u003eTim Hortons\u003c/a\u003e"
               ],
               "photo_reference" : "CmRaAAAAknI21qcYkVkc-OQEGd2XEmG8stpi-0-fkAU6mlbmSgCcCPzHl2tfgKIcXMN787HQFx6DMRCmzsO06DLyG46t8le0KCGH94cCpLs-Xz3rTNoK2OTu3L-7VqyR0b5FaeyPEhCrOaphDpBGOQZlxh9gI1RUGhSGh9gxtrBs763tSt5ghpignmq8LA",
               "width" : 950
            }
         ],
         "place_id" : "ChIJhcuiqus6K4gRjBxvBLjzW08",
         "price_level" : 1,
         "rating" : 3.5,
         "reference" : "CmRRAAAAytBlefPM2FFcOYA7l-sTX2GBrHiNgqZfzXmgnjcaAWx2W--scIPBqbRboUnQ4hSPrHKiZumTRtsfJuL6GeiGe4LWoMW0-ecOjF1ZH0L8eviKc8I1ONr0uH1ax3ZvG9HEEhA4Ijcp6VbkE-95IYb42xkKGhTSpGNUETGLGRr1EZIKtZNVNiqRlg",
         "scope" : "GOOGLE",
         "types" : [ "cafe", "food", "point_of_interest", "establishment" ],
         "vicinity" : "2687 Kipling Avenue, Etobicoke"
      },
      {
         "geometry" : {
            "location" : {
               "lat" : 43.7410061,
               "lng" : -79.60872499999999
            },
            "viewport" : {
               "northeast" : {
                  "lat" : 43.7423678802915,
                  "lng" : -79.6073211197085
               },
               "southwest" : {
                  "lat" : 43.7396699197085,
                  "lng" : -79.61001908029151
               }
            }
         },
         "icon" : "https://maps.gstatic.com/mapfiles/place_api/icons/generic_business-71.png",
         "id" : "b220009ccadcc1c3dc6ce3f3eb85130e0e7dcf37",
         "name" : "Brokerhouse Distribution Inc",
         "photos" : [
            {
               "height" : 4128,
               "html_attributions" : [
                  "\u003ca href=\"https://maps.google.com/maps/contrib/109655448231435779488/photos\"\u003eJim Roberts\u003c/a\u003e"
               ],
               "photo_reference" : "CmRaAAAANYpBF6MbZPzxhD4gHpZpXgT9XBEMbjJbBKoqjtH_htEPjdVrHfrVYZFRWMdY3_O_HdN-eK10s6VXxuhvp5i4NXLKqPvvTqedH3T0jk6lS1NMZOX-AbbUFVL2d9hdNYT-EhCYPQcT8bHs-Dz1eRHK-LQyGhTvb8_hPlXREYUyR4I8A88WPcHpUg",
               "width" : 2322
            }
         ],
         "place_id" : "ChIJKYibewE7K4gR6DG2ojRCr1g",
         "reference" : "CmRRAAAAgNrP3M502CRgDdPkJJHYYhMT66zKE_wibhkZ0wc48qK0ovSpqW4Qjkj_BDSq_z7gb5afIsjPd4HbT6ua86eZm6zAO7AZhIvuDbc8r5BKWcjJbPA7IW054PKNEtotYP68EhBsdobWSImYr32EmHFyHgzIGhRpAWuegMI4358P1QoMd3nS2A6X5w",
         "scope" : "GOOGLE",
         "types" : [ "cafe", "food", "point_of_interest", "establishment" ],
         "vicinity" : "108 Woodbine Downs Boulevard, Etobicoke"
      },
      {
         "geometry" : {
            "location" : {
               "lat" : 43.74001389999999,
               "lng" : -79.6022167
            },
            "viewport" : {
               "northeast" : {
                  "lat" : 43.74125068029149,
                  "lng" : -79.60136241970849
               },
               "southwest" : {
                  "lat" : 43.73855271970849,
                  "lng" : -79.6040603802915
               }
            }
         },
         "icon" : "https://maps.gstatic.com/mapfiles/place_api/icons/cafe-71.png",
         "id" : "e38bb356343956321cb1d3743e19a7582d74eb12",
         "name" : "Vittoria Coffee",
         "place_id" : "ChIJrfl8b_46K4gRslXF-HSxTqs",
         "rating" : 3,
         "reference" : "CmRSAAAAfe_lRQSuuMIIQ7IuOnmaKPhYP7HH1fQShLthLIcuT8UrxwDFN7Fmw0UI8y0ABEtdAFcfGtKyruaNEDOiCoJPcPgsVE-LrVF7xkox1rgpMGpLepctyCWtNVm8BNiSw_RbEhCg3DnLrprm_6FN9bmSe__CGhSQB05qa_ehoMv4nuxZBvFC9Izzaw",
         "scope" : "GOOGLE",
         "types" : [ "cafe", "food", "point_of_interest", "establishment" ],
         "vicinity" : "67 Westmore Drive, Etobicoke"
      },
      {
         "geometry" : {
            "location" : {
               "lat" : 43.74001389999999,
               "lng" : -79.6022167
            },
            "viewport" : {
               "northeast" : {
                  "lat" : 43.74125068029149,
                  "lng" : -79.60136241970849
               },
               "southwest" : {
                  "lat" : 43.73855271970849,
                  "lng" : -79.6040603802915
               }
            }
         },
         "icon" : "https://maps.gstatic.com/mapfiles/place_api/icons/cafe-71.png",
         "id" : "b91a4ca6c81274db0984b0412081e14951b95f06",
         "name" : "Cordoba Coffee",
         "opening_hours" : {
            "open_now" : false,
            "weekday_text" : []
         },
         "photos" : [
            {
               "height" : 2988,
               "html_attributions" : [
                  "\u003ca href=\"https://maps.google.com/maps/contrib/104851249079699521522/photos\"\u003emilkyas tefera\u003c/a\u003e"
               ],
               "photo_reference" : "CmRZAAAAT7kbWB0aVzaanCbAsgElTYIoopjfhR4ddw_BWQ-Ge48W5yR7uwsAxSSItvUPZeAcTK8UpPoYhQj8Jo4eAYxaPhxW4ViMX4cha3DvcT56HH7zZAaThkN5QtfbZWIgfGi2EhDuDse8j_fQXxr90Qx0V8PBGhRff9NqM1hsdvnoP1gTZgrCJVtS7w",
               "width" : 5312
            }
         ],
         "place_id" : "ChIJrfl8b_46K4gR3Ta43B67JKA",
         "rating" : 5,
         "reference" : "CmRSAAAASwgPICG-OfG0xN_RPPeZY9al-1_Tnjz6wNo_GmeKYC7Ii81xlSc1I2vee4tVHgMjo2R-fwx99_WTOt77GbjV936l4kMTXMC9EvW694PGENMSb_TG823n-IPlrfzUYXiBEhBvdufCT74s1qDjWq753fsQGhRC-HK05h_sCzqWckuy0yZxRXNQxA",
         "scope" : "GOOGLE",
         "types" : [ "cafe", "food", "point_of_interest", "establishment" ],
         "vicinity" : "67 Westmore Drive, Etobicoke"
      },
      {
         "geometry" : {
            "location" : {
               "lat" : 43.7420913,
               "lng" : -79.59324509999999
            },
            "viewport" : {
               "northeast" : {
                  "lat" : 43.7433192302915,
                  "lng" : -79.5919328697085
               },
               "southwest" : {
                  "lat" : 43.74062126970851,
                  "lng" : -79.59463083029151
               }
            }
         },
         "icon" : "https://maps.gstatic.com/mapfiles/place_api/icons/cafe-71.png",
         "id" : "965d4d1570796a897c81e78052fa5e13e7abfa6c",
         "name" : "Coffee Club",
         "opening_hours" : {
            "open_now" : true,
            "weekday_text" : []
         },
         "place_id" : "ChIJZc9eiPA6K4gR6q_9doVZbgI",
         "rating" : 4,
         "reference" : "CmRRAAAAbx-kZhlbntKieVUn0DGZU0vKYi04inW7EV4FCwh07NiXQ2RSv3uqIKqpW4ZFy_BK9ViiO2qpFfTpyRA_kzwYu1cTm_QADXeNtvTvm2RGFMw4FsTBaZ6RbaU4icdoQ6StEhB3TCk9lfxgnqTEXKvGCrBbGhQdiCP0mllgVgeybVE4eMtPgxOTjw",
         "scope" : "GOOGLE",
         "types" : [ "cafe", "store", "food", "point_of_interest", "establishment" ],
         "vicinity" : "1630 Albion Road #3, Etobicoke"
      },
      {
         "geometry" : {
            "location" : {
               "lat" : 43.752845,
               "lng" : -79.62408099999999
            },
            "viewport" : {
               "northeast" : {
                  "lat" : 43.75436103029151,
                  "lng" : -79.62280386970849
               },
               "southwest" : {
                  "lat" : 43.75166306970851,
                  "lng" : -79.6255018302915
               }
            }
         },
         "icon" : "https://maps.gstatic.com/mapfiles/place_api/icons/cafe-71.png",
         "id" : "6ace59b6b6b16c17c6f6c89ddb57cbabc2314f20",
         "name" : "Country Style",
         "opening_hours" : {
            "open_now" : true,
            "weekday_text" : []
         },
         "photos" : [
            {
               "height" : 2448,
               "html_attributions" : [
                  "\u003ca href=\"https://maps.google.com/maps/contrib/110874525643891850972/photos\"\u003eAs\u003c/a\u003e"
               ],
               "photo_reference" : "CmRaAAAAgnobvtMngBa7gcZXa-4Fi-XKWVxxdYmWvXaO41xBPxUMzFuy_AOP7oB_GAI4cTiH-bpYs0OU_sh97hV2fwse73fEfrNOcKBcswepvgaxgUrqeg6ZamaGkzlsRUNZoJPxEhBrpe4E4JzVcQTio20N6V7bGhTd4GZ2FaZ2Uvb6i1-2ryoHe8iGGA",
               "width" : 3264
            }
         ],
         "place_id" : "ChIJJ2-bkRY7K4gRt-F8ggvBPG8",
         "rating" : 1.6,
         "reference" : "CmRRAAAAVeVC7VFDQvcw6KPcmZaYLpQmMX2xYTrZkOH-TRuVFDM13oZMxi16rI3NnFMzNKQt7Wdbz_3urjpAoiGLFiy5gzWrQtflhXYYQ-nIo3kVVL3-uMnXiwgtu-ZxbzA2KOlUEhBPKzFGjW7HUN9ZWc5Vc-UoGhR6akWtwJoT2sLOAKN3uUW2d92TSA",
         "scope" : "GOOGLE",
         "types" : [ "cafe", "store", "food", "point_of_interest", "establishment" ],
         "vicinity" : "6951 Steeles Avenue West, Etobicoke"
      },
      {
         "geometry" : {
            "location" : {
               "lat" : 43.75151359999999,
               "lng" : -79.59976589999999
            },
            "viewport" : {
               "northeast" : {
                  "lat" : 43.75295393029149,
                  "lng" : -79.59805511970849
               },
               "southwest" : {
                  "lat" : 43.7502559697085,
                  "lng" : -79.6007530802915
               }
            }
         },
         "icon" : "https://maps.gstatic.com/mapfiles/place_api/icons/generic_business-71.png",
         "id" : "bea6c2203199e12ec46058e9277f5c3bfc442c2e",
         "name" : "Circle K",
         "opening_hours" : {
            "open_now" : true,
            "weekday_text" : []
         },
         "place_id" : "ChIJQ0kWM-E6K4gReXThzPz1eNs",
         "rating" : 2.5,
         "reference" : "CmRSAAAA89JiRxQXjsL8VDuie2HBvdhZkzf7J8xHY45IWSA3_ioCZ0fXy4qcba3Bvj8WpSuGsNdj6eYZ_CoE5NeWiGvxoojpl5hsIVGXz0ZqeVimAmDMsHWYCvNbuGTNpr8mYfIGEhA4R2t1sqIWiB0-_s0-qohaGhTndom2Ip85Ksea82EhAJt3pNvHbQ",
         "scope" : "GOOGLE",
         "types" : [
            "atm",
            "cafe",
            "finance",
            "store",
            "food",
            "point_of_interest",
            "establishment"
         ],
         "vicinity" : "2200 Martin Grove Road, Etobicoke"
      },
      {
         "geometry" : {
            "location" : {
               "lat" : 43.7452894,
               "lng" : -79.59057749999999
            },
            "viewport" : {
               "northeast" : {
                  "lat" : 43.7464634302915,
                  "lng" : -79.58961746970849
               },
               "southwest" : {
                  "lat" : 43.7437654697085,
                  "lng" : -79.59231543029149
               }
            }
         },
         "icon" : "https://maps.gstatic.com/mapfiles/place_api/icons/cafe-71.png",
         "id" : "781815f981ba1bef52e66f45848269da952f90de",
         "name" : "Good food",
         "opening_hours" : {
            "open_now" : false,
            "weekday_text" : []
         },
         "place_id" : "ChIJPwlbN-46K4gR34GTWNGTLtQ",
         "reference" : "CmRSAAAAO9rWVoDU4IAzGoxZ13ubBmLRf7crBiel_qE2GiMFczjjKN8ujHSf2rgmzIbYhnshiD-7UEG_b_bodlpsPqDde6smxYjFgNSQXk2pwOwSDFhIh7FjKLOiI2i7AIQlzGTWEhBwwYIci2d2hHeZPMin0SQQGhRGHzi_ALLvt7yygz8wt5W1BF3egg",
         "scope" : "GOOGLE",
         "types" : [ "cafe", "food", "point_of_interest", "establishment" ],
         "vicinity" : "39 Bulbourne Road, Etobicoke"
      },
      {
         "geometry" : {
            "location" : {
               "lat" : 43.7419219,
               "lng" : -79.6051272
            },
            "viewport" : {
               "northeast" : {
                  "lat" : 43.7433513302915,
                  "lng" : -79.6033227197085
               },
               "southwest" : {
                  "lat" : 43.7406533697085,
                  "lng" : -79.60602068029151
               }
            }
         },
         "icon" : "https://maps.gstatic.com/mapfiles/place_api/icons/cafe-71.png",
         "id" : "6ce5491e518f7689ec61a6f6591717f52225b376",
         "name" : "Tuprii The Chai Shop",
         "opening_hours" : {
            "open_now" : false,
            "weekday_text" : []
         },
         "place_id" : "ChIJ-0S09f06K4gRk88j4AFrHJU",
         "rating" : 5,
         "reference" : "CmRSAAAA0_rMRABcWVhIgc5eCn2mxTymzWzt2Z7PFpsJsQDUlXOiNdonSwp-Ur_n0Gn0F_GoGBAacw_QVsiwHpI4DlkW_OSNdp4FCsLQ2L5n60lclNoUlMkm22_jTZXZHdn9OY7PEhBhis2EC-9mXg26uE_31kVZGhSnQjQTqDdnS8DWXulPwofEWeGjig",
         "scope" : "GOOGLE",
         "types" : [ "cafe", "food", "point_of_interest", "establishment" ],
         "vicinity" : "8 Westmore Drive, Etobicoke"
      },
      {
         "geometry" : {
            "location" : {
               "lat" : 43.7732147,
               "lng" : -79.6061393
            },
            "viewport" : {
               "northeast" : {
                  "lat" : 43.7748572302915,
                  "lng" : -79.6049365697085
               },
               "southwest" : {
                  "lat" : 43.7721592697085,
                  "lng" : -79.60763453029151
               }
            }
         },
         "icon" : "https://maps.gstatic.com/mapfiles/place_api/icons/cafe-71.png",
         "id" : "23b66398f5518f2e33539d8f925ea0455d36b6b8",
         "name" : "Brown Beans Import & Export Inc",
         "place_id" : "ChIJi_ULrio7K4gRssEwX6faGO0",
         "reference" : "CmRSAAAAMCwUFRooVNfd-vx-rUdtryh4rEU7bDAuZErRyrBlkT-zFYxrUlMaczlGI6pd2RnuT_KkFfKbSQhQULOz_5tk9nLdB9cr_h8Mt-3BtuPkDyTzaI7zKoxboFx3bdTFTGzUEhDwyPCwz0eKeP-0aGySzrESGhS_Vs7QEw7m4mAwLqnc61UGqM4wpQ",
         "scope" : "GOOGLE",
         "types" : [ "cafe", "food", "point_of_interest", "establishment" ],
         "vicinity" : "181 Woodstream Boulevard, Woodbridge"
      }
   ],
   "status" : "OK"
}
