[{"area_sq_km":"1.1318922449264643","latitude":"53.57610461451473","location":{"type":"Point","coordinates":[-113.468730401771,53.576104614515]},"longitude":"-113.46873040177114","name_mixed":"Eastwood","number":"1100"}
,{"area_sq_km":"0.9516773884393113","latitude":"53.56571569943365","location":{"type":"Point","coordinates":[-113.471350378286,53.565715699434]},"longitude":"-113.47135037828579","name_mixed":"Parkdale","number":"1160"}
,{"area_sq_km":"0.47957431378273974","latitude":"53.57959138428425","location":{"type":"Point","coordinates":[-113.460916809731,53.579591384284]},"longitude":"-113.46091680973095","name_mixed":"Elmwood Park","number":"1130"}
,{"area_sq_km":"0.6798065380985238","latitude":"53.57904638464847","location":{"type":"Point","coordinates":[-113.482449446659,53.579046384648]},"longitude":"-113.48244944665866","name_mixed":"Delton","number":"1080"}
,{"area_sq_km":"0.752914569505616","latitude":"53.56837201395926","location":{"type":"Point","coordinates":[-113.456446152649,53.568372013959]},"longitude":"-113.45644615264902","name_mixed":"Edmonton Northlands","number":"1120"}]
