[{"area_sq_km":"1.5615833708221587","latitude":"53.50753241060133","location":{"type":"Point","coordinates":[-113.642300215949,53.507532410601]},"longitude":"-113.6423002159492","name_mixed":"Lymburn","number":"4270"}
,{"area_sq_km":"1.3503584703949756","latitude":"53.499105571562104","location":{"type":"Point","coordinates":[-113.642760550964,53.499105571562]},"longitude":"-113.64276055096441","name_mixed":"Ormsby Place","number":"4380"}
,{"area_sq_km":"0.910734691847471","latitude":"53.50759781965533","location":{"type":"Point","coordinates":[-113.623024726434,53.507597819655]},"longitude":"-113.62302472643434","name_mixed":"Callingwood North","number":"4070"}
,{"area_sq_km":"0.7722282182200113","latitude":"53.500514879203934","location":{"type":"Point","coordinates":[-113.623030873738,53.500514879204]},"longitude":"-113.62303087373823","name_mixed":"Callingwood South","number":"4080"}
,{"area_sq_km":"0.6791948753467169","latitude":"53.4935964962134","location":{"type":"Point","coordinates":[-113.622656897009,53.493596496213]},"longitude":"-113.62265689700894","name_mixed":"Gariepy","number":"4160"}]
