[{"number":"5480","name_mixed":"Strathcona","area_sq_km":"1.5632647992655455","latitude":"53.522390203493686","longitude":"-113.4909855541071","location":{"type":"Point","coordinates":[-113.4909855541071,53.522390203493686]},"location_address":"","location_city":"","location_state":"","location_zip":""}
,{"number":"6610","name_mixed":"Ritchie","area_sq_km":"1.2701019203932593","latitude":"53.51327510136197","longitude":"-113.48274211553915","location":{"type":"Point","coordinates":[-113.48274211553915,53.51327510136197]},"location_address":"","location_city":"","location_state":"","location_zip":""}
,{"number":"6491","name_mixed":"Mill Creek Ravine North","area_sq_km":"0.7029990126991573","latitude":"53.5268577927483","longitude":"-113.47792345888683","location":{"type":"Point","coordinates":[-113.47792345888683,53.5268577927483]},"location_address":"","location_city":"","location_state":"","location_zip":""}
,{"number":"6040","name_mixed":"Bonnie Doon","area_sq_km":"1.500854364499884","latitude":"53.5253371249322","longitude":"-113.46711141142592","location":{"type":"Point","coordinates":[-113.46711141142592,53.5253371249322]},"location_address":"","location_city":"","location_state":"","location_zip":""}
,{"number":"6110","name_mixed":"CPR Irvine","area_sq_km":"0.6636097435101797","latitude":"53.50752668934572","longitude":"-113.4905491361979","location":{"type":"Point","coordinates":[-113.4905491361979,53.50752668934572]},"location_address":"","location_city":"","location_state":"","location_zip":""}]
