{
   "html_attributions" : [],
   "next_page_token" : "CpQECwIAAIVy9TB7e1fxtQRZBGit2_ydL-W88Oq0yjW3KhiIbT8pb7TCZu7Rs5Xj_nDUvS6yTlwbYcshi-UAcdYXeXXmMBk_1fiuCk4j6-2xoqydyOM8XexF4livuI5y9hRCt1ZV71uzuJr0FuQsiLLUAkyUJpLKix9cdYFuSL8z3TquL1au70y3qg55TaL2NNVO80m3i9H0pqJ6cUsDsQio8IcIvzVd9jNj_iiVcqZf2op6txHzCqUosejXmSP82sJ31QWz3W8JoZRcX6_CL3d6mtuRgYWu_F8g3-3bN9EY-ViQMnNVlqk-0KEf6qxDeu5XJ57T8mExPuRZruOYHqXEO_yXnTJAGMRvM6bB-CubSUDHhT_m67AS7fW5dLVecZUzmz6hIp9Av1_DZSI8gDGdIqlN-CTMRwXqXN1kj9wBkDdN8rCmbRW0sZNCY998wQ_n3Q-peP0Z78LdWcgXiBTzwFolVugBI7XM-dycXh3grytyFbuAAzAqo1gMX07j4Xk1z8_lEX8eM2b5yxtRyeeqD_h_ZLtTXJs03EUAI4fJSB0mPLUdVF5ztIoNP5pZmaT82qI-BKml0O9sEOiOVXdpfujyF1pFupkMqld5hV4_KhxRajn3u211caXeFXkVYvif39-tstMiCxL3nA9C9ZW2eQuTtaPIf6mC6UWGeDvTZcwUi9pIEqDCbHs28ypjVEFVCgpQExIQrVxHc14_tVsQPoYmgXH-SxoULCQ4TsNRp8Gi_A_JzWecI7yC-D0",
   "results" : [
      {
         "geometry" : {
            "location" : {
               "lat" : 43.787866,
               "lng" : -79.208095
            },
            "viewport" : {
               "northeast" : {
                  "lat" : 43.78920588029149,
                  "lng" : -79.2067600197085
               },
               "southwest" : {
                  "lat" : 43.7865079197085,
                  "lng" : -79.2094579802915
               }
            }
         },
         "icon" : "https://maps.gstatic.com/mapfiles/place_api/icons/bus-71.png",
         "id" : "005837db000252b3000a1e64512d9b76c1c6bbff",
         "name" : "Neilson Rd At Military Trail",
         "place_id" : "ChIJ2a4HtpvQ1IkR_YND3kqP7yo",
         "plus_code" : {
            "compound_code" : "QQQR+4Q Toronto, Ontario, Canada",
            "global_code" : "87M2QQQR+4Q"
         },
         "reference" : "ChIJ2a4HtpvQ1IkR_YND3kqP7yo",
         "scope" : "GOOGLE",
         "types" : [
            "bus_station",
            "transit_station",
            "point_of_interest",
            "establishment"
         ],
         "vicinity" : "Canada"
      },
      {
         "geometry" : {
            "location" : {
               "lat" : 43.787752,
               "lng" : -79.20814899999999
            },
            "viewport" : {
               "northeast" : {
                  "lat" : 43.7891201802915,
                  "lng" : -79.2067705197085
               },
               "southwest" : {
                  "lat" : 43.78642221970851,
                  "lng" : -79.20946848029151
               }
            }
         },
         "icon" : "https://maps.gstatic.com/mapfiles/place_api/icons/bus-71.png",
         "id" : "ef0109adcd02d67428244f1ae3b2f549c811af29",
         "name" : "Neilson Rd At Military Trail South Side",
         "photos" : [
            {
               "height" : 5312,
               "html_attributions" : [
                  "\u003ca href=\"https://maps.google.com/maps/contrib/108211322917742565621/photos\"\u003eAyavoo Anju\u003c/a\u003e"
               ],
               "photo_reference" : "CmRaAAAAAQ25yA2ptzERH00YayUcZb1lGXt_Ia2IlxFjbZCf5AcyRymucE0Rhq0jjeSGN3lDhs5rhkJIzjO3D6wWNpwkKxoibvkR_e4Sj8WS56KeBeB8mLmJKBkLGGNTz56paQ99EhDe5G-hePY7SFjzJf_oIvLGGhQORyAjO0TXnj9hFrh7ZID-X82bKQ",
               "width" : 2988
            }
         ],
         "place_id" : "ChIJEasytJvQ1IkRSzzE7Az_zNk",
         "plus_code" : {
            "compound_code" : "QQQR+4P Toronto, Ontario, Canada",
            "global_code" : "87M2QQQR+4P"
         },
         "rating" : 5,
         "reference" : "ChIJEasytJvQ1IkRSzzE7Az_zNk",
         "scope" : "GOOGLE",
         "types" : [
            "bus_station",
            "transit_station",
            "point_of_interest",
            "establishment"
         ],
         "user_ratings_total" : 1,
         "vicinity" : "Canada"
      },
      {
         "geometry" : {
            "location" : {
               "lat" : 43.796776,
               "lng" : -79.20671700000001
            },
            "viewport" : {
               "northeast" : {
                  "lat" : 43.7980064302915,
                  "lng" : -79.20403109999998
               },
               "southwest" : {
                  "lat" : 43.7953084697085,
                  "lng" : -79.20761230000001
               }
            }
         },
         "icon" : "https://maps.gstatic.com/mapfiles/place_api/icons/bus-71.png",
         "id" : "b2e3e40ffa361ed5f97c519b65055ef694039fbc",
         "name" : "715 Milner Ave",
         "place_id" : "ChIJp-B9xqPQ1IkRW0upTknlEJ0",
         "plus_code" : {
            "compound_code" : "QQWV+P8 Toronto, Ontario, Canada",
            "global_code" : "87M2QQWV+P8"
         },
         "reference" : "ChIJp-B9xqPQ1IkRW0upTknlEJ0",
         "scope" : "GOOGLE",
         "types" : [
            "bus_station",
            "transit_station",
            "point_of_interest",
            "establishment"
         ],
         "vicinity" : "Canada"
      },
      {
         "geometry" : {
            "location" : {
               "lat" : 43.796978,
               "lng" : -79.20635999999999
            },
            "viewport" : {
               "northeast" : {
                  "lat" : 43.7981112302915,
                  "lng" : -79.2042063
               },
               "southwest" : {
                  "lat" : 43.7954132697085,
                  "lng" : -79.20707789999999
               }
            }
         },
         "icon" : "https://maps.gstatic.com/mapfiles/place_api/icons/bus-71.png",
         "id" : "202a70db6454ed5693bb5c818951a6cdf60cd774",
         "name" : "Opposite 715 Milner Ave",
         "place_id" : "ChIJ8TI0w6PQ1IkRK0SyaOahWhc",
         "plus_code" : {
            "compound_code" : "QQWV+QF Toronto, Ontario, Canada",
            "global_code" : "87M2QQWV+QF"
         },
         "reference" : "ChIJ8TI0w6PQ1IkRK0SyaOahWhc",
         "scope" : "GOOGLE",
         "types" : [
            "bus_station",
            "transit_station",
            "point_of_interest",
            "establishment"
         ],
         "vicinity" : "Canada"
      },
      {
         "geometry" : {
            "location" : {
               "lat" : 43.790026,
               "lng" : -79.211421
            },
            "viewport" : {
               "northeast" : {
                  "lat" : 43.7913587802915,
                  "lng" : -79.21008831970849
               },
               "southwest" : {
                  "lat" : 43.7886608197085,
                  "lng" : -79.21278628029151
               }
            }
         },
         "icon" : "https://maps.gstatic.com/mapfiles/place_api/icons/bus-71.png",
         "id" : "3813526ef454871f71e7fac0c83e17ff5893f50a",
         "name" : "Neilson Rd At Keeler Blvd",
         "place_id" : "ChIJecwxWJfQ1IkRpMTCCwMBFQA",
         "plus_code" : {
            "compound_code" : "QQRQ+2C Toronto, Ontario, Canada",
            "global_code" : "87M2QQRQ+2C"
         },
         "reference" : "ChIJecwxWJfQ1IkRpMTCCwMBFQA",
         "scope" : "GOOGLE",
         "types" : [
            "bus_station",
            "transit_station",
            "point_of_interest",
            "establishment"
         ],
         "vicinity" : "Canada"
      },
      {
         "geometry" : {
            "location" : {
               "lat" : 43.797573,
               "lng" : -79.20448499999999
            },
            "viewport" : {
               "northeast" : {
                  "lat" : 43.7989466802915,
                  "lng" : -79.2031649697085
               },
               "southwest" : {
                  "lat" : 43.7962487197085,
                  "lng" : -79.2058629302915
               }
            }
         },
         "icon" : "https://maps.gstatic.com/mapfiles/place_api/icons/bus-71.png",
         "id" : "e490c4df2a7f961f9f4d8cbcbcf7921bfd59d43e",
         "name" : "Milner At Cinemart Dr",
         "place_id" : "ChIJI40iRqHQ1IkRXFHYXzbBQzU",
         "plus_code" : {
            "compound_code" : "QQXW+26 Toronto, Ontario, Canada",
            "global_code" : "87M2QQXW+26"
         },
         "reference" : "ChIJI40iRqHQ1IkRXFHYXzbBQzU",
         "scope" : "GOOGLE",
         "types" : [
            "bus_station",
            "transit_station",
            "point_of_interest",
            "establishment"
         ],
         "vicinity" : "Canada"
      },
      {
         "geometry" : {
            "location" : {
               "lat" : 43.792109,
               "lng" : -79.19565999999999
            },
            "viewport" : {
               "northeast" : {
                  "lat" : 43.7934602802915,
                  "lng" : -79.19430101970849
               },
               "southwest" : {
                  "lat" : 43.7907623197085,
                  "lng" : -79.1969989802915
               }
            }
         },
         "icon" : "https://maps.gstatic.com/mapfiles/place_api/icons/bus-71.png",
         "id" : "bb7346979c1e31a84e5bfed8dc349d10d9f0540e",
         "name" : "Morningside Ave At Tams Rd",
         "place_id" : "ChIJOzy-t3Ta1IkRlK96AxIn9qw",
         "plus_code" : {
            "compound_code" : "QRR3+RP Toronto, Ontario, Canada",
            "global_code" : "87M2QRR3+RP"
         },
         "reference" : "ChIJOzy-t3Ta1IkRlK96AxIn9qw",
         "scope" : "GOOGLE",
         "types" : [
            "bus_station",
            "transit_station",
            "point_of_interest",
            "establishment"
         ],
         "vicinity" : "Canada"
      },
      {
         "geometry" : {
            "location" : {
               "lat" : 43.790194,
               "lng" : -79.21197099999999
            },
            "viewport" : {
               "northeast" : {
                  "lat" : 43.7915571302915,
                  "lng" : -79.2106073197085
               },
               "southwest" : {
                  "lat" : 43.7888591697085,
                  "lng" : -79.21330528029151
               }
            }
         },
         "icon" : "https://maps.gstatic.com/mapfiles/place_api/icons/bus-71.png",
         "id" : "7603b88f41e0bd91f0f2f69ce6830fe6b26bdd0f",
         "name" : "Neilson Rd At Oakmeadow Blvd",
         "place_id" : "ChIJV_8qW5fQ1IkRHLKyjefM2ao",
         "plus_code" : {
            "compound_code" : "QQRQ+36 Toronto, Ontario, Canada",
            "global_code" : "87M2QQRQ+36"
         },
         "reference" : "ChIJV_8qW5fQ1IkRHLKyjefM2ao",
         "scope" : "GOOGLE",
         "types" : [
            "bus_station",
            "transit_station",
            "point_of_interest",
            "establishment"
         ],
         "vicinity" : "Canada"
      },
      {
         "geometry" : {
            "location" : {
               "lat" : 43.797885,
               "lng" : -79.204178
            },
            "viewport" : {
               "northeast" : {
                  "lat" : 43.7992355302915,
                  "lng" : -79.20283091970849
               },
               "southwest" : {
                  "lat" : 43.7965375697085,
                  "lng" : -79.20552888029151
               }
            }
         },
         "icon" : "https://maps.gstatic.com/mapfiles/place_api/icons/bus-71.png",
         "id" : "aee606b6e5b29db6bd2c422fe9d772b4537b8a2c",
         "name" : "Milner At Cinemart Dr",
         "place_id" : "ChIJyUTjNaHQ1IkR9xKZd1wBFpg",
         "plus_code" : {
            "compound_code" : "QQXW+58 Toronto, Ontario, Canada",
            "global_code" : "87M2QQXW+58"
         },
         "reference" : "ChIJyUTjNaHQ1IkR9xKZd1wBFpg",
         "scope" : "GOOGLE",
         "types" : [
            "bus_station",
            "transit_station",
            "point_of_interest",
            "establishment"
         ],
         "vicinity" : "Canada"
      },
      {
         "geometry" : {
            "location" : {
               "lat" : 43.79605,
               "lng" : -79.210042
            },
            "viewport" : {
               "northeast" : {
                  "lat" : 43.7977090802915,
                  "lng" : -79.20890241970848
               },
               "southwest" : {
                  "lat" : 43.7950111197085,
                  "lng" : -79.2116003802915
               }
            }
         },
         "icon" : "https://maps.gstatic.com/mapfiles/place_api/icons/bus-71.png",
         "id" : "26e6edaa7add5822257934b885fb3d28af9ed5e1",
         "name" : "715 Milner Ave",
         "place_id" : "ChIJbczU3aLQ1IkR1Cu4gc9f73A",
         "plus_code" : {
            "compound_code" : "QQWQ+CX Toronto, Ontario, Canada",
            "global_code" : "87M2QQWQ+CX"
         },
         "reference" : "ChIJbczU3aLQ1IkR1Cu4gc9f73A",
         "scope" : "GOOGLE",
         "types" : [
            "bus_station",
            "transit_station",
            "point_of_interest",
            "establishment"
         ],
         "vicinity" : "Canada"
      },
      {
         "geometry" : {
            "location" : {
               "lat" : 43.794916,
               "lng" : -79.19663899999999
            },
            "viewport" : {
               "northeast" : {
                  "lat" : 43.7962662802915,
                  "lng" : -79.1952798697085
               },
               "southwest" : {
                  "lat" : 43.7935683197085,
                  "lng" : -79.19797783029151
               }
            }
         },
         "icon" : "https://maps.gstatic.com/mapfiles/place_api/icons/bus-71.png",
         "id" : "b18696122c127d648c0b6e35d1e457dfd082665e",
         "name" : "Morningside Ave At Hwy 401 Southside",
         "place_id" : "ChIJid5VBgva1IkR33cwZ8bbvLI",
         "plus_code" : {
            "compound_code" : "QRV3+X8 Toronto, Ontario, Canada",
            "global_code" : "87M2QRV3+X8"
         },
         "reference" : "ChIJid5VBgva1IkR33cwZ8bbvLI",
         "scope" : "GOOGLE",
         "types" : [
            "bus_station",
            "transit_station",
            "point_of_interest",
            "establishment"
         ],
         "vicinity" : "Canada"
      },
      {
         "geometry" : {
            "location" : {
               "lat" : 43.79198299999999,
               "lng" : -79.195374
            },
            "viewport" : {
               "northeast" : {
                  "lat" : 43.79333408029149,
                  "lng" : -79.1940139197085
               },
               "southwest" : {
                  "lat" : 43.79063611970849,
                  "lng" : -79.1967118802915
               }
            }
         },
         "icon" : "https://maps.gstatic.com/mapfiles/place_api/icons/bus-71.png",
         "id" : "f68824ebc57b0afac9a57496f4ad73a59926a825",
         "name" : "Morningside Ave At Tams Rd",
         "place_id" : "ChIJd8QFunTa1IkRJiws_DUAfPg",
         "plus_code" : {
            "compound_code" : "QRR3+QV Toronto, Ontario, Canada",
            "global_code" : "87M2QRR3+QV"
         },
         "reference" : "ChIJd8QFunTa1IkRJiws_DUAfPg",
         "scope" : "GOOGLE",
         "types" : [
            "bus_station",
            "transit_station",
            "point_of_interest",
            "establishment"
         ],
         "vicinity" : "Canada"
      },
      {
         "geometry" : {
            "location" : {
               "lat" : 43.79611,
               "lng" : -79.21045599999999
            },
            "viewport" : {
               "northeast" : {
                  "lat" : 43.7977189802915,
                  "lng" : -79.20919986970848
               },
               "southwest" : {
                  "lat" : 43.7950210197085,
                  "lng" : -79.21189783029151
               }
            }
         },
         "icon" : "https://maps.gstatic.com/mapfiles/place_api/icons/bus-71.png",
         "id" : "4b1b341fc7ae4d399e0146ea64c3368048c9c6b2",
         "name" : "Opposite 715 Milner Ave",
         "place_id" : "ChIJA6KJ2aLQ1IkRr7xj43qWvzY",
         "plus_code" : {
            "compound_code" : "QQWQ+CR Toronto, Ontario, Canada",
            "global_code" : "87M2QQWQ+CR"
         },
         "reference" : "ChIJA6KJ2aLQ1IkRr7xj43qWvzY",
         "scope" : "GOOGLE",
         "types" : [
            "bus_station",
            "transit_station",
            "point_of_interest",
            "establishment"
         ],
         "vicinity" : "Canada"
      },
      {
         "geometry" : {
            "location" : {
               "lat" : 43.78541899999999,
               "lng" : -79.20613399999999
            },
            "viewport" : {
               "northeast" : {
                  "lat" : 43.7867639802915,
                  "lng" : -79.2048026197085
               },
               "southwest" : {
                  "lat" : 43.7840660197085,
                  "lng" : -79.20750058029151
               }
            }
         },
         "icon" : "https://maps.gstatic.com/mapfiles/place_api/icons/bus-71.png",
         "id" : "a025020d79c3e8bdfea6e6664eb55fd30a19ae54",
         "name" : "Neilson Rd At Livonia Pl",
         "place_id" : "ChIJYdAMZ5vQ1IkRp8N8MA2P5TU",
         "plus_code" : {
            "compound_code" : "QQPV+5G Toronto, Ontario, Canada",
            "global_code" : "87M2QQPV+5G"
         },
         "rating" : 4,
         "reference" : "ChIJYdAMZ5vQ1IkRp8N8MA2P5TU",
         "scope" : "GOOGLE",
         "types" : [
            "bus_station",
            "transit_station",
            "point_of_interest",
            "establishment"
         ],
         "user_ratings_total" : 1,
         "vicinity" : "Canada"
      },
      {
         "geometry" : {
            "location" : {
               "lat" : 43.785273,
               "lng" : -79.20623599999999
            },
            "viewport" : {
               "northeast" : {
                  "lat" : 43.7866324302915,
                  "lng" : -79.20484116970849
               },
               "southwest" : {
                  "lat" : 43.7839344697085,
                  "lng" : -79.20753913029149
               }
            }
         },
         "icon" : "https://maps.gstatic.com/mapfiles/place_api/icons/bus-71.png",
         "id" : "7ee228e8d266499213af166e2cec3f1834680302",
         "name" : "Neilson Rd At Purple Dusk Trail South Side",
         "place_id" : "ChIJfZMUXZvQ1IkRhIDT7KKh09A",
         "plus_code" : {
            "compound_code" : "QQPV+4G Toronto, Ontario, Canada",
            "global_code" : "87M2QQPV+4G"
         },
         "reference" : "ChIJfZMUXZvQ1IkRhIDT7KKh09A",
         "scope" : "GOOGLE",
         "types" : [
            "bus_station",
            "transit_station",
            "point_of_interest",
            "establishment"
         ],
         "vicinity" : "Canada"
      },
      {
         "geometry" : {
            "location" : {
               "lat" : 43.791122,
               "lng" : -79.213318
            },
            "viewport" : {
               "northeast" : {
                  "lat" : 43.7924467802915,
                  "lng" : -79.21200116970849
               },
               "southwest" : {
                  "lat" : 43.7897488197085,
                  "lng" : -79.21469913029151
               }
            }
         },
         "icon" : "https://maps.gstatic.com/mapfiles/place_api/icons/bus-71.png",
         "id" : "f5048c9ee675c33aeb055e456f38c6ff48b72289",
         "name" : "Neilson Rd At Oakmeadow Blvd",
         "place_id" : "ChIJxUe-EJfQ1IkROCA-tr0Y_jw",
         "plus_code" : {
            "compound_code" : "QQRP+CM Toronto, Ontario, Canada",
            "global_code" : "87M2QQRP+CM"
         },
         "reference" : "ChIJxUe-EJfQ1IkROCA-tr0Y_jw",
         "scope" : "GOOGLE",
         "types" : [
            "bus_station",
            "transit_station",
            "point_of_interest",
            "establishment"
         ],
         "vicinity" : "Canada"
      },
      {
         "geometry" : {
            "location" : {
               "lat" : 43.79869000000001,
               "lng" : -79.20293099999999
            },
            "viewport" : {
               "northeast" : {
                  "lat" : 43.8000133802915,
                  "lng" : -79.20155201970849
               },
               "southwest" : {
                  "lat" : 43.7973154197085,
                  "lng" : -79.20424998029149
               }
            }
         },
         "icon" : "https://maps.gstatic.com/mapfiles/place_api/icons/bus-71.png",
         "id" : "0fc34b5ef3310c5051629a890f6cf4d1616e47f2",
         "name" : "Milner Ave At Shadowood Crt",
         "place_id" : "ChIJCeg72KbQ1IkR7YF1D_xHmyA",
         "plus_code" : {
            "compound_code" : "QQXW+FR Toronto, Ontario, Canada",
            "global_code" : "87M2QQXW+FR"
         },
         "reference" : "ChIJCeg72KbQ1IkR7YF1D_xHmyA",
         "scope" : "GOOGLE",
         "types" : [
            "bus_station",
            "transit_station",
            "point_of_interest",
            "establishment"
         ],
         "vicinity" : "Canada"
      },
      {
         "geometry" : {
            "location" : {
               "lat" : 43.791222,
               "lng" : -79.21368699999999
            },
            "viewport" : {
               "northeast" : {
                  "lat" : 43.7925831302915,
                  "lng" : -79.21232111970849
               },
               "southwest" : {
                  "lat" : 43.7898851697085,
                  "lng" : -79.21501908029151
               }
            }
         },
         "icon" : "https://maps.gstatic.com/mapfiles/place_api/icons/bus-71.png",
         "id" : "0a483ad8d27e54fc500572098c2c4575531696d5",
         "name" : "Neilson Rd At Oakmeadow Blvd",
         "place_id" : "ChIJ5WecG5fQ1IkRN-2wp4dJoos",
         "plus_code" : {
            "compound_code" : "QQRP+FG Toronto, Ontario, Canada",
            "global_code" : "87M2QQRP+FG"
         },
         "reference" : "ChIJ5WecG5fQ1IkRN-2wp4dJoos",
         "scope" : "GOOGLE",
         "types" : [
            "bus_station",
            "transit_station",
            "point_of_interest",
            "establishment"
         ],
         "vicinity" : "Canada"
      },
      {
         "geometry" : {
            "location" : {
               "lat" : 43.789556,
               "lng" : -79.19460099999999
            },
            "viewport" : {
               "northeast" : {
                  "lat" : 43.7909116302915,
                  "lng" : -79.1932220197085
               },
               "southwest" : {
                  "lat" : 43.7882136697085,
                  "lng" : -79.19591998029151
               }
            }
         },
         "icon" : "https://maps.gstatic.com/mapfiles/place_api/icons/bus-71.png",
         "id" : "37f7539955b25b4b2c6cb9806baa335d05436304",
         "name" : "Morningside Ave At Military Trail",
         "place_id" : "ChIJIXVhd3Ta1IkRPDp-ZcgNoY0",
         "plus_code" : {
            "compound_code" : "QRQ4+R5 Toronto, Ontario, Canada",
            "global_code" : "87M2QRQ4+R5"
         },
         "reference" : "ChIJIXVhd3Ta1IkRPDp-ZcgNoY0",
         "scope" : "GOOGLE",
         "types" : [
            "bus_station",
            "transit_station",
            "point_of_interest",
            "establishment"
         ],
         "vicinity" : "Canada"
      },
      {
         "geometry" : {
            "location" : {
               "lat" : 43.797669,
               "lng" : -79.19748
            },
            "viewport" : {
               "northeast" : {
                  "lat" : 43.7990122302915,
                  "lng" : -79.1961485697085
               },
               "southwest" : {
                  "lat" : 43.7963142697085,
                  "lng" : -79.1988465302915
               }
            }
         },
         "icon" : "https://maps.gstatic.com/mapfiles/place_api/icons/bus-71.png",
         "id" : "e5d8bd7c62837f2395680e9c70c3182bb242d92d",
         "name" : "Morningside Ave At Cinemart Dr",
         "place_id" : "ChIJ0yLYgAna1IkRZ-77Sszka4w",
         "plus_code" : {
            "compound_code" : "QRX3+32 Toronto, Ontario, Canada",
            "global_code" : "87M2QRX3+32"
         },
         "reference" : "ChIJ0yLYgAna1IkRZ-77Sszka4w",
         "scope" : "GOOGLE",
         "types" : [
            "bus_station",
            "transit_station",
            "point_of_interest",
            "establishment"
         ],
         "vicinity" : "Canada"
      }
   ],
   "status" : "OK"
}
