{
   "html_attributions" : [],
   "next_page_token" : "ATtYBwIIvOPVFNPzHzzL639V4J9VWJzZ7SGEkjdO4vwQ7tpx4C2vpXboMI8qLD9cUPOrE7UKB0r8xAZAgHphTalTa0VnV1fw8wqj8zDbc9eaIXt6Vl5ZHc_Jso1-xJzRZ_ZuhYDieaq80ybAF0iM9qpcGAU0WY2KDD21VdyZU4mr5oubQndjDat0fgm8ZfB-aCbdf1JyjF5xAEcsA9dik6ghDKylyPfDuOlte0gvhTrZ6mC_ztEDpTDZgIXJ5t69pmlALXiVaJtWgcDu2xg2ipZf151zl5ng7WAgff9QyI23KDajtaZkZyBhrtwwOzafMZRYmgsz8JuV-1-nEB9-b5vyPOSl237SaqMUvkGFVKs_Co6Fx_JVvNcFmRTBNVD58Sn_6LCyGo7JpQ4w90o_rKZHOkwduuRbFfWG_0UugYdacME2x6_MC71gwEVsfLBlssVvKV86P8cadrL5ORMvvqXgJBQ6oXcSEer-x5z65G6HsiNqaeqAOXYtTXebi2jIbaPgmPNQFKjgWZSWx3CzMUbh3RXIoh0vb08CiuTa-7HltDZ6vWoit62CaFYVpX7noKsIPaHq0puQjKHX0CS_3uBa-A27H4oFJfs5ZWWHjnIgLMFiXLwvaB-LTGbwag01YqDzNIb4yvmyNFopLe2pg9EFXUjrUf0ttoxhfPrnFOMz3Ex1bIix32O__IgX9oTi-GHsP6elrATM1D2eH8H1hD4Ib8mY4uH29TSJ1Mj5mUrVaOlHmHnLPsDd-HhuqOTPy0rNx8C1Vg",
   "results" : [
      {
         "business_status" : "OPERATIONAL",
         "geometry" : {
            "location" : {
               "lat" : 43.591839,
               "lng" : -79.788437
            },
            "viewport" : {
               "northeast" : {
                  "lat" : 43.59314913029149,
                  "lng" : -79.78716886970849
               },
               "southwest" : {
                  "lat" : 43.59045116970849,
                  "lng" : -79.78986683029152
               }
            }
         },
         "icon" : "https://maps.gstatic.com/mapfiles/place_api/icons/v1/png_71/bus-71.png",
         "name" : "Lisgar GO Station",
         "obfuscated_type" : [],
         "photos" : [
            {
               "height" : 2200,
               "html_attributions" : [
                  "\u003ca href=\"https://maps.google.com/maps/contrib/104602614168809391977\"\u003esandeep yadav\u003c/a\u003e"
               ],
               "photo_reference" : "ATtYBwIpHrzqhZTD0f8PW2ZLeKhp3Sm_PVmTgWSAtpTA9JDwGC49y2SSF3BbN3rGEA--TbOWRDv7jNGVHxWv7TEr0DQndbR6U8ttbPzfqT-tVGrIs1xMwA_ChTEka3qFIJ2N10NAJIY4KhQ5RBnoOqmbWZ6suwpAKZCI-AvNkqA7eYo0ahdb",
               "width" : 3020
            }
         ],
         "place_id" : "ChIJxcYUj61rK4gRrWvPtrpjyEA",
         "plus_code" : {
            "compound_code" : "H6R6+PJ Mississauga, ON, Canada",
            "global_code" : "87M2H6R6+PJ"
         },
         "rating" : 4,
         "reference" : "ChIJxcYUj61rK4gRrWvPtrpjyEA",
         "scope" : "GOOGLE",
         "types" : [
            "bus_station",
            "transit_station",
            "point_of_interest",
            "establishment"
         ],
         "user_ratings_total" : 1,
         "vicinity" : "Canada"
      },
      {
         "business_status" : "OPERATIONAL",
         "geometry" : {
            "location" : {
               "lat" : 43.592105,
               "lng" : -79.78827799999999
            },
            "viewport" : {
               "northeast" : {
                  "lat" : 43.5934309302915,
                  "lng" : -79.78715216970849
               },
               "southwest" : {
                  "lat" : 43.5907329697085,
                  "lng" : -79.7898501302915
               }
            }
         },
         "icon" : "https://maps.gstatic.com/mapfiles/place_api/icons/v1/png_71/bus-71.png",
         "name" : "Lisgar Go Station Platform 7",
         "obfuscated_type" : [],
         "photos" : [
            {
               "height" : 4032,
               "html_attributions" : [
                  "\u003ca href=\"https://maps.google.com/maps/contrib/101357741796601564655\"\u003eSaleem Nahab\u003c/a\u003e"
               ],
               "photo_reference" : "ATtYBwIsKW4mZ8D2obvxdVuGPY0sItf0QxteRnkYxDgXjbHX26Y36QbxDsKslqNM0zUncxvjcM43y5VsyhvNeULSb--dl3FXJOg2RaUTYjjxfFNCSlSDDrK_dW05bgUfxgFClLeQi9LGKNu063BvNxSIrCmz0q2Udmtiof1ict7QkOAmjR4",
               "width" : 3024
            }
         ],
         "place_id" : "ChIJMcOVmq1rK4gRYl82JdATDhc",
         "plus_code" : {
            "compound_code" : "H6R6+RM Mississauga, ON, Canada",
            "global_code" : "87M2H6R6+RM"
         },
         "rating" : 5,
         "reference" : "ChIJMcOVmq1rK4gRYl82JdATDhc",
         "scope" : "GOOGLE",
         "types" : [
            "bus_station",
            "transit_station",
            "point_of_interest",
            "establishment"
         ],
         "user_ratings_total" : 2,
         "vicinity" : "Canada"
      },
      {
         "business_status" : "OPERATIONAL",
         "geometry" : {
            "location" : {
               "lat" : 43.606796,
               "lng" : -79.796936
            },
            "viewport" : {
               "northeast" : {
                  "lat" : 43.6081807302915,
                  "lng" : -79.7955385697085
               },
               "southwest" : {
                  "lat" : 43.6054827697085,
                  "lng" : -79.7982365302915
               }
            }
         },
         "icon" : "https://maps.gstatic.com/mapfiles/place_api/icons/v1/png_71/bus-71.png",
         "name" : "Winston Churchill - Zum Steeles Station Stop WB",
         "obfuscated_type" : [],
         "place_id" : "ChIJozMrSQ9rK4gRSm8Sv-fwgZg",
         "plus_code" : {
            "compound_code" : "J643+P6 Halton Hills, ON, Canada",
            "global_code" : "87M2J643+P6"
         },
         "reference" : "ChIJozMrSQ9rK4gRSm8Sv-fwgZg",
         "scope" : "GOOGLE",
         "types" : [
            "bus_station",
            "transit_station",
            "point_of_interest",
            "establishment"
         ],
         "vicinity" : "Canada"
      },
      {
         "business_status" : "OPERATIONAL",
         "geometry" : {
            "location" : {
               "lat" : 43.608097,
               "lng" : -79.796936
            },
            "viewport" : {
               "northeast" : {
                  "lat" : 43.6094699802915,
                  "lng" : -79.7956281197085
               },
               "southwest" : {
                  "lat" : 43.60677201970851,
                  "lng" : -79.7983260802915
               }
            }
         },
         "icon" : "https://maps.gstatic.com/mapfiles/place_api/icons/v1/png_71/bus-71.png",
         "name" : "Winston Churchill - Zum Steeles Station Stop EB",
         "obfuscated_type" : [],
         "photos" : [
            {
               "height" : 4032,
               "html_attributions" : [
                  "\u003ca href=\"https://maps.google.com/maps/contrib/116797898491872212361\"\u003eCharlton Siao\u003c/a\u003e"
               ],
               "photo_reference" : "ATtYBwJcH7Ydsl26eEH1G5O2z2Boesz1vInSVkCgjFXozNqF0_2ijZ6jL_C3w-ZHIrrbJ-Uaf_hLwvWCpQdPhn3RSmzrUxxhLnddbuERbZ5M_NZlH5overe-ICBz8mCGmS1HDsONiXku6URz1BHQfOXVLqWX0bDhT99fYJ_bqKBTJbR0pSgs",
               "width" : 3024
            }
         ],
         "place_id" : "ChIJVRO8bg9rK4gRSzrtafA6tsQ",
         "plus_code" : {
            "compound_code" : "J653+66 Brampton, ON, Canada",
            "global_code" : "87M2J653+66"
         },
         "reference" : "ChIJVRO8bg9rK4gRSzrtafA6tsQ",
         "scope" : "GOOGLE",
         "types" : [
            "bus_station",
            "transit_station",
            "point_of_interest",
            "establishment"
         ],
         "vicinity" : "Canada"
      },
      {
         "business_status" : "OPERATIONAL",
         "geometry" : {
            "location" : {
               "lat" : 43.58435749999999,
               "lng" : -79.76178460000001
            },
            "viewport" : {
               "northeast" : {
                  "lat" : 43.5856736302915,
                  "lng" : -79.7603907197085
               },
               "southwest" : {
                  "lat" : 43.5829756697085,
                  "lng" : -79.7630886802915
               }
            }
         },
         "icon" : "https://maps.gstatic.com/mapfiles/place_api/icons/v1/png_71/bus-71.png",
         "name" : "Aquitaine Ave At Formentera Ave",
         "obfuscated_type" : [],
         "place_id" : "ChIJX8kM-GlqK4gR7vaITaqL6t4",
         "plus_code" : {
            "compound_code" : "H6MQ+P7 Mississauga, ON, Canada",
            "global_code" : "87M2H6MQ+P7"
         },
         "reference" : "ChIJX8kM-GlqK4gR7vaITaqL6t4",
         "scope" : "GOOGLE",
         "types" : [
            "bus_station",
            "transit_station",
            "point_of_interest",
            "establishment"
         ],
         "vicinity" : "Canada"
      },
      {
         "business_status" : "OPERATIONAL",
         "geometry" : {
            "location" : {
               "lat" : 43.61718399999999,
               "lng" : -79.787369
            },
            "viewport" : {
               "northeast" : {
                  "lat" : 43.6185024802915,
                  "lng" : -79.78596816970851
               },
               "southwest" : {
                  "lat" : 43.6158045197085,
                  "lng" : -79.78866613029152
               }
            }
         },
         "icon" : "https://maps.gstatic.com/mapfiles/place_api/icons/v1/png_71/bus-71.png",
         "name" : "Heritage - Zum Steeles Station Stop WB",
         "obfuscated_type" : [],
         "place_id" : "ChIJs3B-VB5rK4gRAuZ21hD3IxA",
         "plus_code" : {
            "compound_code" : "J687+V3 Brampton, ON, Canada",
            "global_code" : "87M2J687+V3"
         },
         "rating" : 4,
         "reference" : "ChIJs3B-VB5rK4gRAuZ21hD3IxA",
         "scope" : "GOOGLE",
         "types" : [
            "bus_station",
            "transit_station",
            "point_of_interest",
            "establishment"
         ],
         "user_ratings_total" : 1,
         "vicinity" : "Canada"
      },
      {
         "business_status" : "OPERATIONAL",
         "geometry" : {
            "location" : {
               "lat" : 43.524441,
               "lng" : -79.842406
            },
            "viewport" : {
               "northeast" : {
                  "lat" : 43.5257440802915,
                  "lng" : -79.84097961970848
               },
               "southwest" : {
                  "lat" : 43.5230461197085,
                  "lng" : -79.8436775802915
               }
            }
         },
         "icon" : "https://maps.gstatic.com/mapfiles/place_api/icons/v1/png_71/bus-71.png",
         "name" : "Derry Rd. @ Sauve St.",
         "obfuscated_type" : [],
         "place_id" : "ChIJvUEP3SVvK4gRmvkt34KALFA",
         "plus_code" : {
            "compound_code" : "G5F5+Q2 Milton, ON, Canada",
            "global_code" : "87M2G5F5+Q2"
         },
         "reference" : "ChIJvUEP3SVvK4gRmvkt34KALFA",
         "scope" : "GOOGLE",
         "types" : [
            "bus_station",
            "transit_station",
            "point_of_interest",
            "establishment"
         ],
         "vicinity" : "Canada"
      },
      {
         "business_status" : "OPERATIONAL",
         "geometry" : {
            "location" : {
               "lat" : 43.583267,
               "lng" : -79.758978
            },
            "viewport" : {
               "northeast" : {
                  "lat" : 43.5848984302915,
                  "lng" : -79.7578166697085
               },
               "southwest" : {
                  "lat" : 43.5822004697085,
                  "lng" : -79.76051463029151
               }
            }
         },
         "icon" : "https://maps.gstatic.com/mapfiles/place_api/icons/v1/png_71/bus-71.png",
         "name" : "Meadowvale Town Centre Bus Terminal Platform D",
         "obfuscated_type" : [],
         "photos" : [
            {
               "height" : 2592,
               "html_attributions" : [
                  "\u003ca href=\"https://maps.google.com/maps/contrib/118216284876025851872\"\u003eMarlo del Mar\u003c/a\u003e"
               ],
               "photo_reference" : "ATtYBwLdsaazlziqnahC4_SATxXb5m7y9KwpPlPzl4jSoHAuCHY1dBiSz33DiaIcTR3kgNqIMsRmGWSwacDU5HEopLGLnV0NP7uk2bKk0fnEsjfOj_1vKTYJMf6nZRBJGRTW0NGb1-3K6daSl9uKsRIbBzLawOJnSumqaD2I1kTMlZmPphc",
               "width" : 1936
            }
         ],
         "place_id" : "ChIJv35xz2tqK4gRIqjEDYm_pT8",
         "plus_code" : {
            "compound_code" : "H6MR+8C Mississauga, ON, Canada",
            "global_code" : "87M2H6MR+8C"
         },
         "rating" : 4,
         "reference" : "ChIJv35xz2tqK4gRIqjEDYm_pT8",
         "scope" : "GOOGLE",
         "types" : [
            "bus_station",
            "transit_station",
            "point_of_interest",
            "establishment"
         ],
         "user_ratings_total" : 1,
         "vicinity" : "Canada"
      },
      {
         "business_status" : "OPERATIONAL",
         "geometry" : {
            "location" : {
               "lat" : 43.58342899999999,
               "lng" : -79.759
            },
            "viewport" : {
               "northeast" : {
                  "lat" : 43.58497943029149,
                  "lng" : -79.75782766970849
               },
               "southwest" : {
                  "lat" : 43.58228146970849,
                  "lng" : -79.7605256302915
               }
            }
         },
         "icon" : "https://maps.gstatic.com/mapfiles/place_api/icons/v1/png_71/bus-71.png",
         "name" : "Meadowvale Town Centre Bus Terminal Platform C",
         "obfuscated_type" : [],
         "place_id" : "ChIJ86bgz2tqK4gRkZgup5iaxtw",
         "plus_code" : {
            "compound_code" : "H6MR+99 Mississauga, ON, Canada",
            "global_code" : "87M2H6MR+99"
         },
         "rating" : 5,
         "reference" : "ChIJ86bgz2tqK4gRkZgup5iaxtw",
         "scope" : "GOOGLE",
         "types" : [
            "bus_station",
            "transit_station",
            "point_of_interest",
            "establishment"
         ],
         "user_ratings_total" : 1,
         "vicinity" : "Canada"
      },
      {
         "business_status" : "OPERATIONAL",
         "geometry" : {
            "location" : {
               "lat" : 43.583609,
               "lng" : -79.759033
            },
            "viewport" : {
               "northeast" : {
                  "lat" : 43.5850694302915,
                  "lng" : -79.75784416970849
               },
               "southwest" : {
                  "lat" : 43.5823714697085,
                  "lng" : -79.76054213029151
               }
            }
         },
         "icon" : "https://maps.gstatic.com/mapfiles/place_api/icons/v1/png_71/bus-71.png",
         "name" : "Meadowvale Town Centre Bus Terminal Platform B",
         "obfuscated_type" : [],
         "place_id" : "ChIJfeH20GtqK4gRy-CETSEWQds",
         "plus_code" : {
            "compound_code" : "H6MR+C9 Mississauga, ON, Canada",
            "global_code" : "87M2H6MR+C9"
         },
         "reference" : "ChIJfeH20GtqK4gRy-CETSEWQds",
         "scope" : "GOOGLE",
         "types" : [
            "bus_station",
            "transit_station",
            "point_of_interest",
            "establishment"
         ],
         "vicinity" : "Canada"
      },
      {
         "business_status" : "OPERATIONAL",
         "geometry" : {
            "location" : {
               "lat" : 43.58312000000001,
               "lng" : -79.75878299999999
            },
            "viewport" : {
               "northeast" : {
                  "lat" : 43.5841679802915,
                  "lng" : -79.75728941970851
               },
               "southwest" : {
                  "lat" : 43.5814700197085,
                  "lng" : -79.75998738029152
               }
            }
         },
         "icon" : "https://maps.gstatic.com/mapfiles/place_api/icons/v1/png_71/bus-71.png",
         "name" : "Meadowvale Town Centre Bus Terminal Platform E",
         "obfuscated_type" : [],
         "place_id" : "ChIJlYZ3xmtqK4gR6yZ1XUyTcA8",
         "plus_code" : {
            "compound_code" : "H6MR+6F Mississauga, ON, Canada",
            "global_code" : "87M2H6MR+6F"
         },
         "reference" : "ChIJlYZ3xmtqK4gR6yZ1XUyTcA8",
         "scope" : "GOOGLE",
         "types" : [
            "bus_station",
            "transit_station",
            "point_of_interest",
            "establishment"
         ],
         "vicinity" : "Canada"
      },
      {
         "business_status" : "OPERATIONAL",
         "geometry" : {
            "location" : {
               "lat" : 43.58389799999999,
               "lng" : -79.75882799999999
            },
            "viewport" : {
               "northeast" : {
                  "lat" : 43.58536308029149,
                  "lng" : -79.7574790197085
               },
               "southwest" : {
                  "lat" : 43.58266511970849,
                  "lng" : -79.7601769802915
               }
            }
         },
         "icon" : "https://maps.gstatic.com/mapfiles/place_api/icons/v1/png_71/bus-71.png",
         "name" : "Meadowvale Town Centre Bus Terminal Platform J",
         "obfuscated_type" : [],
         "place_id" : "ChIJcRg22GtqK4gR4rTwuINecYM",
         "plus_code" : {
            "compound_code" : "H6MR+HF Mississauga, ON, Canada",
            "global_code" : "87M2H6MR+HF"
         },
         "reference" : "ChIJcRg22GtqK4gR4rTwuINecYM",
         "scope" : "GOOGLE",
         "types" : [
            "bus_station",
            "transit_station",
            "point_of_interest",
            "establishment"
         ],
         "vicinity" : "Canada"
      },
      {
         "business_status" : "OPERATIONAL",
         "geometry" : {
            "location" : {
               "lat" : 43.583109,
               "lng" : -79.75856
            },
            "viewport" : {
               "northeast" : {
                  "lat" : 43.5841638802915,
                  "lng" : -79.75716631970849
               },
               "southwest" : {
                  "lat" : 43.5814659197085,
                  "lng" : -79.75986428029151
               }
            }
         },
         "icon" : "https://maps.gstatic.com/mapfiles/place_api/icons/v1/png_71/bus-71.png",
         "name" : "Meadowvale Town Centre Bus Terminal Platform F",
         "obfuscated_type" : [],
         "photos" : [
            {
               "height" : 3456,
               "html_attributions" : [
                  "\u003ca href=\"https://maps.google.com/maps/contrib/102906163359894438736\"\u003eCharles Bhachu\u003c/a\u003e"
               ],
               "photo_reference" : "ATtYBwJCwy76k5CdD4AtNcsFH8A451EugRXEQyUZfbjjzlHbGZ3HEO57s8X0qyeSt-39uOnQulnQ0acsIdowG2kT5CSHMBBlLzDEYOclNjA7aA3LT4TeFY1a3MxLn4EuIQs4GxOBJXsVY6xe-Pfssu18fhY80yz6QGOTGtT_UZx8BMWRgYu3",
               "width" : 4608
            }
         ],
         "place_id" : "ChIJBe7_w2tqK4gR8jh_kIJw7Dc",
         "plus_code" : {
            "compound_code" : "H6MR+6H Mississauga, ON, Canada",
            "global_code" : "87M2H6MR+6H"
         },
         "rating" : 4,
         "reference" : "ChIJBe7_w2tqK4gR8jh_kIJw7Dc",
         "scope" : "GOOGLE",
         "types" : [
            "bus_station",
            "transit_station",
            "point_of_interest",
            "establishment"
         ],
         "user_ratings_total" : 3,
         "vicinity" : "Canada"
      },
      {
         "business_status" : "OPERATIONAL",
         "geometry" : {
            "location" : {
               "lat" : 43.523968,
               "lng" : -79.84231199999999
            },
            "viewport" : {
               "northeast" : {
                  "lat" : 43.5253431302915,
                  "lng" : -79.84100861970849
               },
               "southwest" : {
                  "lat" : 43.5226451697085,
                  "lng" : -79.8437065802915
               }
            }
         },
         "icon" : "https://maps.gstatic.com/mapfiles/place_api/icons/v1/png_71/bus-71.png",
         "name" : "Derry Rd. @ Sauve St.",
         "obfuscated_type" : [],
         "place_id" : "ChIJYd_kwSVvK4gREfsnogFh4Bg",
         "plus_code" : {
            "compound_code" : "G5F5+H3 Milton, ON, Canada",
            "global_code" : "87M2G5F5+H3"
         },
         "reference" : "ChIJYd_kwSVvK4gREfsnogFh4Bg",
         "scope" : "GOOGLE",
         "types" : [
            "bus_station",
            "transit_station",
            "point_of_interest",
            "establishment"
         ],
         "vicinity" : "Canada"
      },
      {
         "business_status" : "OPERATIONAL",
         "geometry" : {
            "location" : {
               "lat" : 43.583658,
               "lng" : -79.758549
            },
            "viewport" : {
               "northeast" : {
                  "lat" : 43.58500863029149,
                  "lng" : -79.75693521970848
               },
               "southwest" : {
                  "lat" : 43.5823106697085,
                  "lng" : -79.7596331802915
               }
            }
         },
         "icon" : "https://maps.gstatic.com/mapfiles/place_api/icons/v1/png_71/bus-71.png",
         "name" : "Meadowvale Town Centre Bus Terminal Platform I",
         "obfuscated_type" : [],
         "place_id" : "ChIJEe4I3GtqK4gRNlaARioMHPs",
         "plus_code" : {
            "compound_code" : "H6MR+FH Mississauga, ON, Canada",
            "global_code" : "87M2H6MR+FH"
         },
         "reference" : "ChIJEe4I3GtqK4gRNlaARioMHPs",
         "scope" : "GOOGLE",
         "types" : [
            "bus_station",
            "transit_station",
            "point_of_interest",
            "establishment"
         ],
         "vicinity" : "Canada"
      },
      {
         "business_status" : "OPERATIONAL",
         "geometry" : {
            "location" : {
               "lat" : 43.58353,
               "lng" : -79.758391
            },
            "viewport" : {
               "northeast" : {
                  "lat" : 43.5849558802915,
                  "lng" : -79.7568562197085
               },
               "southwest" : {
                  "lat" : 43.5822579197085,
                  "lng" : -79.7595541802915
               }
            }
         },
         "icon" : "https://maps.gstatic.com/mapfiles/place_api/icons/v1/png_71/bus-71.png",
         "name" : "Meadowvale Town Centre Bus Terminal Platform H",
         "obfuscated_type" : [],
         "photos" : [
            {
               "height" : 4032,
               "html_attributions" : [
                  "\u003ca href=\"https://maps.google.com/maps/contrib/101357741796601564655\"\u003eSaleem Nahab\u003c/a\u003e"
               ],
               "photo_reference" : "ATtYBwJyM5TGWgtoMieMuK0CAxMitJoXfQYcJgE958qmEqv3UH5hpS3biGxckZflxz4vQD_AEDUFRDW4wFiNr6J5ipO5u6pujJguzDz6HSdYDhqJZehM0-6xn4Sy2TDHpNLgeD5nCWbUii-lfYO9-V5dPlir6nL3oWuhxjNtoudYSFc54eo",
               "width" : 3024
            }
         ],
         "place_id" : "ChIJ0c3_3GtqK4gRNk_3bNiOJJw",
         "plus_code" : {
            "compound_code" : "H6MR+CJ Mississauga, ON, Canada",
            "global_code" : "87M2H6MR+CJ"
         },
         "rating" : 5,
         "reference" : "ChIJ0c3_3GtqK4gRNk_3bNiOJJw",
         "scope" : "GOOGLE",
         "types" : [
            "bus_station",
            "transit_station",
            "point_of_interest",
            "establishment"
         ],
         "user_ratings_total" : 2,
         "vicinity" : "Canada"
      },
      {
         "business_status" : "OPERATIONAL",
         "geometry" : {
            "location" : {
               "lat" : 43.583367,
               "lng" : -79.75829499999999
            },
            "viewport" : {
               "northeast" : {
                  "lat" : 43.5848502302915,
                  "lng" : -79.75678026970849
               },
               "southwest" : {
                  "lat" : 43.5821522697085,
                  "lng" : -79.75947823029149
               }
            }
         },
         "icon" : "https://maps.gstatic.com/mapfiles/place_api/icons/v1/png_71/bus-71.png",
         "name" : "Meadowvale Town Centre Bus Terminal Platform G",
         "obfuscated_type" : [],
         "photos" : [
            {
               "height" : 3480,
               "html_attributions" : [
                  "\u003ca href=\"https://maps.google.com/maps/contrib/111243045510233108030\"\u003eDaniel\u003c/a\u003e"
               ],
               "photo_reference" : "ATtYBwIV3GZEa30B6kCnL8ubMz7i3qaDB5jcjJyJi2teYrYy9kxBGjlSK0oU-V9zV7_RuioSngXsAL60fycdOHwvBCO9Ui2yarotls3s7ppU-T2zJ0dRY0qY88hi6z1DGg5ZFiF2y_EsnQYk6wn4sgijrbM3brx-RoWQzqjybYaGDZ08V0d_",
               "width" : 4640
            }
         ],
         "place_id" : "ChIJx8a1wmtqK4gRDW8qOKpc07Y",
         "plus_code" : {
            "compound_code" : "H6MR+8M Mississauga, ON, Canada",
            "global_code" : "87M2H6MR+8M"
         },
         "rating" : 5,
         "reference" : "ChIJx8a1wmtqK4gRDW8qOKpc07Y",
         "scope" : "GOOGLE",
         "types" : [
            "bus_station",
            "transit_station",
            "point_of_interest",
            "establishment"
         ],
         "user_ratings_total" : 1,
         "vicinity" : "Canada"
      },
      {
         "business_status" : "OPERATIONAL",
         "geometry" : {
            "location" : {
               "lat" : 43.617924,
               "lng" : -79.785973
            },
            "viewport" : {
               "northeast" : {
                  "lat" : 43.61930538029149,
                  "lng" : -79.7846802697085
               },
               "southwest" : {
                  "lat" : 43.6166074197085,
                  "lng" : -79.78737823029151
               }
            }
         },
         "icon" : "https://maps.gstatic.com/mapfiles/place_api/icons/v1/png_71/bus-71.png",
         "name" : "Heritage - Zum Steeles Station Stop EB",
         "obfuscated_type" : [],
         "photos" : [
            {
               "height" : 2592,
               "html_attributions" : [
                  "\u003ca href=\"https://maps.google.com/maps/contrib/104969330997024340805\"\u003eYogendrasinh Vala\u003c/a\u003e"
               ],
               "photo_reference" : "ATtYBwISDUjVQD9N6yhGhdIVi2V0nmQka1yO4ZNQWcGd3VLLykIJ7wc-Ls0kRBcHIbYPsNNOD8-dFszlFOcW53EbcQNrhsYp0bZDq4pLq6GoSP-5L28euEY8-OlO46CU-yWoF8mdwFVCMoY36q3wYqmaJhTlbUhHbLA_koMFMHKN74WwI0EQ",
               "width" : 1944
            }
         ],
         "place_id" : "ChIJ6WGKyB9rK4gRIwQF_Xx3JkU",
         "plus_code" : {
            "compound_code" : "J697+5J Brampton, ON, Canada",
            "global_code" : "87M2J697+5J"
         },
         "rating" : 3.3,
         "reference" : "ChIJ6WGKyB9rK4gRIwQF_Xx3JkU",
         "scope" : "GOOGLE",
         "types" : [
            "bus_station",
            "transit_station",
            "point_of_interest",
            "establishment"
         ],
         "user_ratings_total" : 3,
         "vicinity" : "Canada"
      },
      {
         "business_status" : "OPERATIONAL",
         "geometry" : {
            "location" : {
               "lat" : 43.6220671,
               "lng" : -79.78198209999999
            },
            "viewport" : {
               "northeast" : {
                  "lat" : 43.62339028029149,
                  "lng" : -79.78058546970848
               },
               "southwest" : {
                  "lat" : 43.62069231970849,
                  "lng" : -79.78328343029149
               }
            }
         },
         "icon" : "https://maps.gstatic.com/mapfiles/place_api/icons/v1/png_71/bus-71.png",
         "name" : "Rivermont",
         "obfuscated_type" : [],
         "place_id" : "ChIJS3YD_t5qK4gRkq6iuvaYYjc",
         "plus_code" : {
            "compound_code" : "J6C9+R6 Brampton, ON, Canada",
            "global_code" : "87M2J6C9+R6"
         },
         "rating" : 5,
         "reference" : "ChIJS3YD_t5qK4gRkq6iuvaYYjc",
         "scope" : "GOOGLE",
         "types" : [
            "bus_station",
            "transit_station",
            "point_of_interest",
            "establishment"
         ],
         "user_ratings_total" : 1,
         "vicinity" : "Canada"
      },
      {
         "business_status" : "OPERATIONAL",
         "geometry" : {
            "location" : {
               "lat" : 43.5974634,
               "lng" : -79.7551297
            },
            "viewport" : {
               "northeast" : {
                  "lat" : 43.59872558029149,
                  "lng" : -79.7537850197085
               },
               "southwest" : {
                  "lat" : 43.5960276197085,
                  "lng" : -79.75648298029151
               }
            }
         },
         "icon" : "https://maps.gstatic.com/mapfiles/place_api/icons/v1/png_71/bus-71.png",
         "name" : "Meadowvale Go Station Platform 3",
         "obfuscated_type" : [],
         "place_id" : "ChIJ-UdbN2JqK4gRk4DJsI4jCX8",
         "plus_code" : {
            "compound_code" : "H6WV+XW Mississauga, ON, Canada",
            "global_code" : "87M2H6WV+XW"
         },
         "reference" : "ChIJ-UdbN2JqK4gRk4DJsI4jCX8",
         "scope" : "GOOGLE",
         "types" : [
            "bus_station",
            "transit_station",
            "point_of_interest",
            "establishment"
         ],
         "vicinity" : "Canada"
      }
   ],
   "status" : "OK"
}
