[{"class":"Residential","class_code":"1","comm_code":"THO","name":"THORNCLIFFE","sector":"NORTH","srg":"BUILT-OUT","comm_structure":"1950s","longitude":"-114.06877697721175","latitude":"51.103099775816034","location":{"type":"Point","coordinates":[-114.06877697721175,51.103099775816034]},"location_address":"","location_city":"","location_state":"","location_zip":""}
,{"class":"Industrial","class_code":"2","comm_code":"SKW","name":"SKYLINE WEST","sector":"NORTH","srg":"N/A","comm_structure":"EMPLOYMENT","longitude":"-114.04739944342066","latitude":"51.10333048511899","location":{"type":"Point","coordinates":[-114.04739944342066,51.10333048511899]},"location_address":"","location_city":"","location_state":"","location_zip":""}
,{"class":"Residential","class_code":"1","comm_code":"GRV","name":"GREENVIEW","sector":"CENTRE","srg":"BUILT-OUT","comm_structure":"1960s/1970s","longitude":"-114.05746611482517","latitude":"51.09485595375043","location":{"type":"Point","coordinates":[-114.05746611482517,51.09485595375043]},"location_address":"","location_city":"","location_state":"","location_zip":""}
,{"class":"Residential","class_code":"1","comm_code":"HUN","name":"HUNTINGTON HILLS","sector":"NORTH","srg":"BUILT-OUT","comm_structure":"1960s/1970s","longitude":"-114.0667011472206","latitude":"51.117583908420535","location":{"type":"Point","coordinates":[-114.0667011472206,51.117583908420535]},"location_address":"","location_city":"","location_state":"","location_zip":""}
,{"class":"Residential","class_code":"1","comm_code":"NHU","name":"NORTH HAVEN UPPER","sector":"NORTH","srg":"BUILT-OUT","comm_structure":"1960s/1970s","longitude":"-114.08706276379075","latitude":"51.103216351455245","location":{"type":"Point","coordinates":[-114.08706276379075,51.103216351455245]},"location_address":"","location_city":"","location_state":"","location_zip":""}]
