[{"area_sq_km":"0.8179145122296373","latitude":"53.407345093084004","location":{"type":"Point","coordinates":[-113.526791962915,53.407345093084]},"longitude":"-113.52679196291467","name_mixed":"Callaghan","number":"5457"}
,{"area_sq_km":"2.2499550662661476","latitude":"53.416764847830216","location":{"type":"Point","coordinates":[-113.529788024396,53.41676484783]},"longitude":"-113.5297880243958","name_mixed":"Rutherford","number":"5454"}
,{"area_sq_km":"1.034295253336269","latitude":"53.40640411822183","location":{"type":"Point","coordinates":[-113.543915875791,53.406404118222]},"longitude":"-113.54391587579082","name_mixed":"Heritage Valley Town Centre Area","number":"5464"}
,{"area_sq_km":"1.316920191330661","latitude":"53.41764139437991","location":{"type":"Point","coordinates":[-113.547053338623,53.41764139438]},"longitude":"-113.54705333862337","name_mixed":"Heritage Valley Area","number":"5456"}
,{"area_sq_km":"1.6668758513888273","latitude":"53.40119302863308","location":{"type":"Point","coordinates":[-113.526641485466,53.401193028633]},"longitude":"-113.52664148546579","name_mixed":"Allard","number":"5458"}]
