[{"number":"1020","name_mixed":"Boyle Street","area_sq_km":"0.8813521688886549","latitude":"53.547631045669235","longitude":"-113.47926288099585","location":{"type":"Point","coordinates":[-113.47926288099585,53.547631045669235]},"location_address":"","location_city":"","location_state":"","location_zip":""}
,{"number":"1210","name_mixed":"Riverdale","area_sq_km":"1.0685238410199656","latitude":"53.54410729040709","longitude":"-113.46901088237121","location":{"type":"Point","coordinates":[-113.46901088237121,53.54410729040709]},"location_address":"","location_city":"","location_state":"","location_zip":""}
,{"number":"6070","name_mixed":"Cloverdale","area_sq_km":"1.0910637533896657","latitude":"53.53685804859474","longitude":"-113.47401190528413","location":{"type":"Point","coordinates":[-113.47401190528413,53.53685804859474]},"location_address":"","location_city":"","location_state":"","location_zip":""}
,{"number":"6630","name_mixed":"River Valley Riverside","area_sq_km":"1.2493596016977029","latitude":"53.54845932800452","longitude":"-113.46339725832391","location":{"type":"Point","coordinates":[-113.46339725832391,53.54845932800452]},"location_address":"","location_city":"","location_state":"","location_zip":""}
,{"number":"1190","name_mixed":"River Valley Kinnaird","area_sq_km":"0.8557678573848885","latitude":"53.55424923247722","longitude":"-113.46952354863328","location":{"type":"Point","coordinates":[-113.46952354863328,53.55424923247722]},"location_address":"","location_city":"","location_state":"","location_zip":""}]
