[{"number":"2080","name_mixed":"Belvedere","area_sq_km":"1.6736340481392122","latitude":"53.59105689715699","longitude":"-113.436062931766","location":{"type":"Point","coordinates":[-113.436062931766,53.59105689715699]},"location_address":"","location_city":"","location_state":"","location_zip":""}
,{"number":"2380","name_mixed":"Kennedale Industrial","area_sq_km":"1.3224405838191187","latitude":"53.59087125320072","longitude":"-113.42337551633624","location":{"type":"Point","coordinates":[-113.42337551633624,53.59087125320072]},"location_address":"","location_city":"","location_state":"","location_zip":""}
,{"number":"2720","name_mixed":"York","area_sq_km":"1.1888341092793242","latitude":"53.602843422226414","longitude":"-113.43021231041563","location":{"type":"Point","coordinates":[-113.43021231041563,53.602843422226414]},"location_address":"","location_city":"","location_state":"","location_zip":""}
,{"number":"2360","name_mixed":"Industrial Heights","area_sq_km":"0.7438566434734999","latitude":"53.580982530949015","longitude":"-113.43747298214063","location":{"type":"Point","coordinates":[-113.43747298214063,53.580982530949015]},"location_address":"","location_city":"","location_state":"","location_zip":""}
,{"number":"2230","name_mixed":"Delwood","area_sq_km":"1.3346607154719068","latitude":"53.59594894276053","longitude":"-113.4551303486196","location":{"type":"Point","coordinates":[-113.4551303486196,53.59594894276053]},"location_address":"","location_city":"","location_state":"","location_zip":""}]
