{
   "html_attributions" : [],
   "results" : [
      {
         "geometry" : {
            "location" : {
               "lat" : 53.4611743,
               "lng" : -113.5289125
            },
            "viewport" : {
               "northeast" : {
                  "lat" : 53.46241733029149,
                  "lng" : -113.5274480697085
               },
               "southwest" : {
                  "lat" : 53.45971936970849,
                  "lng" : -113.5301460302915
               }
            }
         },
         "icon" : "https://maps.gstatic.com/mapfiles/place_api/icons/shopping-71.png",
         "id" : "ae85c39e761a08c4668f2cb3804675df0b36058c",
         "name" : "7-Eleven",
         "opening_hours" : {
            "open_now" : true,
            "weekday_text" : []
         },
         "place_id" : "ChIJ1d72hQMfoFMRhT6gKaoWNDo",
         "rating" : 4.2,
         "reference" : "CmRRAAAAeD3q3mUbhYTXhViWWL7H466hpW2M41OaDKMNx5d1nfnMaz2zPk5ZHoPakNBXdeWQ8fJh1xq3WQ_QT8ROClGBnGlzjLAXf99sE_p9wCw4iRKlAS-0T6mSnFykTypr8N-REhB65s4npS5RlggbdwgWsBbiGhRPpF9zDIXh4rvCHEO7ElHCFaW14w",
         "scope" : "GOOGLE",
         "types" : [
            "convenience_store",
            "gas_station",
            "store",
            "food",
            "point_of_interest",
            "establishment"
         ],
         "vicinity" : "280 Saddleback Road Northwest, Edmonton"
      },
      {
         "geometry" : {
            "location" : {
               "lat" : 53.4545211,
               "lng" : -113.5623621
            },
            "viewport" : {
               "northeast" : {
                  "lat" : 53.4556847802915,
                  "lng" : -113.5610151697085
               },
               "southwest" : {
                  "lat" : 53.4529868197085,
                  "lng" : -113.5637131302915
               }
            }
         },
         "icon" : "https://maps.gstatic.com/mapfiles/place_api/icons/gas_station-71.png",
         "id" : "2609c16c0e314e755f53606fd2f43cbc8eacbe19",
         "name" : "Shell",
         "opening_hours" : {
            "open_now" : false,
            "weekday_text" : []
         },
         "place_id" : "ChIJc6-sVbEfoFMRVS7iuBDNqOU",
         "price_level" : 2,
         "rating" : 3.8,
         "reference" : "CmRSAAAAfWxuD3GOBBSfSEBT_GQF0M8GMCPWHLHK8uQbQfgd7DWgXxcGme_VF9o74oiJUdLNreteZQ7lxi1dmVvNZvD16_WMKUkWD2cy0wv-ROQMpOaYNQ-TfpcaCKbN3JEPjk2_EhCSG-3tFTAtzi1tIJ4DL-EuGhSGSNJR4CjFe5yOTlubjX027n60Cg",
         "scope" : "GOOGLE",
         "types" : [
            "gas_station",
            "atm",
            "convenience_store",
            "car_wash",
            "finance",
            "store",
            "food",
            "point_of_interest",
            "establishment"
         ],
         "vicinity" : "14004 23 Avenue Northwest, Edmonton"
      },
      {
         "geometry" : {
            "location" : {
               "lat" : 53.46034849999999,
               "lng" : -113.5299513
            },
            "viewport" : {
               "northeast" : {
                  "lat" : 53.46166383029149,
                  "lng" : -113.5284627197085
               },
               "southwest" : {
                  "lat" : 53.45896586970849,
                  "lng" : -113.5311606802915
               }
            }
         },
         "icon" : "https://maps.gstatic.com/mapfiles/place_api/icons/gas_station-71.png",
         "id" : "4a07241857968988a2ebd0ef3c3fdd654fed948a",
         "name" : "Domo",
         "place_id" : "ChIJnZKb7AMfoFMRllHoonTA47w",
         "rating" : 4.3,
         "reference" : "CmRSAAAA-qUY-R_j1c7M0D1tCbS6u6UrvWooxoOspjXc4N1RthhUWX642mvrMAzoOKiozP6UTaxj9RZHourE9l-JoGItlP7aTw6CRRGCiulWGC15b3jSifXxl0Iks2M9QBJ_3_eQEhCqLJ0c9vnIfpv1tYnmGr6QGhT75_elLbArpt0BH2VA5PpCRsXF_w",
         "scope" : "GOOGLE",
         "types" : [ "gas_station", "point_of_interest", "establishment" ],
         "vicinity" : "348 Saddleback Road Northwest, Edmonton"
      }
   ],
   "status" : "OK"
}
