[{"StopNo":50553,"Name":"SB GRANVILLE ST FS W 35 AVE","BayNo":"N","City":"VANCOUVER","OnStreet":"GRANVILLE ST","AtStreet":"W 35 AVE","Latitude":49.239615,"Longitude":-123.139528,"WheelchairAccess":1,"Distance":72,"Routes":"010, N10"},{"StopNo":50204,"Name":"NB GRANVILLE ST FS W 36 AVE","BayNo":"N","City":"VANCOUVER","OnStreet":"GRANVILLE ST","AtStreet":"W 36 AVE","Latitude":49.239279,"Longitude":-123.139310,"WheelchairAccess":0,"Distance":102,"Routes":"010, N10"},{"StopNo":50205,"Name":"NB GRANVILLE ST FS W 34 AVE","BayNo":"N","City":"VANCOUVER","OnStreet":"GRANVILLE ST","AtStreet":"W 34 AVE","Latitude":49.241186,"Longitude":-123.139240,"WheelchairAccess":1,"Distance":182,"Routes":"010, N10"},{"StopNo":50552,"Name":"SB GRANVILLE ST FS W 33 AVE","BayNo":"N","City":"VANCOUVER","OnStreet":"GRANVILLE ST","AtStreet":"W 33 AVE","Latitude":49.241525,"Longitude":-123.139454,"WheelchairAccess":1,"Distance":209,"Routes":"010, N10"},{"StopNo":50554,"Name":"SB GRANVILLE ST FS W 37 AVE","BayNo":"N","City":"VANCOUVER","OnStreet":"GRANVILLE ST","AtStreet":"W 37 AVE","Latitude":49.237706,"Longitude":-123.139593,"WheelchairAccess":1,"Distance":238,"Routes":"010, N10"},{"StopNo":50203,"Name":"NB GRANVILLE ST FS W 38 AVE","BayNo":"N","City":"VANCOUVER","OnStreet":"GRANVILLE ST","AtStreet":"W 38 AVE","Latitude":49.237418,"Longitude":-123.139374,"WheelchairAccess":1,"Distance":274,"Routes":"010, N10"},{"StopNo":50206,"Name":"NB GRANVILLE ST FS MINTO CRES","BayNo":"N","City":"VANCOUVER","OnStreet":"GRANVILLE ST","AtStreet":"MINTO CRES","Latitude":49.243144,"Longitude":-123.139178,"WheelchairAccess":1,"Distance":387,"Routes":"010, N10"},{"StopNo":50551,"Name":"SB GRANVILLE ST FS W 32 AVE","BayNo":"N","City":"VANCOUVER","OnStreet":"GRANVILLE ST","AtStreet":"W 32 AVE","Latitude":49.243251,"Longitude":-123.139408,"WheelchairAccess":1,"Distance":395,"Routes":"010, N10"},{"StopNo":50555,"Name":"SB GRANVILLE ST FS S CONNAUGHT DR","BayNo":"N","City":"VANCOUVER","OnStreet":"GRANVILLE ST","AtStreet":"S CONNAUGHT DR","Latitude":49.235947,"Longitude":-123.139659,"WheelchairAccess":1,"Distance":429,"Routes":"010, N10"},{"StopNo":50202,"Name":"NB GRANVILLE ST FS W 40 AV","BayNo":"N","City":"VANCOUVER","OnStreet":"GRANVILLE ST","AtStreet":"W 40 AVE","Latitude":49.235640,"Longitude":-123.139410,"WheelchairAccess":0,"Distance":466,"Routes":""},{"StopNo":50556,"Name":"SB GRANVILLE ST FS W 40 AVE","BayNo":"N","City":"VANCOUVER","OnStreet":"GRANVILLE ST","AtStreet":"W 40 AVE","Latitude":49.235048,"Longitude":-123.139751,"WheelchairAccess":1,"Distance":528,"Routes":"010, N10"},{"StopNo":56125,"Name":"NB GRANVILLE ST FS W 41 AVE","BayNo":"N","City":"VANCOUVER","OnStreet":"GRANVILLE ST","AtStreet":"W 41 AVE","Latitude":49.234888,"Longitude":-123.139463,"WheelchairAccess":1,"Distance":548,"Routes":"010, N10"},{"StopNo":50550,"Name":"SB GRANVILLE ST FS N CONNAUGHT DR","BayNo":"N","City":"VANCOUVER","OnStreet":"GRANVILLE ST","AtStreet":"N CONNAUGHT DR","Latitude":49.244793,"Longitude":-123.139357,"WheelchairAccess":1,"Distance":565,"Routes":"010, N10"},{"StopNo":50284,"Name":"WB W 41 AVE FS GRANVILLE ST","BayNo":"N","City":"VANCOUVER","OnStreet":"W 41 AVE","AtStreet":"GRANVILLE ST","Latitude":49.234426,"Longitude":-123.140514,"WheelchairAccess":1,"Distance":594,"Routes":"R4"},{"StopNo":60431,"Name":"WB W 41 AVE NS CHURCHILL ST","BayNo":"N","City":"VANCOUVER","OnStreet":"W 41 AVE","AtStreet":"CHURCHILL ST","Latitude":49.234437,"Longitude":-123.141226,"WheelchairAccess":1,"Distance":595,"Routes":"041"},{"StopNo":50198,"Name":"WB W 41 AVE NS GRANVILLE ST","BayNo":"N","City":"VANCOUVER","OnStreet":"W 41 AVE","AtStreet":"GRANVILLE ST","Latitude":49.234391,"Longitude":-123.139167,"WheelchairAccess":1,"Distance":606,"Routes":"041"},{"StopNo":50388,"Name":"EB W 41 AVE NS GRANVILLE ST","BayNo":"N","City":"VANCOUVER","OnStreet":"W 41 AVE","AtStreet":"GRANVILLE ST","Latitude":49.234268,"Longitude":-123.140768,"WheelchairAccess":1,"Distance":612,"Routes":"041"},{"StopNo":50386,"Name":"EB W 41 AVE FS ADERA ST","BayNo":"N","City":"VANCOUVER","OnStreet":"W 41 AVE","AtStreet":"ADERA ST","Latitude":49.234300,"Longitude":-123.142893,"WheelchairAccess":0,"Distance":633,"Routes":"041"},{"StopNo":50199,"Name":"EB W 41 AVE FS GRANVILLE ST","BayNo":"N","City":"VANCOUVER","OnStreet":"W 41 AVE","AtStreet":"GRANVILLE ST","Latitude":49.234220,"Longitude":-123.138484,"WheelchairAccess":1,"Distance":634,"Routes":"R4"},{"StopNo":50197,"Name":"WB W 41 AVE NS CARTIER ST","BayNo":"N","City":"VANCOUVER","OnStreet":"W 41 AVE","AtStreet":"CARTIER ST","Latitude":49.234332,"Longitude":-123.137000,"WheelchairAccess":1,"Distance":655,"Routes":"041"},{"StopNo":50853,"Name":"SB GRANVILLE ST FS W 41 AVE","BayNo":"N","City":"VANCOUVER","OnStreet":"GRANVILLE ST","AtStreet":"W 41 AVE","Latitude":49.233799,"Longitude":-123.139775,"WheelchairAccess":1,"Distance":666,"Routes":"010, N10"},{"StopNo":50207,"Name":"NB GRANVILLE ST FS N CONNAUGHT DR","BayNo":"N","City":"VANCOUVER","OnStreet":"GRANVILLE ST","AtStreet":"N CONNAUGHT DR","Latitude":49.245722,"Longitude":-123.139081,"WheelchairAccess":0,"Distance":670,"Routes":"010, N10"},{"StopNo":50285,"Name":"WB W 41 AVE FS MARGUERITE ST","BayNo":"N","City":"VANCOUVER","OnStreet":"W 41 AVE","AtStreet":"MARGUERITE ST","Latitude":49.234499,"Longitude":-123.145101,"WheelchairAccess":1,"Distance":675,"Routes":"041"},{"StopNo":50385,"Name":"EB W 41 AVE FS WILTSHIRE ST","BayNo":"N","City":"VANCOUVER","OnStreet":"W 41 AVE","AtStreet":"WILTSHIRE ST","Latitude":49.234351,"Longitude":-123.145952,"WheelchairAccess":0,"Distance":721,"Routes":"041"},{"StopNo":50770,"Name":"NB GRANVILLE ST FS W 43 AVE","BayNo":"N","City":"VANCOUVER","OnStreet":"GRANVILLE ST","AtStreet":"W 43 AVE","Latitude":49.232803,"Longitude":-123.139507,"WheelchairAccess":1,"Distance":778,"Routes":"010, N10"},{"StopNo":50286,"Name":"WB W 41 AVE FS ANGUS DR","BayNo":"N","City":"VANCOUVER","OnStreet":"W 41 AVE","AtStreet":"ANGUS DR","Latitude":49.234547,"Longitude":-123.148146,"WheelchairAccess":0,"Distance":804,"Routes":"041"},{"StopNo":58588,"Name":"SB GRANVILLE ST FS NANTON AVE","BayNo":"N","City":"VANCOUVER","OnStreet":"GRANVILLE ST","AtStreet":"NANTON AVE","Latitude":49.247111,"Longitude":-123.139289,"WheelchairAccess":1,"Distance":821,"Routes":"010, N10"},{"StopNo":50196,"Name":"WB W 41 AVE FS SELKIRK ST","BayNo":"N","City":"VANCOUVER","OnStreet":"W 41 AVE","AtStreet":"SELKIRK ST","Latitude":49.234201,"Longitude":-123.132951,"WheelchairAccess":1,"Distance":826,"Routes":"041"},{"StopNo":50200,"Name":"EB W 41 AVE FS SELKIRK ST","BayNo":"N","City":"VANCOUVER","OnStreet":"W 41 AVE","AtStreet":"SELKIRK ST","Latitude":49.234040,"Longitude":-123.132898,"WheelchairAccess":1,"Distance":842,"Routes":"041"},{"StopNo":50384,"Name":"EB W 41 AVE FS CYPRESS ST","BayNo":"N","City":"VANCOUVER","OnStreet":"W 41 AVE","AtStreet":"CYPRESS ST","Latitude":49.234394,"Longitude":-123.148854,"WheelchairAccess":1,"Distance":852,"Routes":"041"},{"StopNo":50854,"Name":"SB GRANVILLE ST FS W 43 AVE","BayNo":"N","City":"VANCOUVER","OnStreet":"GRANVILLE ST","AtStreet":"W 43 AVE","Latitude":49.232098,"Longitude":-123.139799,"WheelchairAccess":1,"Distance":854,"Routes":"010, N10"},{"StopNo":50208,"Name":"NB GRANVILLE ST FS NANTON AVE","BayNo":"N","City":"VANCOUVER","OnStreet":"GRANVILLE ST","AtStreet":"NANTON AVE","Latitude":49.247690,"Longitude":-123.139023,"WheelchairAccess":1,"Distance":887,"Routes":"010, N10"},{"StopNo":50341,"Name":"SB OAK ST FS W 33 AVE","BayNo":"N","City":"VANCOUVER","OnStreet":"OAK ST","AtStreet":"W 33 AVE","Latitude":49.241077,"Longitude":-123.127960,"WheelchairAccess":1,"Distance":921,"Routes":"017"},{"StopNo":50452,"Name":"NB OAK ST FS AT 5100 BLOCK","BayNo":"N","City":"VANCOUVER","OnStreet":"OAK ST","AtStreet":"5100 BLOCK","Latitude":49.239259,"Longitude":-123.127770,"WheelchairAccess":1,"Distance":925,"Routes":"017"},{"StopNo":50342,"Name":"SB OAK ST FS W 37 AVE","BayNo":"N","City":"VANCOUVER","OnStreet":"OAK ST","AtStreet":"W 37 AVE","Latitude":49.237306,"Longitude":-123.128102,"WheelchairAccess":1,"Distance":940,"Routes":"017"},{"StopNo":50453,"Name":"NB OAK ST FS W 33 AVE","BayNo":"N","City":"VANCOUVER","OnStreet":"OAK ST","AtStreet":"W 33 AVE","Latitude":49.241748,"Longitude":-123.127690,"WheelchairAccess":1,"Distance":955,"Routes":"017"},{"StopNo":50451,"Name":"NB OAK ST FS W 38 AVE","BayNo":"N","City":"VANCOUVER","OnStreet":"OAK ST","AtStreet":"W 38 AVE","Latitude":49.237021,"Longitude":-123.127850,"WheelchairAccess":1,"Distance":967,"Routes":"017"},{"StopNo":51027,"Name":"NB ARBUTUS ST FS W 33 AVE","BayNo":"N","City":"VANCOUVER","OnStreet":"ARBUTUS ST","AtStreet":"W 33 AVE","Latitude":49.242436,"Longitude":-123.153359,"WheelchairAccess":1,"Distance":980,"Routes":"016"},{"StopNo":51026,"Name":"NB ARBUTUS ST FS QUILCHENA CRES","BayNo":"N","City":"VANCOUVER","OnStreet":"ARBUTUS ST","AtStreet":"QUILCHENA CRES","Latitude":49.241393,"Longitude":-123.153894,"WheelchairAccess":0,"Distance":990,"Routes":"016"},{"StopNo":50383,"Name":"EB W 41 AVE FS MAPLE ST","BayNo":"N","City":"VANCOUVER","OnStreet":"W 41 AVE","AtStreet":"MAPLE ST","Latitude":49.234437,"Longitude":-123.151616,"WheelchairAccess":1,"Distance":1002,"Routes":"041"},{"StopNo":51103,"Name":"SB ARBUTUS ST FS W 32 AVE","BayNo":"N","City":"VANCOUVER","OnStreet":"ARBUTUS ST","AtStreet":"W 32 AVE","Latitude":49.242695,"Longitude":-123.153590,"WheelchairAccess":1,"Distance":1005,"Routes":"016"},{"StopNo":50201,"Name":"EB W 41 AVE FS OSLER ST","BayNo":"N","City":"VANCOUVER","OnStreet":"W 41 AVE","AtStreet":"OSLER ST","Latitude":49.233911,"Longitude":-123.129836,"WheelchairAccess":1,"Distance":1011,"Routes":"041"},{"StopNo":58136,"Name":"SB GRANVILLE ST FS W KING EDWARD AVE","BayNo":"N","City":"VANCOUVER","OnStreet":"GRANVILLE ST","AtStreet":"W KING EDWARD AVE","Latitude":49.248838,"Longitude":-123.139224,"WheelchairAccess":1,"Distance":1013,"Routes":"010, N10"},{"StopNo":50339,"Name":"SB OAK ST FS DEVONSHIRE CRES","BayNo":"N","City":"VANCOUVER","OnStreet":"OAK ST","AtStreet":"DEVONSHIRE CRES","Latitude":49.244095,"Longitude":-123.127861,"WheelchairAccess":1,"Distance":1035,"Routes":"017"},{"StopNo":50288,"Name":"WB W 41 AVE FS MAPLE ST","BayNo":"N","City":"VANCOUVER","OnStreet":"W 41 AVE","AtStreet":"MAPLE ST","Latitude":49.234633,"Longitude":-123.152449,"WheelchairAccess":1,"Distance":1039,"Routes":"041"},{"StopNo":50343,"Name":"SB OAK ST AT 5600 BLOCK","BayNo":"N","City":"VANCOUVER","OnStreet":"OAK ST","AtStreet":"5600 BLOCK","Latitude":49.234887,"Longitude":-123.128188,"WheelchairAccess":0,"Distance":1045,"Routes":"017"},{"StopNo":60397,"Name":"WB W 41 AVE FS OAK ST-","BayNo":"N","City":"VANCOUVER","OnStreet":"W 41 AVE","AtStreet":"OAK ST","Latitude":49.234095,"Longitude":-123.129021,"WheelchairAccess":1,"Distance":1045,"Routes":"041"},{"StopNo":51008,"Name":"SB GRANVILLE ST FS W 45 AVE","BayNo":"N","City":"VANCOUVER","OnStreet":"GRANVILLE ST","AtStreet":"W 45 AVE","Latitude":49.230342,"Longitude":-123.139857,"WheelchairAccess":1,"Distance":1049,"Routes":"010, N10"},{"StopNo":51506,"Name":"EB W KING EDWARD AVE FS ALEXANDRA ST","BayNo":"N","City":"VANCOUVER","OnStreet":"W KING EDWARD AVE","AtStreet":"ALEXANDRA ST","Latitude":49.249302,"Longitude":-123.141103,"WheelchairAccess":1,"Distance":1061,"Routes":"025"},{"StopNo":51507,"Name":"EB W KING EDWARD AVE FS GRANVILLE ST","BayNo":"N","City":"VANCOUVER","OnStreet":"W KING EDWARD AVE","AtStreet":"GRANVILLE ST","Latitude":49.249267,"Longitude":-123.138678,"WheelchairAccess":1,"Distance":1064,"Routes":"025"},{"StopNo":50195,"Name":"WB W 41 AVE FS OAK ST","BayNo":"N","City":"VANCOUVER","OnStreet":"W 41 AVE","AtStreet":"OAK ST","Latitude":49.234081,"Longitude":-123.128633,"WheelchairAccess":1,"Distance":1068,"Routes":"R4"},{"StopNo":51024,"Name":"NB WEST BLVD FS W 37 AVE","BayNo":"N","City":"VANCOUVER","OnStreet":"WEST BLVD","AtStreet":"W 37 AVE","Latitude":49.238609,"Longitude":-123.155335,"WheelchairAccess":0,"Distance":1085,"Routes":"016"},{"StopNo":51104,"Name":"SB ARBUTUS ST FS W 35 AVE","BayNo":"N","City":"VANCOUVER","OnStreet":"ARBUTUS ST","AtStreet":"W 35 AVE","Latitude":49.239992,"Longitude":-123.155467,"WheelchairAccess":1,"Distance":1088,"Routes":"016"},{"StopNo":50769,"Name":"NB GRANVILLE ST FS W 46 AVE","BayNo":"N","City":"VANCOUVER","OnStreet":"GRANVILLE ST","AtStreet":"W 46 AVE","Latitude":49.229985,"Longitude":-123.139609,"WheelchairAccess":1,"Distance":1090,"Routes":"010, N10"},{"StopNo":51580,"Name":"WB W KING EDWARD AVE FS GRANVILLE ST","BayNo":"N","City":"VANCOUVER","OnStreet":"W KING EDWARD AVE","AtStreet":"GRANVILLE ST","Latitude":49.249560,"Longitude":-123.139586,"WheelchairAccess":1,"Distance":1091,"Routes":"025"},{"StopNo":50450,"Name":"NB OAK ST FS W 41 AVE","BayNo":"N","City":"VANCOUVER","OnStreet":"OAK ST","AtStreet":"W 41 AVE","Latitude":49.234318,"Longitude":-123.127903,"WheelchairAccess":1,"Distance":1097,"Routes":"017"},{"StopNo":51505,"Name":"EB W KING EDWARD AVE FS MARGUERITE ST","BayNo":"N","City":"VANCOUVER","OnStreet":"W KING EDWARD AVE","AtStreet":"MARGUERITE ST","Latitude":49.249352,"Longitude":-123.144254,"WheelchairAccess":1,"Distance":1100,"Routes":"025"},{"StopNo":61964,"Name":"SB ARBUTUS ST NS W 37 AVE","BayNo":"N","City":"VANCOUVER","OnStreet":"ARBUTUS ST","AtStreet":"W 37TH AVE","Latitude":49.238620,"Longitude":-123.155540,"WheelchairAccess":1,"Distance":1100,"Routes":""},{"StopNo":51102,"Name":"SB ARBUTUS ST FS VALLEY DR","BayNo":"N","City":"VANCOUVER","OnStreet":"ARBUTUS ST","AtStreet":"VALLEY DR","Latitude":49.244919,"Longitude":-123.153466,"WheelchairAccess":1,"Distance":1102,"Routes":"016"},{"StopNo":50454,"Name":"NB OAK ST FS DEVONSHIRE CRES","BayNo":"N","City":"VANCOUVER","OnStreet":"OAK ST","AtStreet":"DEVONSHIRE CRES","Latitude":49.244894,"Longitude":-123.127493,"WheelchairAccess":1,"Distance":1102,"Routes":"017"},{"StopNo":51105,"Name":"SB WEST BLVD FS W 37 AVE","BayNo":"N","City":"VANCOUVER","OnStreet":"WEST BLVD","AtStreet":"W 37 AVE","Latitude":49.238030,"Longitude":-123.155552,"WheelchairAccess":1,"Distance":1110,"Routes":"016"},{"StopNo":51579,"Name":"WB W KING EDWARD AVE FS CARTIER ST","BayNo":"N","City":"VANCOUVER","OnStreet":"W KING EDWARD AVE","AtStreet":"CARTIER ST","Latitude":49.249523,"Longitude":-123.137046,"WheelchairAccess":1,"Distance":1113,"Routes":"025"},{"StopNo":51028,"Name":"NB ARBUTUS ST FS VALLEY DR","BayNo":"N","City":"VANCOUVER","OnStreet":"ARBUTUS ST","AtStreet":"VALLEY DR","Latitude":49.245478,"Longitude":-123.153186,"WheelchairAccess":1,"Distance":1119,"Routes":"016"},{"StopNo":50805,"Name":"SB OAK ST FS W 41 AVE","BayNo":"N","City":"VANCOUVER","OnStreet":"OAK ST","AtStreet":"W 41 AVE","Latitude":49.233541,"Longitude":-123.128231,"WheelchairAccess":1,"Distance":1128,"Routes":"017"},{"StopNo":51023,"Name":"NB WEST BLVD FS W 39 AVE","BayNo":"N","City":"VANCOUVER","OnStreet":"WEST BLVD","AtStreet":"W 39 AVE","Latitude":49.236779,"Longitude":-123.155392,"WheelchairAccess":1,"Distance":1132,"Routes":"016"},{"StopNo":50754,"Name":"NB OAK ST NS W 41 AVE","BayNo":"N","City":"VANCOUVER","OnStreet":"OAK ST","AtStreet":"W 41 AVE","Latitude":49.233660,"Longitude":-123.127934,"WheelchairAccess":1,"Distance":1137,"Routes":"017"},{"StopNo":58268,"Name":"EB W 41 AVE FS OAK ST-","BayNo":"N","City":"VANCOUVER","OnStreet":"W 41 AVE","AtStreet":"OAK ST","Latitude":49.233818,"Longitude":-123.127728,"WheelchairAccess":1,"Distance":1139,"Routes":"041"},{"StopNo":51581,"Name":"WB W KING EDWARD AVE FS MARGUERITE ST","BayNo":"N","City":"VANCOUVER","OnStreet":"W KING EDWARD AVE","AtStreet":"MARGUERITE ST","Latitude":49.249651,"Longitude":-123.145097,"WheelchairAccess":1,"Distance":1149,"Routes":"025"},{"StopNo":51508,"Name":"EB W KING EDWARD AVE FS HUDSON ST","BayNo":"N","City":"VANCOUVER","OnStreet":"W KING EDWARD AVE","AtStreet":"HUDSON ST","Latitude":49.249192,"Longitude":-123.133894,"WheelchairAccess":1,"Distance":1152,"Routes":"025"},{"StopNo":50338,"Name":"SB OAK ST FS NANTON AVE","BayNo":"N","City":"VANCOUVER","OnStreet":"OAK ST","AtStreet":"NANTON AVE","Latitude":49.245988,"Longitude":-123.127793,"WheelchairAccess":0,"Distance":1152,"Routes":"017"},{"StopNo":50209,"Name":"NB GRANVILLE ST FS W KING EDWARD AVE","BayNo":"N","City":"VANCOUVER","OnStreet":"GRANVILLE ST","AtStreet":"W KING EDWARD AVE","Latitude":49.250127,"Longitude":-123.138924,"WheelchairAccess":1,"Distance":1157,"Routes":"010, N10"},{"StopNo":60386,"Name":"EB W 41 AVE FS EAST BLVD","BayNo":"N","City":"VANCOUVER","OnStreet":"W 41 AVE","AtStreet":"EAST BLVD","Latitude":49.234483,"Longitude":-123.154407,"WheelchairAccess":1,"Distance":1169,"Routes":"041, R4"},{"StopNo":51106,"Name":"SB WEST BLVD FS W 39 AVE","BayNo":"N","City":"VANCOUVER","OnStreet":"WEST BLVD","AtStreet":"W 39 AVE","Latitude":49.236097,"Longitude":-123.155609,"WheelchairAccess":1,"Distance":1171,"Routes":"016"},{"StopNo":60385,"Name":"WB W 41 AVE NS EAST BLVD","BayNo":"N","City":"VANCOUVER","OnStreet":"W 41 AVE","AtStreet":"EAST BLVD","Latitude":49.234672,"Longitude":-123.154790,"WheelchairAccess":1,"Distance":1183,"Routes":"041, R4"},{"StopNo":50804,"Name":"EB W 41 AVE FS OAK ST","BayNo":"N","City":"VANCOUVER","OnStreet":"W 41 AVE","AtStreet":"OAK ST","Latitude":49.233800,"Longitude":-123.126888,"WheelchairAccess":1,"Distance":1190,"Routes":"R4"},{"StopNo":50547,"Name":"SB GRANVILLE ST FS LAURIER AVE","BayNo":"N","City":"VANCOUVER","OnStreet":"GRANVILLE ST","AtStreet":"LAURIER AVE","Latitude":49.250500,"Longitude":-123.139186,"WheelchairAccess":0,"Distance":1197,"Routes":"010, N10"},{"StopNo":51022,"Name":"NB WEST BLVD FS W 41 AVE","BayNo":"N","City":"VANCOUVER","OnStreet":"WEST BLVD","AtStreet":"W 41 AVE","Latitude":49.234900,"Longitude":-123.155429,"WheelchairAccess":1,"Distance":1212,"Routes":"016"},{"StopNo":51578,"Name":"WB W KING EDWARD AVE FS SELKIRK ST","BayNo":"N","City":"VANCOUVER","OnStreet":"W KING EDWARD AVE","AtStreet":"SELKIRK ST","Latitude":49.249452,"Longitude":-123.132497,"WheelchairAccess":1,"Distance":1223,"Routes":"025"},{"StopNo":51504,"Name":"EB W KING EDWARD AVE FS CYPRESS ST","BayNo":"N","City":"VANCOUVER","OnStreet":"W KING EDWARD AVE","AtStreet":"CYPRESS ST","Latitude":49.249462,"Longitude":-123.148494,"WheelchairAccess":1,"Distance":1225,"Routes":"025"},{"StopNo":50753,"Name":"NB OAK ST FS W 43 AVE","BayNo":"N","City":"VANCOUVER","OnStreet":"OAK ST","AtStreet":"W 43 AVE","Latitude":49.232346,"Longitude":-123.128003,"WheelchairAccess":1,"Distance":1226,"Routes":"017"},{"StopNo":51582,"Name":"WB W KING EDWARD AVE FS PINE CRES","BayNo":"N","City":"VANCOUVER","OnStreet":"W KING EDWARD AVE","AtStreet":"PINE CRES","Latitude":49.249695,"Longitude":-123.147920,"WheelchairAccess":1,"Distance":1229,"Routes":"025"},{"StopNo":50090,"Name":"WB W 41 AVE AT 900 BLOCK","BayNo":"N","City":"VANCOUVER","OnStreet":"W 41 AVE","AtStreet":"900 BLOCK","Latitude":49.233984,"Longitude":-123.126031,"WheelchairAccess":1,"Distance":1231,"Routes":""},{"StopNo":50806,"Name":"SB OAK ST FS W 43 AVE","BayNo":"N","City":"VANCOUVER","OnStreet":"OAK ST","AtStreet":"W 43 AVE","Latitude":49.231779,"Longitude":-123.128278,"WheelchairAccess":1,"Distance":1255,"Routes":"017"},{"StopNo":50382,"Name":"EB W 41 AVE NS WEST BLVD","BayNo":"N","City":"VANCOUVER","OnStreet":"W 41 AVE","AtStreet":"WEST BLVD","Latitude":49.234507,"Longitude":-123.155784,"WheelchairAccess":1,"Distance":1255,"Routes":""},{"StopNo":50855,"Name":"SB GRANVILLE ST FS W 47 AVE","BayNo":"N","City":"VANCOUVER","OnStreet":"GRANVILLE ST","AtStreet":"W 47 AVE","Latitude":49.228469,"Longitude":-123.139921,"WheelchairAccess":1,"Distance":1257,"Routes":"010, N10"},{"StopNo":51101,"Name":"SB ARBUTUS ST FS NANTON AVE","BayNo":"N","City":"VANCOUVER","OnStreet":"ARBUTUS ST","AtStreet":"NANTON AVE","Latitude":49.247331,"Longitude":-123.153378,"WheelchairAccess":1,"Distance":1258,"Routes":"016"},{"StopNo":51107,"Name":"SB WEST BLVD FS W 41 AVE","BayNo":"N","City":"VANCOUVER","OnStreet":"WEST BLVD","AtStreet":"W 41 AVE","Latitude":49.234303,"Longitude":-123.155677,"WheelchairAccess":1,"Distance":1259,"Routes":"016"},{"StopNo":50289,"Name":"WB W 41 AVE FS WEST BLVD","BayNo":"N","City":"VANCOUVER","OnStreet":"W 41 AVE","AtStreet":"WEST BLVD","Latitude":49.234649,"Longitude":-123.156193,"WheelchairAccess":1,"Distance":1274,"Routes":""},{"StopNo":50455,"Name":"NB OAK ST FS W 27 AVE","BayNo":"N","City":"VANCOUVER","OnStreet":"OAK ST","AtStreet":"W 27 AVE","Latitude":49.247506,"Longitude":-123.127490,"WheelchairAccess":1,"Distance":1277,"Routes":"017"},{"StopNo":51029,"Name":"NB ARBUTUS ST FS NANTON AVE","BayNo":"N","City":"VANCOUVER","OnStreet":"ARBUTUS ST","AtStreet":"NANTON AVE","Latitude":49.247961,"Longitude":-123.153085,"WheelchairAccess":1,"Distance":1291,"Routes":"016"},{"StopNo":50768,"Name":"NB GRANVILLE ST FS W 48 AV","BayNo":"N","City":"VANCOUVER","OnStreet":"GRANVILLE ST","AtStreet":"W 48 AVE","Latitude":49.228150,"Longitude":-123.139670,"WheelchairAccess":0,"Distance":1293,"Routes":""},{"StopNo":51509,"Name":"EB W KING EDWARD AVE FS OSLER ST","BayNo":"N","City":"VANCOUVER","OnStreet":"W KING EDWARD AVE","AtStreet":"OSLER ST","Latitude":49.249120,"Longitude":-123.129382,"WheelchairAccess":1,"Distance":1316,"Routes":"025"},{"StopNo":51021,"Name":"NB WEST BLVD FS W 43 AVE","BayNo":"N","City":"VANCOUVER","OnStreet":"WEST BLVD","AtStreet":"W 43 AVE","Latitude":49.232961,"Longitude":-123.155537,"WheelchairAccess":1,"Distance":1329,"Routes":"016"},{"StopNo":50133,"Name":"WB W 41 AVE FS WILLOW ST","BayNo":"N","City":"VANCOUVER","OnStreet":"W 41ST AVE","AtStreet":"WILLOW ST","Latitude":49.233946,"Longitude":-123.124174,"WheelchairAccess":1,"Distance":1350,"Routes":"041"},{"StopNo":50337,"Name":"SB OAK ST FS W KING EDWARD AVE","BayNo":"N","City":"VANCOUVER","OnStreet":"OAK ST","AtStreet":"W KING EDWARD AVE","Latitude":49.248653,"Longitude":-123.127716,"WheelchairAccess":1,"Distance":1355,"Routes":"017"},{"StopNo":51100,"Name":"SB ARBUTUS ST AT 4200 BLOCK","BayNo":"N","City":"VANCOUVER","OnStreet":"ARBUTUS ST","AtStreet":"4200 BLOCK","Latitude":49.248670,"Longitude":-123.153340,"WheelchairAccess":1,"Distance":1360,"Routes":""},{"StopNo":50767,"Name":"NB GRANVILLE ST FS W 49 AVE","BayNo":"N","City":"VANCOUVER","OnStreet":"GRANVILLE ST","AtStreet":"W 49 AVE","Latitude":49.227422,"Longitude":-123.139703,"WheelchairAccess":1,"Distance":1374,"Routes":"010, N10"},{"StopNo":51108,"Name":"SB WEST BLVD FS W 43 AVE","BayNo":"N","City":"VANCOUVER","OnStreet":"WEST BLVD","AtStreet":"W 43 AVE","Latitude":49.232443,"Longitude":-123.155746,"WheelchairAccess":1,"Distance":1375,"Routes":"016"},{"StopNo":50210,"Name":"NB GRANVILLE ST FS BALFOUR AVE","BayNo":"N","City":"VANCOUVER","OnStreet":"GRANVILLE ST","AtStreet":"BALFOUR AVE","Latitude":49.252263,"Longitude":-123.138834,"WheelchairAccess":1,"Distance":1395,"Routes":"010, N10"},{"StopNo":51577,"Name":"WB W KING EDWARD AVE FS OAK ST","BayNo":"N","City":"VANCOUVER","OnStreet":"W KING EDWARD AVE","AtStreet":"OAK ST","Latitude":49.249375,"Longitude":-123.128078,"WheelchairAccess":1,"Distance":1398,"Routes":"025"},{"StopNo":50381,"Name":"EB W 41 AVE FS YEW ST","BayNo":"N","City":"VANCOUVER","OnStreet":"W 41 AVE","AtStreet":"YEW ST","Latitude":49.234552,"Longitude":-123.158131,"WheelchairAccess":1,"Distance":1406,"Routes":"041"},{"StopNo":50134,"Name":"EB W 41 AVE FS WILLOW ST","BayNo":"N","City":"VANCOUVER","OnStreet":"W 41 AVE","AtStreet":"WILLOW ST","Latitude":49.233687,"Longitude":-123.123477,"WheelchairAccess":1,"Distance":1408,"Routes":"041"},{"StopNo":52041,"Name":"WB W 49 AVE FS GRANVILLE ST","BayNo":"N","City":"VANCOUVER","OnStreet":"W 49 AVE","AtStreet":"GRANVILLE ST","Latitude":49.227032,"Longitude":-123.140335,"WheelchairAccess":1,"Distance":1416,"Routes":"049"},{"StopNo":51503,"Name":"EB W KING EDWARD AVE FS MAPLE CRES","BayNo":"N","City":"VANCOUVER","OnStreet":"W KING EDWARD AVE","AtStreet":"MAPLE CRES","Latitude":49.250503,"Longitude":-123.151127,"WheelchairAccess":1,"Distance":1422,"Routes":"025"},{"StopNo":51510,"Name":"EB W KING EDWARD AVE FS OAK ST","BayNo":"N","City":"VANCOUVER","OnStreet":"W KING EDWARD AVE","AtStreet":"OAK ST","Latitude":49.249090,"Longitude":-123.127001,"WheelchairAccess":1,"Distance":1426,"Routes":"025"},{"StopNo":51959,"Name":"EB W 49 AVE FS CHURCHILL ST","BayNo":"N","City":"VANCOUVER","OnStreet":"W 49 AVE","AtStreet":"CHURCHILL ST","Latitude":49.226920,"Longitude":-123.141217,"WheelchairAccess":1,"Distance":1430,"Routes":"049"},{"StopNo":51960,"Name":"EB W 49 AVE FS GRANVILLE ST","BayNo":"N","City":"VANCOUVER","OnStreet":"W 49 AVE","AtStreet":"GRANVILLE ST","Latitude":49.226886,"Longitude":-123.139329,"WheelchairAccess":1,"Distance":1435,"Routes":"049"},{"StopNo":52042,"Name":"WB W 49 AVE FS ADERA ST","BayNo":"N","City":"VANCOUVER","OnStreet":"W 49 AVE","AtStreet":"ADERA ST","Latitude":49.227081,"Longitude":-123.144091,"WheelchairAccess":1,"Distance":1435,"Routes":"049"},{"StopNo":52040,"Name":"WB W 49 AV FS CARTIER ST","BayNo":"N","City":"VANCOUVER","OnStreet":"W 49 AVE","AtStreet":"CARTIER ST","Latitude":49.226960,"Longitude":-123.137880,"WheelchairAccess":0,"Distance":1437,"Routes":""},{"StopNo":50752,"Name":"NB OAK ST FS W 46 AVE","BayNo":"N","City":"VANCOUVER","OnStreet":"OAK ST","AtStreet":"W 46 AVE","Latitude":49.229544,"Longitude":-123.128098,"WheelchairAccess":1,"Distance":1450,"Routes":"017"},{"StopNo":50546,"Name":"SB GRANVILLE ST FS MATTHEWS AVE","BayNo":"N","City":"VANCOUVER","OnStreet":"GRANVILLE ST","AtStreet":"MATTHEWS AVE","Latitude":49.252781,"Longitude":-123.139073,"WheelchairAccess":0,"Distance":1451,"Routes":"010, N10"},{"StopNo":50456,"Name":"NB OAK ST FS W KING EDWARD AVE","BayNo":"N","City":"VANCOUVER","OnStreet":"OAK ST","AtStreet":"W KING EDWARD AVE","Latitude":49.249632,"Longitude":-123.127357,"WheelchairAccess":1,"Distance":1453,"Routes":"017"},{"StopNo":51958,"Name":"EB W 49 AVE FS MARGUERITE ST","BayNo":"N","City":"VANCOUVER","OnStreet":"W 49 AVE","AtStreet":"MARGUERITE ST","Latitude":49.226972,"Longitude":-123.144546,"WheelchairAccess":1,"Distance":1453,"Routes":"049"},{"StopNo":51020,"Name":"NB WEST BLVD FS W 45 AVE","BayNo":"N","City":"VANCOUVER","OnStreet":"WEST BLVD","AtStreet":"W 45 AVE","Latitude":49.231163,"Longitude":-123.155603,"WheelchairAccess":1,"Distance":1456,"Routes":"016"},{"StopNo":52039,"Name":"WB W 49 AVE FS HUDSON ST","BayNo":"N","City":"VANCOUVER","OnStreet":"W 49 AVE","AtStreet":"HUDSON ST","Latitude":49.226880,"Longitude":-123.135533,"WheelchairAccess":1,"Distance":1478,"Routes":"049"},{"StopNo":50807,"Name":"SB OAK ST FS W 46 AVE","BayNo":"N","City":"VANCOUVER","OnStreet":"OAK ST","AtStreet":"W 46 AVE","Latitude":49.229046,"Longitude":-123.128376,"WheelchairAccess":1,"Distance":1482,"Routes":"017"},{"StopNo":52043,"Name":"WB W 49 AVE FS WILTSHIRE ST","BayNo":"N","City":"VANCOUVER","OnStreet":"W 49 AVE","AtStreet":"WILTSHIRE ST","Latitude":49.227122,"Longitude":-123.147056,"WheelchairAccess":1,"Distance":1485,"Routes":"049"},{"StopNo":50856,"Name":"SB GRANVILLE ST FS W 49 AVE","BayNo":"N","City":"VANCOUVER","OnStreet":"GRANVILLE ST","AtStreet":"W 49 AVE","Latitude":49.226415,"Longitude":-123.139991,"WheelchairAccess":1,"Distance":1485,"Routes":"010, N10"},{"StopNo":51957,"Name":"EB W 49 AVE FS ANGUS DR","BayNo":"N","City":"VANCOUVER","OnStreet":"W 49 AVE","AtStreet":"ANGUS DR","Latitude":49.227010,"Longitude":-123.147554,"WheelchairAccess":1,"Distance":1508,"Routes":"049"},{"StopNo":51109,"Name":"SB WEST BLVD FS W 45 AVE","BayNo":"N","City":"VANCOUVER","OnStreet":"WEST BLVD","AtStreet":"W 45 AVE","Latitude":49.230611,"Longitude":-123.155813,"WheelchairAccess":1,"Distance":1508,"Routes":"016"},{"StopNo":51583,"Name":"WB W KING EDWARD AVE FS MAPLE CRES","BayNo":"N","City":"VANCOUVER","OnStreet":"W KING EDWARD AVE","AtStreet":"MAPLE CRES","Latitude":49.251211,"Longitude":-123.151677,"WheelchairAccess":1,"Distance":1509,"Routes":"025"},{"StopNo":51961,"Name":"EB W 49 AVE FS HUDSON ST","BayNo":"N","City":"VANCOUVER","OnStreet":"W 49 AVE","AtStreet":"HUDSON ST","Latitude":49.226708,"Longitude":-123.134675,"WheelchairAccess":1,"Distance":1512,"Routes":"049"},{"StopNo":50211,"Name":"NB GRANVILLE ST FS MATTHEWS AVE","BayNo":"N","City":"VANCOUVER","OnStreet":"GRANVILLE ST","AtStreet":"MATTHEWS AVE","Latitude":49.253467,"Longitude":-123.138804,"WheelchairAccess":0,"Distance":1528,"Routes":"010, N10"},{"StopNo":51019,"Name":"NB WEST BLVD FS W 46 AVE","BayNo":"N","City":"VANCOUVER","OnStreet":"WEST BLVD","AtStreet":"W 46 AVE","Latitude":49.230145,"Longitude":-123.155632,"WheelchairAccess":1,"Distance":1534,"Routes":"016"},{"StopNo":51576,"Name":"WB W KING EDWARD AVE FS LAUREL ST","BayNo":"N","City":"VANCOUVER","OnStreet":"W KING EDWARD AVE","AtStreet":"LAUREL ST","Latitude":49.249302,"Longitude":-123.125107,"WheelchairAccess":1,"Distance":1540,"Routes":"025"},{"StopNo":50161,"Name":"WB W 41 AVE FS HEATHER ST","BayNo":"N","City":"VANCOUVER","OnStreet":"W 41 AVE","AtStreet":"HEATHER ST","Latitude":49.233831,"Longitude":-123.121289,"WheelchairAccess":1,"Distance":1543,"Routes":""},{"StopNo":50290,"Name":"WB W 41 AVE FS VINE ST","BayNo":"N","City":"VANCOUVER","OnStreet":"W 41 AVE","AtStreet":"VINE ST","Latitude":49.234721,"Longitude":-123.160343,"WheelchairAccess":1,"Distance":1547,"Routes":"041"},{"StopNo":52038,"Name":"WB W 49 AVE FS MONTGOMERY ST","BayNo":"N","City":"VANCOUVER","OnStreet":"W 49 AVE","AtStreet":"MONTGOMERY ST","Latitude":49.226761,"Longitude":-123.132430,"WheelchairAccess":1,"Distance":1560,"Routes":"049"},{"StopNo":51099,"Name":"SB ARBUTUS ST FS W KING EDWARD AVE","BayNo":"N","City":"VANCOUVER","OnStreet":"ARBUTUS ST","AtStreet":"W KING EDWARD AVE","Latitude":49.251137,"Longitude":-123.153214,"WheelchairAccess":1,"Distance":1566,"Routes":"016"},{"StopNo":50422,"Name":"SB CAMBIE ST FS W 33 AVE","BayNo":"N","City":"VANCOUVER","OnStreet":"CAMBIE ST","AtStreet":"W 33 AVE","Latitude":49.240750,"Longitude":-123.118651,"WheelchairAccess":1,"Distance":1589,"Routes":"015, N15"},{"StopNo":50380,"Name":"EB W 41 AVE FS BALSAM ST","BayNo":"N","City":"VANCOUVER","OnStreet":"W 41 AVE","AtStreet":"BALSAM ST","Latitude":49.234588,"Longitude":-123.160946,"WheelchairAccess":1,"Distance":1593,"Routes":"041"},{"StopNo":50336,"Name":"SB OAK ST FS BALFOUR AVE","BayNo":"N","City":"VANCOUVER","OnStreet":"OAK ST","AtStreet":"BALFOUR AVE","Latitude":49.251423,"Longitude":-123.127590,"WheelchairAccess":1,"Distance":1599,"Routes":"017"},{"StopNo":51502,"Name":"EB W KING EDWARD AVE NS ARBUTUS ST","BayNo":"N","City":"VANCOUVER","OnStreet":"W KING EDWARD AVE","AtStreet":"ARBUTUS ST","Latitude":49.251448,"Longitude":-123.153365,"WheelchairAccess":1,"Distance":1600,"Routes":"025"},{"StopNo":51962,"Name":"EB W 49 AVE FS MONTGOMERY ST","BayNo":"N","City":"VANCOUVER","OnStreet":"W 49 AVE","AtStreet":"MONTGOMERY ST","Latitude":49.226598,"Longitude":-123.131458,"WheelchairAccess":1,"Distance":1605,"Routes":"049"},{"StopNo":50545,"Name":"SB GRANVILLE ST FS ANGUS DR","BayNo":"N","City":"VANCOUVER","OnStreet":"GRANVILLE ST","AtStreet":"ANGUS DR","Latitude":49.254178,"Longitude":-123.139030,"WheelchairAccess":1,"Distance":1606,"Routes":"010, N10"},{"StopNo":50135,"Name":"EB W 41 AVE FS HEATHER ST","BayNo":"N","City":"VANCOUVER","OnStreet":"W 41 AVE","AtStreet":"HEATHER ST","Latitude":49.233534,"Longitude":-123.120243,"WheelchairAccess":1,"Distance":1625,"Routes":""},{"StopNo":51030,"Name":"NB ARBUTUS ST FS W KING EDWARD AVE","BayNo":"N","City":"VANCOUVER","OnStreet":"ARBUTUS ST","AtStreet":"W KING EDWARD AVE","Latitude":49.251937,"Longitude":-123.152909,"WheelchairAccess":1,"Distance":1626,"Routes":"016"},{"StopNo":50471,"Name":"NB CAMBIE ST FS W 33 AVE","BayNo":"N","City":"VANCOUVER","OnStreet":"CAMBIE ST","AtStreet":"W 33 AVE","Latitude":49.241409,"Longitude":-123.118180,"WheelchairAccess":1,"Distance":1630,"Routes":"015, N15"},{"StopNo":59103,"Name":"EB W 49 AVE FS MAPLE ST","BayNo":"N","City":"VANCOUVER","OnStreet":"W 49 AVE","AtStreet":"MAPLE ST","Latitude":49.227063,"Longitude":-123.151905,"WheelchairAccess":1,"Distance":1638,"Routes":"049"},{"StopNo":50421,"Name":"SB CAMBIE ST FS W 31 AVE","BayNo":"N","City":"VANCOUVER","OnStreet":"CAMBIE ST","AtStreet":"W 31 AVE","Latitude":49.242949,"Longitude":-123.118428,"WheelchairAccess":1,"Distance":1640,"Routes":"015, N15"},{"StopNo":51584,"Name":"WB W KING EDWARD AVE FS ARBUTUS ST","BayNo":"N","City":"VANCOUVER","OnStreet":"W KING EDWARD AVE","AtStreet":"ARBUTUS ST","Latitude":49.251741,"Longitude":-123.153726,"WheelchairAccess":1,"Distance":1642,"Routes":"025"},{"StopNo":59102,"Name":"WB W 49 AVE FS MAPLE ST","BayNo":"N","City":"VANCOUVER","OnStreet":"W 49 AVE","AtStreet":"MAPLE ST","Latitude":49.227195,"Longitude":-123.152702,"WheelchairAccess":1,"Distance":1655,"Routes":"049"},{"StopNo":50457,"Name":"NB OAK ST FS W 22 AVE","BayNo":"N","City":"VANCOUVER","OnStreet":"OAK ST","AtStreet":"W 22 AVE","Latitude":49.251967,"Longitude":-123.127311,"WheelchairAccess":1,"Distance":1660,"Routes":"017"},{"StopNo":51501,"Name":"EB W KING EDWARD AVE FS YEW ST","BayNo":"N","City":"VANCOUVER","OnStreet":"W KING EDWARD AVE","AtStreet":"YEW ST","Latitude":49.251217,"Longitude":-123.155187,"WheelchairAccess":1,"Distance":1661,"Routes":"025"},{"StopNo":51110,"Name":"SB WEST BLVD FS W 47 AVE","BayNo":"N","City":"VANCOUVER","OnStreet":"W BOULEVARD","AtStreet":"W 47 AVE","Latitude":49.228691,"Longitude":-123.155874,"WheelchairAccess":1,"Distance":1663,"Routes":"016"},{"StopNo":52037,"Name":"WB W 49 AVE FS OAK ST","BayNo":"N","City":"VANCOUVER","OnStreet":"W 49 AVE","AtStreet":"OAK ST","Latitude":49.226658,"Longitude":-123.128988,"WheelchairAccess":1,"Distance":1680,"Routes":"049"},{"StopNo":50751,"Name":"NB OAK ST FS W 49 AVE","BayNo":"N","City":"VANCOUVER","OnStreet":"OAK ST","AtStreet":"W 49 AVE","Latitude":49.226867,"Longitude":-123.128159,"WheelchairAccess":1,"Distance":1691,"Routes":"017"},{"StopNo":51511,"Name":"EB W KING EDWARD AVE FS WILLOW ST","BayNo":"N","City":"VANCOUVER","OnStreet":"W KING EDWARD AVE","AtStreet":"WILLOW ST","Latitude":49.248988,"Longitude":-123.121932,"WheelchairAccess":1,"Distance":1693,"Routes":"025"},{"StopNo":51585,"Name":"WB W KING EDWARD AVE FS YEW ST","BayNo":"N","City":"VANCOUVER","OnStreet":"W KING EDWARD AVE","AtStreet":"YEW ST","Latitude":49.251149,"Longitude":-123.156163,"WheelchairAccess":1,"Distance":1702,"Routes":"025"},{"StopNo":50766,"Name":"NB GRANVILLE ST FS W 52 AV","BayNo":"N","City":"VANCOUVER","OnStreet":"GRANVILLE ST","AtStreet":"W 52 AVE","Latitude":49.224330,"Longitude":-123.139820,"WheelchairAccess":1,"Distance":1717,"Routes":""},{"StopNo":51955,"Name":"EB W 49 AVE FS EAST BLVD","BayNo":"N","City":"VANCOUVER","OnStreet":"W 49 AVE","AtStreet":"EAST BLVD","Latitude":49.227085,"Longitude":-123.153974,"WheelchairAccess":1,"Distance":1717,"Routes":"049"},{"StopNo":60583,"Name":"OAKRIDGE-41ST AVE STN BAY 4","BayNo":"4","City":"VANCOUVER","OnStreet":"OAKRIDGE-41ST AVE STN","AtStreet":"BAY 4","Latitude":49.233703,"Longitude":-123.118539,"WheelchairAccess":1,"Distance":1731,"Routes":""},{"StopNo":51018,"Name":"NB WEST BLVD FS W 49 AVE","BayNo":"N","City":"VANCOUVER","OnStreet":"WEST BLVD","AtStreet":"W 49 AVE","Latitude":49.227498,"Longitude":-123.155196,"WheelchairAccess":1,"Distance":1732,"Routes":"016"},{"StopNo":51500,"Name":"EB W KING EDWARD AVE FS VALLEY DR","BayNo":"N","City":"VANCOUVER","OnStreet":"W KING EDWARD AVE","AtStreet":"VALLEY DR","Latitude":49.249818,"Longitude":-123.158783,"WheelchairAccess":1,"Distance":1736,"Routes":"025"},{"StopNo":51963,"Name":"EB W 49 AVE FS OAK ST","BayNo":"N","City":"VANCOUVER","OnStreet":"W 49 AVE","AtStreet":"OAK ST","Latitude":49.226450,"Longitude":-123.127760,"WheelchairAccess":1,"Distance":1746,"Routes":"049"},{"StopNo":50808,"Name":"SB OAK ST FS W 49 AVE","BayNo":"N","City":"VANCOUVER","OnStreet":"OAK ST","AtStreet":"W 49 AVE","Latitude":49.226160,"Longitude":-123.128478,"WheelchairAccess":1,"Distance":1747,"Routes":"017"},{"StopNo":51098,"Name":"SB ARBUTUS ST FS W 21 AVE","BayNo":"N","City":"VANCOUVER","OnStreet":"ARBUTUS ST","AtStreet":"W 21 AVE","Latitude":49.253174,"Longitude":-123.153131,"WheelchairAccess":0,"Distance":1750,"Routes":"016"},{"StopNo":51575,"Name":"WB W KING EDWARD AVE FS HEATHER ST","BayNo":"N","City":"VANCOUVER","OnStreet":"W KING EDWARD AVE","AtStreet":"HEATHER ST","Latitude":49.249205,"Longitude":-123.120844,"WheelchairAccess":1,"Distance":1771,"Routes":"025"},{"StopNo":50857,"Name":"SB GRANVILLE ST FS W 52 AVE","BayNo":"N","City":"VANCOUVER","OnStreet":"GRANVILLE ST","AtStreet":"W 52 AVE","Latitude":49.223822,"Longitude":-123.140097,"WheelchairAccess":1,"Distance":1773,"Routes":"010, N10"},{"StopNo":52045,"Name":"WB W 49 AVE FS WEST BLVD","BayNo":"N","City":"VANCOUVER","OnStreet":"W 49 AVE","AtStreet":"WEST BLVD","Latitude":49.227224,"Longitude":-123.155682,"WheelchairAccess":1,"Distance":1778,"Routes":"049"},{"StopNo":51954,"Name":"EB W 49 AVE NS ARBUTUS ST","BayNo":"N","City":"VANCOUVER","OnStreet":"W 49 AVE","AtStreet":"ARBUTUS ST","Latitude":49.227103,"Longitude":-123.155470,"WheelchairAccess":1,"Distance":1779,"Routes":"049"},{"StopNo":51586,"Name":"WB W KING EDWARD AVE FS VALLEY DR","BayNo":"N","City":"VANCOUVER","OnStreet":"W KING EDWARD AVE","AtStreet":"VALLEY DR","Latitude":49.249723,"Longitude":-123.159848,"WheelchairAccess":1,"Distance":1789,"Routes":"025"},{"StopNo":51111,"Name":"SB ARBUTUS ST FS W 49 AVE","BayNo":"N","City":"VANCOUVER","OnStreet":"ARBUTUS ST","AtStreet":"W 49 AVE","Latitude":49.226773,"Longitude":-123.155273,"WheelchairAccess":1,"Distance":1800,"Routes":"016"},{"StopNo":51964,"Name":"EB W 49 AV FS FREMLIN ST","BayNo":"N","City":"VANCOUVER","OnStreet":"W 49 AVE","AtStreet":"FREMLIN ST","Latitude":49.226380,"Longitude":-123.126110,"WheelchairAccess":0,"Distance":1818,"Routes":""},{"StopNo":52036,"Name":"WB W 49 AVE FS LAUREL ST","BayNo":"N","City":"VANCOUVER","OnStreet":"W 49 AVE","AtStreet":"LAUREL ST","Latitude":49.226538,"Longitude":-123.125587,"WheelchairAccess":1,"Distance":1826,"Routes":"049"},{"StopNo":51499,"Name":"EB W KING EDWARD AVE FS BRAKENRIDGE ST","BayNo":"N","City":"VANCOUVER","OnStreet":"W KING EDWARD AVE","AtStreet":"BRAKENRIDGE ST","Latitude":49.248553,"Longitude":-123.162016,"WheelchairAccess":1,"Distance":1843,"Routes":"025"},{"StopNo":50458,"Name":"NB OAK ST FS W 20 AVE","BayNo":"N","City":"VANCOUVER","OnStreet":"OAK ST","AtStreet":"W 20 AVE","Latitude":49.253935,"Longitude":-123.127236,"WheelchairAccess":1,"Distance":1846,"Routes":"017"},{"StopNo":50335,"Name":"SB OAK ST FS DOUGLAS CRES","BayNo":"N","City":"VANCOUVER","OnStreet":"OAK ST","AtStreet":"DOUGLAS CRES","Latitude":49.254123,"Longitude":-123.127471,"WheelchairAccess":1,"Distance":1855,"Routes":"017"},{"StopNo":50750,"Name":"NB OAK ST FS W 51 AVE","BayNo":"N","City":"VANCOUVER","OnStreet":"OAK ST","AtStreet":"W 51 AVE","Latitude":49.225002,"Longitude":-123.128254,"WheelchairAccess":0,"Distance":1867,"Routes":"017"},{"StopNo":50765,"Name":"NB GRANVILLE ST FS W 53 AVE","BayNo":"N","City":"VANCOUVER","OnStreet":"GRANVILLE ST","AtStreet":"W 53 AVE","Latitude":49.222949,"Longitude":-123.139886,"WheelchairAccess":1,"Distance":1871,"Routes":"010, N10"},{"StopNo":51587,"Name":"WB W KING EDWARD AVE FS BRAKENRIDGE ST","BayNo":"N","City":"VANCOUVER","OnStreet":"W KING EDWARD AVE","AtStreet":"BRAKENRIDGE ST","Latitude":49.248545,"Longitude":-123.162863,"WheelchairAccess":1,"Distance":1895,"Routes":"025"},{"StopNo":51032,"Name":"NB ARBUTUS ST FS W 20 AVE","BayNo":"N","City":"VANCOUVER","OnStreet":"ARBUTUS ST","AtStreet":"W 20 AVE","Latitude":49.254791,"Longitude":-123.152860,"WheelchairAccess":1,"Distance":1896,"Routes":"016"},{"StopNo":51953,"Name":"EB W 49 AVE FS YEW ST","BayNo":"N","City":"VANCOUVER","OnStreet":"W 49 AVE","AtStreet":"YEW ST","Latitude":49.227149,"Longitude":-123.158420,"WheelchairAccess":0,"Distance":1914,"Routes":"049"},{"StopNo":51016,"Name":"NB WEST BLVD NS W 51 AVE","BayNo":"N","City":"VANCOUVER","OnStreet":"WEST BLVD","AtStreet":"W 51 AVE","Latitude":49.224765,"Longitude":-123.153540,"WheelchairAccess":0,"Distance":1919,"Routes":"016"},{"StopNo":51017,"Name":"NB ARBUTUS ST FS W 51 AVE","BayNo":"N","City":"VANCOUVER","OnStreet":"ARBUTUS ST","AtStreet":"W 51 AVE","Latitude":49.225393,"Longitude":-123.155125,"WheelchairAccess":0,"Distance":1919,"Routes":"016"},{"StopNo":51097,"Name":"SB ARBUTUS ST FS W 19 AVE","BayNo":"N","City":"VANCOUVER","OnStreet":"ARBUTUS ST","AtStreet":"W 19 AVE","Latitude":49.255057,"Longitude":-123.153065,"WheelchairAccess":1,"Distance":1930,"Routes":"016"},{"StopNo":61126,"Name":"WB W 16 AVE FS GRANVILLE ST","BayNo":"N","City":"VANCOUVER","OnStreet":"W 16 AVE","AtStreet":"GRANVILLE ST","Latitude":49.257140,"Longitude":-123.139365,"WheelchairAccess":1,"Distance":1933,"Routes":"033"},{"StopNo":51112,"Name":"EB W 51 AVE FS ARBUTUS ST","BayNo":"N","City":"VANCOUVER","OnStreet":"W 51 AVE","AtStreet":"ARBUTUS ST","Latitude":49.224918,"Longitude":-123.154675,"WheelchairAccess":1,"Distance":1946,"Routes":"016"},{"StopNo":60746,"Name":"WB 49 AVE FS YEW ST","BayNo":"N","City":"VANCOUVER","OnStreet":"W 49 AVE","AtStreet":"YEW ST","Latitude":49.227274,"Longitude":-123.159273,"WheelchairAccess":1,"Distance":1947,"Routes":"049"},{"StopNo":51965,"Name":"EB W 49 AVE FS HEATHER ST","BayNo":"N","City":"VANCOUVER","OnStreet":"W 49 AVE","AtStreet":"HEATHER ST","Latitude":49.226275,"Longitude":-123.123158,"WheelchairAccess":1,"Distance":1958,"Routes":"049"},{"StopNo":50212,"Name":"NB GRANVILLE ST FS W 16 AVE","BayNo":"N","City":"VANCOUVER","OnStreet":"GRANVILLE ST","AtStreet":"W 16 AVE","Latitude":49.257367,"Longitude":-123.138663,"WheelchairAccess":1,"Distance":1961,"Routes":"010, N10"},{"StopNo":61095,"Name":"EB MARPOLE AVE FS MCRAE AVE","BayNo":"N","City":"VANCOUVER","OnStreet":"MARPOLE AVE","AtStreet":"MCRAE AVE","Latitude":49.257415,"Longitude":-123.137767,"WheelchairAccess":1,"Distance":1972,"Routes":"033"},{"StopNo":61094,"Name":"EB W 16 AVE NS BURRARD ST","BayNo":"N","City":"VANCOUVER","OnStreet":"W 16 AVE","AtStreet":"BURRARD ST","Latitude":49.257121,"Longitude":-123.146366,"WheelchairAccess":1,"Distance":1976,"Routes":"033"},{"StopNo":50809,"Name":"SB OAK ST FS W 52 AVE","BayNo":"N","City":"VANCOUVER","OnStreet":"OAK ST","AtStreet":"W 52 AVE","Latitude":49.223665,"Longitude":-123.128545,"WheelchairAccess":1,"Distance":1990,"Routes":"017"},{"StopNo":61127,"Name":"WB W 16 AVE FS BURRARD ST","BayNo":"N","City":"VANCOUVER","OnStreet":"W 16 AVE","AtStreet":"BURRARD ST","Latitude":49.257239,"Longitude":-123.146565,"WheelchairAccess":1,"Distance":1992,"Routes":"033"},{"StopNo":50544,"Name":"SB GRANVILLE ST FS W 15 AVE","BayNo":"N","City":"VANCOUVER","OnStreet":"GRANVILLE ST","AtStreet":"W 15 AVE","Latitude":49.257667,"Longitude":-123.138899,"WheelchairAccess":1,"Distance":1994,"Routes":"010, N10"}]