[{"StopNo":50177,"Name":"NB MAIN ST NS E 6 AVE","BayNo":"N","City":"VANCOUVER","OnStreet":"MAIN ST","AtStreet":"E 6 AVE","Latitude":49.265339,"Longitude":-123.100685,"WheelchairAccess":1,"Distance":172,"Routes":"003, 008, 019, N19, N8"},{"StopNo":50236,"Name":"SB MAIN ST FS E 5 AVE--","BayNo":"N","City":"VANCOUVER","OnStreet":"MAIN ST","AtStreet":"E 5 AVE","Latitude":49.265850,"Longitude":-123.100990,"WheelchairAccess":1,"Distance":191,"Routes":"003"},{"StopNo":58510,"Name":"SB MAIN ST FS E 5 AVE-","BayNo":"N","City":"VANCOUVER","OnStreet":"MAIN ST","AtStreet":"E 5 AVE","Latitude":49.266106,"Longitude":-123.100975,"WheelchairAccess":1,"Distance":195,"Routes":"008, 019, N19, N8"},{"StopNo":50178,"Name":"NB MAIN ST FS E 5 AVE","BayNo":"N","City":"VANCOUVER","OnStreet":"MAIN ST","AtStreet":"E 5 AVE","Latitude":49.266720,"Longitude":-123.100662,"WheelchairAccess":1,"Distance":203,"Routes":"003, 008, 019, N19, N8"},{"StopNo":59763,"Name":"EB GREAT NORTHERN WAY FS BRUNSWICK ST ","BayNo":"N","City":"VANCOUVER","OnStreet":"GREAT NORTHERN WAY","AtStreet":"BRUNSWICK ST","Latitude":49.266747,"Longitude":-123.095825,"WheelchairAccess":1,"Distance":220,"Routes":"084"},{"StopNo":50771,"Name":"EB KINGSWAY FS MAIN ST ","BayNo":"N","City":"VANCOUVER","OnStreet":"KINGSWAY","AtStreet":"MAIN ST","Latitude":49.263824,"Longitude":-123.100517,"WheelchairAccess":1,"Distance":258,"Routes":"008, 019, N19, N8"},{"StopNo":59764,"Name":"WB GREAT NORTHERN NS PRINCE EDWARD ","BayNo":"N","City":"VANCOUVER","OnStreet":"GREAT NORTHERN WAY","AtStreet":"PRINCE EDWARD ST","Latitude":49.266890,"Longitude":-123.095260,"WheelchairAccess":1,"Distance":263,"Routes":""},{"StopNo":58145,"Name":"WB KINGSWAY FS E BROADWAY","BayNo":"N","City":"VANCOUVER","OnStreet":"KINGSWAY","AtStreet":"E BROADWAY","Latitude":49.263294,"Longitude":-123.099678,"WheelchairAccess":1,"Distance":281,"Routes":"008, 019, N19, N8"},{"StopNo":50237,"Name":"SB MAIN ST NS E 8 AVE","BayNo":"N","City":"VANCOUVER","OnStreet":"MAIN ST","AtStreet":"E 8 AVE","Latitude":49.263880,"Longitude":-123.101090,"WheelchairAccess":1,"Distance":281,"Routes":""},{"StopNo":61684,"Name":"WB GREAT NORTHERN WAY NS THORNTON ST","BayNo":"N","City":"VANCOUVER","OnStreet":"GREAT NORTHERN WAY","AtStreet":"THORNTON ST","Latitude":49.266911,"Longitude":-123.094727,"WheelchairAccess":1,"Distance":298,"Routes":"084"},{"StopNo":50850,"Name":"WB E BROADWAY NS SCOTIA ST","BayNo":"N","City":"VANCOUVER","OnStreet":"E BROADWAY","AtStreet":"SCOTIA ST","Latitude":49.262924,"Longitude":-123.098694,"WheelchairAccess":1,"Distance":307,"Routes":"008, 009, N8, N9"},{"StopNo":50235,"Name":"SB MAIN ST FS E 3 AVE","BayNo":"N","City":"VANCOUVER","OnStreet":"MAIN ST","AtStreet":"E 3 AVE","Latitude":49.267998,"Longitude":-123.100945,"WheelchairAccess":1,"Distance":319,"Routes":"003, 008, 019, N19, N8"},{"StopNo":50176,"Name":"NB MAIN ST FS E BROADWAY","BayNo":"N","City":"VANCOUVER","OnStreet":"MAIN ST","AtStreet":"E BROADWAY","Latitude":49.263233,"Longitude":-123.100792,"WheelchairAccess":1,"Distance":324,"Routes":"003"},{"StopNo":50772,"Name":"EB E BROADWAY FS KINGSWAY","BayNo":"N","City":"VANCOUVER","OnStreet":"E BROADWAY","AtStreet":"KINGSWAY","Latitude":49.262718,"Longitude":-123.098053,"WheelchairAccess":1,"Distance":330,"Routes":"008, 009, N8, N9"},{"StopNo":50880,"Name":"EB E BROADWAY NS KINGSWAY","BayNo":"N","City":"VANCOUVER","OnStreet":"E BROADWAY","AtStreet":"KINGSWAY ST","Latitude":49.262779,"Longitude":-123.099815,"WheelchairAccess":1,"Distance":339,"Routes":"009, N9"},{"StopNo":50849,"Name":"WB E BROADWAY FS PRINCE EDWARD ST","BayNo":"N","City":"VANCOUVER","OnStreet":"E BROADWAY","AtStreet":"PRINCE EDWARD ST","Latitude":49.262836,"Longitude":-123.096512,"WheelchairAccess":1,"Distance":344,"Routes":"008, 009, N8, N9"},{"StopNo":52101,"Name":"EB E BROADWAY FS MAIN ST","BayNo":"N","City":"VANCOUVER","OnStreet":"E BROADWAY","AtStreet":"MAIN ST","Latitude":49.262802,"Longitude":-123.100418,"WheelchairAccess":1,"Distance":352,"Routes":"099"},{"StopNo":60517,"Name":"SB MAIN ST NS E BROADWAY","BayNo":"N","City":"VANCOUVER","OnStreet":"MAIN ST","AtStreet":"E BROADWAY","Latitude":49.263081,"Longitude":-123.101143,"WheelchairAccess":-1,"Distance":352,"Routes":"003"},{"StopNo":59762,"Name":"EB E 2 AVE FS MAIN ST","BayNo":"N","City":"VANCOUVER","OnStreet":"E 2 AVE","AtStreet":"MAIN ST","Latitude":49.268684,"Longitude":-123.100067,"WheelchairAccess":1,"Distance":356,"Routes":"084"},{"StopNo":51134,"Name":"EB KINGSWAY FS E BROADWAY","BayNo":"N","City":"VANCOUVER","OnStreet":"KINGSWAY","AtStreet":"E BROADWAY","Latitude":49.262550,"Longitude":-123.099411,"WheelchairAccess":1,"Distance":356,"Routes":"019, N19"},{"StopNo":50881,"Name":"WB E BROADWAY FS MAIN ST-","BayNo":"N","City":"VANCOUVER","OnStreet":"E BROADWAY","AtStreet":"MAIN ST","Latitude":49.263020,"Longitude":-123.101631,"WheelchairAccess":1,"Distance":378,"Routes":"009, N9"},{"StopNo":59580,"Name":"SB MAIN ST FS E 2 AVE","BayNo":"N","City":"VANCOUVER","OnStreet":"MAIN ST","AtStreet":"E 2 AVE","Latitude":49.268688,"Longitude":-123.100898,"WheelchairAccess":1,"Distance":382,"Routes":""},{"StopNo":50879,"Name":"EB E BROADWAY NS MAIN ST","BayNo":"N","City":"VANCOUVER","OnStreet":"E BROADWAY","AtStreet":"MAIN ST","Latitude":49.262830,"Longitude":-123.101340,"WheelchairAccess":1,"Distance":383,"Routes":""},{"StopNo":50238,"Name":"SB MAIN ST FS E BROADWAY","BayNo":"N","City":"VANCOUVER","OnStreet":"MAIN ST","AtStreet":"E BROADWAY","Latitude":49.262540,"Longitude":-123.101140,"WheelchairAccess":1,"Distance":403,"Routes":""},{"StopNo":50773,"Name":"EB E BROADWAY FS PRINCE EDWARD ST","BayNo":"N","City":"VANCOUVER","OnStreet":"E BROADWAY","AtStreet":"PRINCE EDWARD ST","Latitude":49.262455,"Longitude":-123.095528,"WheelchairAccess":1,"Distance":413,"Routes":"008, 009, N8, N9"},{"StopNo":58953,"Name":"WB E 10 AVE FS KINGSWAY","BayNo":"N","City":"VANCOUVER","OnStreet":"E 10 AVE","AtStreet":"KINGSWAY","Latitude":49.262032,"Longitude":-123.099602,"WheelchairAccess":0,"Distance":415,"Routes":""},{"StopNo":58500,"Name":"WB E BROADWAY FS MAIN ST--","BayNo":"N","City":"VANCOUVER","OnStreet":"E BROADWAY","AtStreet":"MAIN ST","Latitude":49.263058,"Longitude":-123.102676,"WheelchairAccess":1,"Distance":427,"Routes":"099"},{"StopNo":50179,"Name":"NB MAIN ST FS E 2 AVE","BayNo":"N","City":"VANCOUVER","OnStreet":"MAIN ST","AtStreet":"E 2 AVE","Latitude":49.269455,"Longitude":-123.100502,"WheelchairAccess":1,"Distance":448,"Routes":"003, 008, 019, N19, N8"},{"StopNo":59761,"Name":"WB E 2 AVE FS MAIN ST","BayNo":"N","City":"VANCOUVER","OnStreet":"E 2 AVE","AtStreet":"MAIN ST","Latitude":49.269283,"Longitude":-123.101219,"WheelchairAccess":1,"Distance":451,"Routes":"084"},{"StopNo":50848,"Name":"WB E BROADWAY FS SAINT GEORGE ST","BayNo":"N","City":"VANCOUVER","OnStreet":"E BROADWAY","AtStreet":"SAINT GEORGE ST","Latitude":49.262592,"Longitude":-123.093956,"WheelchairAccess":1,"Distance":469,"Routes":"008, 009, N8, N9"},{"StopNo":61694,"Name":"SB MAIN ST FS E 1 AV","BayNo":"N","City":"VANCOUVER","OnStreet":"MAIN ST","AtStreet":"E 1 AV","Latitude":49.269830,"Longitude":-123.100840,"WheelchairAccess":1,"Distance":495,"Routes":""},{"StopNo":60531,"Name":"EB GREAT NORTHERN WAY NS CAROLINA ST","BayNo":"N","City":"VANCOUVER","OnStreet":"GREAT NORTHERN WAY","AtStreet":"CAROLINA ST","Latitude":49.266689,"Longitude":-123.091232,"WheelchairAccess":-1,"Distance":530,"Routes":"084"},{"StopNo":60375,"Name":"WB GREAT NORTHERN WAY FS CAROLINA ST","BayNo":"N","City":"VANCOUVER","OnStreet":"GREAT NORTHERN WAY","AtStreet":"CAROLINA STREET","Latitude":49.266869,"Longitude":-123.091179,"WheelchairAccess":1,"Distance":538,"Routes":"084"},{"StopNo":50878,"Name":"EB E BROADWAY FS ONTARIO ST","BayNo":"N","City":"VANCOUVER","OnStreet":"E BROADWAY","AtStreet":"ONTARIO ST","Latitude":49.262913,"Longitude":-123.104469,"WheelchairAccess":1,"Distance":539,"Routes":"009, N9"},{"StopNo":50774,"Name":"EB E BROADWAY FS SAINT GEORGE ST","BayNo":"N","City":"VANCOUVER","OnStreet":"E BROADWAY","AtStreet":"SAINT GEORGE ST","Latitude":49.262402,"Longitude":-123.092514,"WheelchairAccess":1,"Distance":560,"Routes":"008, 009, N8, N9"},{"StopNo":59760,"Name":"EB E 2 AVE FS ONTARIO ST","BayNo":"N","City":"VANCOUVER","OnStreet":"E 2 AVE","AtStreet":"ONTARIO ST","Latitude":49.269127,"Longitude":-123.104156,"WheelchairAccess":1,"Distance":569,"Routes":"084"},{"StopNo":60391,"Name":"EB GREAT NORTHERN WAY FS CAROLINA ST","BayNo":"N","City":"VANCOUVER","OnStreet":"GREAT NORTHERN WAY","AtStreet":"CAROLINA ST","Latitude":49.266678,"Longitude":-123.090561,"WheelchairAccess":1,"Distance":578,"Routes":""},{"StopNo":50234,"Name":"SB MAIN ST FS SWITCHMEN ST","BayNo":"N","City":"VANCOUVER","OnStreet":"MAIN ST","AtStreet":"SWITCHMEN ST","Latitude":49.270622,"Longitude":-123.100822,"WheelchairAccess":1,"Distance":578,"Routes":"003, 008, 019, N19, N8"},{"StopNo":50920,"Name":"WB W BROADWAY FS ONTARIO ST","BayNo":"N","City":"VANCOUVER","OnStreet":"W BROADWAY","AtStreet":"ONTARIO ST","Latitude":49.263100,"Longitude":-123.105293,"WheelchairAccess":1,"Distance":578,"Routes":"009, N9"},{"StopNo":50180,"Name":"NB MAIN ST FS INDUSTRIAL AVE","BayNo":"N","City":"VANCOUVER","OnStreet":"MAIN ST","AtStreet":"INDUSTRIAL AVE","Latitude":49.270802,"Longitude":-123.100433,"WheelchairAccess":1,"Distance":589,"Routes":"003, 008, 019, N19, N8"},{"StopNo":50174,"Name":"NB MAIN ST FS E 12 AVE","BayNo":"N","City":"VANCOUVER","OnStreet":"MAIN ST","AtStreet":"E 12 AVE","Latitude":49.260529,"Longitude":-123.100891,"WheelchairAccess":1,"Distance":601,"Routes":"003"},{"StopNo":57879,"Name":"WB GREAT NORTHERN WAY FS FRASER ST","BayNo":"N","City":"VANCOUVER","OnStreet":"GREAT NORTHERN WAY","AtStreet":"FRASER ST","Latitude":49.266860,"Longitude":-123.090210,"WheelchairAccess":1,"Distance":607,"Routes":""},{"StopNo":51135,"Name":"EB KINGSWAY NS E 12 AVE","BayNo":"N","City":"VANCOUVER","OnStreet":"KINGSWAY","AtStreet":"E 12 AVE","Latitude":49.260193,"Longitude":-123.097099,"WheelchairAccess":1,"Distance":617,"Routes":"019, N19"},{"StopNo":51199,"Name":"WB KINGSWAY FS E 12 AVE","BayNo":"N","City":"VANCOUVER","OnStreet":"KINGSWAY","AtStreet":"E 12 AVE","Latitude":49.260170,"Longitude":-123.096664,"WheelchairAccess":1,"Distance":625,"Routes":"019, N19"},{"StopNo":59759,"Name":"WB W 2 AVE FS ONTARIO ST","BayNo":"N","City":"VANCOUVER","OnStreet":"W 2 AVE","AtStreet":"ONTARIO ST","Latitude":49.269360,"Longitude":-123.105040,"WheelchairAccess":1,"Distance":634,"Routes":""},{"StopNo":50240,"Name":"SB MAIN ST FS E 12 AVE","BayNo":"N","City":"VANCOUVER","OnStreet":"MAIN ST","AtStreet":"E 12 AVE","Latitude":49.259888,"Longitude":-123.101273,"WheelchairAccess":1,"Distance":677,"Routes":"003"},{"StopNo":58613,"Name":"WB E BROADWAY FS FRASER ST ","BayNo":"N","City":"VANCOUVER","OnStreet":"E BROADWAY","AtStreet":"FRASER ST","Latitude":49.262592,"Longitude":-123.090088,"WheelchairAccess":1,"Distance":692,"Routes":"008, 009, 099, N8, N9"},{"StopNo":59726,"Name":"EB W BROADWAY NS MANITOBA ST","BayNo":"N","City":"VANCOUVER","OnStreet":"W BROADWAY","AtStreet":"MANITOBA ST","Latitude":49.262970,"Longitude":-123.107330,"WheelchairAccess":1,"Distance":716,"Routes":""},{"StopNo":51276,"Name":"EB TERMINAL AVE NS THORNTON ST","BayNo":"N","City":"VANCOUVER","OnStreet":"TERMINAL AVE","AtStreet":"THORNTON ST","Latitude":49.271618,"Longitude":-123.093948,"WheelchairAccess":1,"Distance":734,"Routes":"022"},{"StopNo":60248,"Name":"EB E BROADWAY NS FRASER ST","BayNo":"N","City":"VANCOUVER","OnStreet":"E BROADWAY","AtStreet":"FRASER ST","Latitude":49.262367,"Longitude":-123.089394,"WheelchairAccess":1,"Distance":748,"Routes":"009, 099, N9"},{"StopNo":61954,"Name":"WB W 2 AVE FS MANITOBA ST","BayNo":"N","City":"VANCOUVER","OnStreet":"W 2 AVE","AtStreet":"MANITOBA ST","Latitude":49.269375,"Longitude":-123.106995,"WheelchairAccess":1,"Distance":749,"Routes":"084"},{"StopNo":58280,"Name":"WB TERMINAL AVE AT 300 BLOCK","BayNo":"N","City":"VANCOUVER","OnStreet":"TERMINAL AVE","AtStreet":"300 BLOCK","Latitude":49.272362,"Longitude":-123.096642,"WheelchairAccess":1,"Distance":754,"Routes":"022"},{"StopNo":51275,"Name":"EB TERMINAL AVE FS WESTERN ST","BayNo":"N","City":"VANCOUVER","OnStreet":"TERMINAL AVE","AtStreet":"WESTERN ST","Latitude":49.272476,"Longitude":-123.098892,"WheelchairAccess":0,"Distance":757,"Routes":"022"},{"StopNo":51354,"Name":"WB TERMINAL AVE NS THORNTON ST","BayNo":"N","City":"VANCOUVER","OnStreet":"TERMINAL AVE","AtStreet":"THORNTON ST","Latitude":49.271778,"Longitude":-123.093109,"WheelchairAccess":1,"Distance":778,"Routes":"022"},{"StopNo":50775,"Name":"SB FRASER ST FS E BROADWAY","BayNo":"N","City":"VANCOUVER","OnStreet":"FRASER ST","AtStreet":"E BROADWAY","Latitude":49.262020,"Longitude":-123.089233,"WheelchairAccess":1,"Distance":778,"Routes":"008, N8"},{"StopNo":51136,"Name":"EB KINGSWAY FS E 13 AVE","BayNo":"N","City":"VANCOUVER","OnStreet":"KINGSWAY","AtStreet":"E 13 AVE","Latitude":49.258949,"Longitude":-123.095428,"WheelchairAccess":1,"Distance":778,"Routes":"019, N19"},{"StopNo":59582,"Name":"NB MAIN ST FS E 14 AVE","BayNo":"N","City":"VANCOUVER","OnStreet":"MAIN ST","AtStreet":"E 14 AVE","Latitude":49.258781,"Longitude":-123.100990,"WheelchairAccess":1,"Distance":790,"Routes":"003"},{"StopNo":50846,"Name":"NB FRASER ST FS E 10 AVE","BayNo":"N","City":"VANCOUVER","OnStreet":"FRASER ST","AtStreet":"E 10 AVE","Latitude":49.261837,"Longitude":-123.089027,"WheelchairAccess":1,"Distance":801,"Routes":"008, N8"},{"StopNo":58614,"Name":"EB E BROADWAY FS FRASER ST ","BayNo":"N","City":"VANCOUVER","OnStreet":"E BROADWAY ST","AtStreet":"FRASER ST","Latitude":49.262360,"Longitude":-123.088390,"WheelchairAccess":1,"Distance":813,"Routes":""},{"StopNo":59765,"Name":"WB GREAT NORTHERN WAY FS FOLEY ST","BayNo":"N","City":"VANCOUVER","OnStreet":"GREAT NORTHERN WAY","AtStreet":"FOLEY ST","Latitude":49.266403,"Longitude":-123.087135,"WheelchairAccess":1,"Distance":819,"Routes":"084"},{"StopNo":60006,"Name":"EB W BROADWAY FS COLUMBIA ST","BayNo":"N","City":"VANCOUVER","OnStreet":"W BROADWAY","AtStreet":"COLUMBIA ST","Latitude":49.263020,"Longitude":-123.109047,"WheelchairAccess":1,"Distance":829,"Routes":"009, N9"},{"StopNo":59929,"Name":"MAIN STREET-SCIENCE WORLD STN BAY 3","BayNo":"3","City":"VANCOUVER","OnStreet":"MAIN STREET-SCIENCE WORLD STN","AtStreet":"BAY 3","Latitude":49.273163,"Longitude":-123.098686,"WheelchairAccess":1,"Distance":833,"Routes":"023"},{"StopNo":50233,"Name":"MAIN STREET-SCIENCE WORLD STN BAY 1","BayNo":"1","City":"VANCOUVER","OnStreet":"MAIN STREET-SCIENCE WORLD STN","AtStreet":"BAY 1","Latitude":49.273071,"Longitude":-123.100189,"WheelchairAccess":1,"Distance":833,"Routes":"003, 008, 019, N19, N8"},{"StopNo":57968,"Name":"MAIN STREET-SCIENCE WORLD STATION PLATFORM 2","BayNo":"N","City":"VANCOUVER","OnStreet":"MAIN STREET-SCIENCE WORLD STATION","AtStreet":"PLATFORM 2","Latitude":49.273098,"Longitude":-123.100395,"WheelchairAccess":0,"Distance":838,"Routes":"992"},{"StopNo":57999,"Name":"MAIN STREET-SCIENCE WORLD STATION PLATFORM 1","BayNo":"N","City":"VANCOUVER","OnStreet":"MAIN STREET-SCIENCE WORLD STATION","AtStreet":"PLATFORM 1","Latitude":49.273170,"Longitude":-123.100349,"WheelchairAccess":0,"Distance":845,"Routes":"992"},{"StopNo":50919,"Name":"WB E BROADWAY FS PRINCE ALBERT ST","BayNo":"N","City":"VANCOUVER","OnStreet":"E BROADWAY","AtStreet":"PRINCE ALBERT ST","Latitude":49.262581,"Longitude":-123.087646,"WheelchairAccess":1,"Distance":851,"Routes":"009, N9"},{"StopNo":50181,"Name":"MAIN STREET-SCIENCE WORLD STN BAY 2","BayNo":"2","City":"VANCOUVER","OnStreet":"MAIN STREET-SCIENCE WORLD STN","AtStreet":"BAY 2","Latitude":49.273396,"Longitude":-123.099831,"WheelchairAccess":1,"Distance":865,"Routes":"003, 008, 019, 022, N19, N8"},{"StopNo":50241,"Name":"SB MAIN ST FS E 14 AVE","BayNo":"N","City":"VANCOUVER","OnStreet":"MAIN ST","AtStreet":"E 14 AVE","Latitude":49.258083,"Longitude":-123.101303,"WheelchairAccess":1,"Distance":871,"Routes":"003"},{"StopNo":50921,"Name":"WB W BROADWAY FS COLUMBIA ST","BayNo":"N","City":"VANCOUVER","OnStreet":"W BROADWAY","AtStreet":"COLUMBIA ST","Latitude":49.263210,"Longitude":-123.109871,"WheelchairAccess":1,"Distance":878,"Routes":"009, N9"},{"StopNo":59925,"Name":"NB QUEBEC ST FS TERMINAL AVE","BayNo":"N","City":"VANCOUVER","OnStreet":"QUEBEC ST","AtStreet":"TERMINAL AVE","Latitude":49.273357,"Longitude":-123.101524,"WheelchairAccess":1,"Distance":884,"Routes":"023"},{"StopNo":50776,"Name":"SB FRASER ST FS E 11 AVE","BayNo":"N","City":"VANCOUVER","OnStreet":"FRASER ST","AtStreet":"E 11 AVE","Latitude":49.260319,"Longitude":-123.089272,"WheelchairAccess":1,"Distance":889,"Routes":"008, N8"},{"StopNo":59766,"Name":"EB GREAT NORTHERN WAY FS FOLEY ST","BayNo":"N","City":"VANCOUVER","OnStreet":"GREAT NORTHERN WAY","AtStreet":"FOLEY ST","Latitude":49.266022,"Longitude":-123.086121,"WheelchairAccess":1,"Distance":890,"Routes":"084"},{"StopNo":51198,"Name":"WB KINGSWAY FS SAINT GEORGE ST","BayNo":"N","City":"VANCOUVER","OnStreet":"KINGSWAY","AtStreet":"SAINT GEORGE ST","Latitude":49.258171,"Longitude":-123.093582,"WheelchairAccess":1,"Distance":904,"Routes":"019, N19"},{"StopNo":59758,"Name":"EB W 2 AVE NS COLUMBIA ST","BayNo":"N","City":"VANCOUVER","OnStreet":"W 2 AVE","AtStreet":"COLUMBIA ST","Latitude":49.269028,"Longitude":-123.109734,"WheelchairAccess":1,"Distance":905,"Routes":"084"},{"StopNo":60351,"Name":"SB STATION ST FS NATIONAL AVE","BayNo":"N","City":"VANCOUVER","OnStreet":"STATION ST","AtStreet":"NATIONAL AVE","Latitude":49.273853,"Longitude":-123.098650,"WheelchairAccess":1,"Distance":909,"Routes":""},{"StopNo":50845,"Name":"NB FRASER ST FS E 12 AVE","BayNo":"N","City":"VANCOUVER","OnStreet":"FRASER ST","AtStreet":"E 12 AVE","Latitude":49.260078,"Longitude":-123.089058,"WheelchairAccess":1,"Distance":919,"Routes":"008, N8"},{"StopNo":59757,"Name":"WB W 2 AVE FS COLUMBIA ST","BayNo":"N","City":"VANCOUVER","OnStreet":"W 2 AVE","AtStreet":"COLUMBIA ST","Latitude":49.269190,"Longitude":-123.109900,"WheelchairAccess":1,"Distance":923,"Routes":""},{"StopNo":50876,"Name":"EB W BROADWAY FS ALBERTA ST","BayNo":"N","City":"VANCOUVER","OnStreet":"W BROADWAY","AtStreet":"ALBERTA ST","Latitude":49.263050,"Longitude":-123.110550,"WheelchairAccess":1,"Distance":931,"Routes":""},{"StopNo":51277,"Name":"EB TERMINAL AVE FS BEGG ST","BayNo":"N","City":"VANCOUVER","OnStreet":"TERMINAL AVE","AtStreet":"BEGG ST","Latitude":49.270462,"Longitude":-123.087036,"WheelchairAccess":1,"Distance":980,"Routes":"022"},{"StopNo":50232,"Name":"SB MAIN ST FS NATIONAL AVE","BayNo":"N","City":"VANCOUVER","OnStreet":"MAIN ST","AtStreet":"NATIONAL AVE","Latitude":49.274506,"Longitude":-123.100143,"WheelchairAccess":1,"Distance":990,"Routes":"003, 008, 019, 022, N19, N8"},{"StopNo":59581,"Name":"NB MAIN ST FS E 16 AVE","BayNo":"N","City":"VANCOUVER","OnStreet":"MAIN ST","AtStreet":"E 16 AVE","Latitude":49.256943,"Longitude":-123.101067,"WheelchairAccess":1,"Distance":991,"Routes":"003"},{"StopNo":51353,"Name":"WB TERMINAL AVE NS BEGG ST","BayNo":"N","City":"VANCOUVER","OnStreet":"TERMINAL AVE","AtStreet":"BEGG ST","Latitude":49.270771,"Longitude":-123.087151,"WheelchairAccess":1,"Distance":992,"Routes":"022"},{"StopNo":51137,"Name":"EB KINGSWAY NS CAROLINA ST","BayNo":"N","City":"VANCOUVER","OnStreet":"KINGSWAY","AtStreet":"CAROLINA ST","Latitude":49.257420,"Longitude":-123.092369,"WheelchairAccess":1,"Distance":1016,"Routes":"019, N19"},{"StopNo":59928,"Name":"EB NATIONAL AVE FS MAIN ST","BayNo":"N","City":"VANCOUVER","OnStreet":"NATIONAL AVE","AtStreet":"MAIN ST","Latitude":49.274845,"Longitude":-123.099442,"WheelchairAccess":1,"Distance":1022,"Routes":"023"},{"StopNo":61985,"Name":"WB W 2 AVE FS CROWE ST","BayNo":"N","City":"VANCOUVER","OnStreet":"W 2 AVE","AtStreet":"CROWE ST","Latitude":49.268177,"Longitude":-123.111984,"WheelchairAccess":1,"Distance":1026,"Routes":"084"},{"StopNo":50777,"Name":"SB FRASER ST FS E 13 AVE","BayNo":"N","City":"VANCOUVER","OnStreet":"FRASER ST","AtStreet":"E 13 AVE","Latitude":49.258480,"Longitude":-123.089287,"WheelchairAccess":1,"Distance":1037,"Routes":"008, N8"},{"StopNo":59926,"Name":"EB NATIONAL AVE FS QUEBEC ST","BayNo":"N","City":"VANCOUVER","OnStreet":"NATIONAL AVE","AtStreet":"QUEBEC ST","Latitude":49.274872,"Longitude":-123.101463,"WheelchairAccess":1,"Distance":1047,"Routes":"023"},{"StopNo":50883,"Name":"EB E BROADWAY FS SAINT CATHERINES ST","BayNo":"N","City":"VANCOUVER","OnStreet":"E BROADWAY","AtStreet":"SAINT CATHERINES ST","Latitude":49.262352,"Longitude":-123.084747,"WheelchairAccess":1,"Distance":1056,"Routes":"009, N9"},{"StopNo":50844,"Name":"NB FRASER ST FS E 14 AVE","BayNo":"N","City":"VANCOUVER","OnStreet":"FRASER ST","AtStreet":"E 14 AVE","Latitude":49.258293,"Longitude":-123.089096,"WheelchairAccess":1,"Distance":1062,"Routes":"008, N8"},{"StopNo":50242,"Name":"SB MAIN ST FS E 16 AVE","BayNo":"N","City":"VANCOUVER","OnStreet":"MAIN ST","AtStreet":"E 16 AVE","Latitude":49.256252,"Longitude":-123.101387,"WheelchairAccess":1,"Distance":1071,"Routes":"003"},{"StopNo":50182,"Name":"NB MAIN ST FS NATIONAL AVE","BayNo":"N","City":"VANCOUVER","OnStreet":"MAIN ST","AtStreet":"NATIONAL AVE","Latitude":49.275322,"Longitude":-123.099747,"WheelchairAccess":1,"Distance":1077,"Routes":"003, 008, 019, 022, N19, N8"},{"StopNo":59927,"Name":"NB QUEBEC ST FS NATIONAL AVE","BayNo":"N","City":"VANCOUVER","OnStreet":"QUEBEC ST","AtStreet":"NATIONAL AVE","Latitude":49.275246,"Longitude":-123.101807,"WheelchairAccess":1,"Distance":1093,"Routes":"023"},{"StopNo":50922,"Name":"BROADWAY-CITY HALL STN BAY 5","BayNo":"5","City":"VANCOUVER","OnStreet":"BROADWAY-CITY HALL STN","AtStreet":"BAY 5","Latitude":49.263294,"Longitude":-123.113274,"WheelchairAccess":1,"Distance":1113,"Routes":"009, N9"},{"StopNo":50918,"Name":"WB E BROADWAY FS WINDSOR ST","BayNo":"N","City":"VANCOUVER","OnStreet":"E BROADWAY","AtStreet":"WINDSOR ST","Latitude":49.262531,"Longitude":-123.083725,"WheelchairAccess":1,"Distance":1119,"Routes":"009, N9"},{"StopNo":52100,"Name":"BROADWAY-CITY HALL STN BAY 6","BayNo":"6","City":"VANCOUVER","OnStreet":"BROADWAY-CITY HALL STN","AtStreet":"BAY 6","Latitude":49.263084,"Longitude":-123.113350,"WheelchairAccess":1,"Distance":1124,"Routes":"009"},{"StopNo":51197,"Name":"WB KINGSWAY FS FRASER ST","BayNo":"N","City":"VANCOUVER","OnStreet":"KINGSWAY","AtStreet":"FRASER ST","Latitude":49.257027,"Longitude":-123.090225,"WheelchairAccess":1,"Distance":1129,"Routes":"019, N19"},{"StopNo":50483,"Name":"NB CAMBIE ST NS W 7 AVE","BayNo":"N","City":"VANCOUVER","OnStreet":"CAMBIE ST","AtStreet":"W 7 AVE","Latitude":49.264648,"Longitude":-123.114624,"WheelchairAccess":1,"Distance":1185,"Routes":"015, 017, N15"},{"StopNo":50875,"Name":"BROADWAY-CITY HALL STN BAY 1","BayNo":"1","City":"VANCOUVER","OnStreet":"BROADWAY-CITY HALL STN","AtStreet":"BAY 1","Latitude":49.263107,"Longitude":-123.114281,"WheelchairAccess":1,"Distance":1189,"Routes":"099, N9"},{"StopNo":50482,"Name":"NB CAMBIE ST NS W 8 AVE","BayNo":"N","City":"VANCOUVER","OnStreet":"CAMBIE ST","AtStreet":"W 8 AVE","Latitude":49.263805,"Longitude":-123.114639,"WheelchairAccess":1,"Distance":1199,"Routes":"017, N15"},{"StopNo":59835,"Name":"NB MAIN ST FS E 18 AVE","BayNo":"N","City":"VANCOUVER","OnStreet":"MAIN ST","AtStreet":"E 18 AVE","Latitude":49.255005,"Longitude":-123.100983,"WheelchairAccess":1,"Distance":1202,"Routes":"003"},{"StopNo":61039,"Name":"OLYMPIC VILLAGE STN BAY 2","BayNo":"2","City":"VANCOUVER","OnStreet":"OLYMPIC VILLAGE STN","AtStreet":"BAY 2","Latitude":49.266426,"Longitude":-123.114937,"WheelchairAccess":1,"Distance":1205,"Routes":"084"},{"StopNo":50412,"Name":"SB CAMBIE ST FS W 7 AVE","BayNo":"N","City":"VANCOUVER","OnStreet":"CAMBIE ST","AtStreet":"W 7 AVE","Latitude":49.264565,"Longitude":-123.114998,"WheelchairAccess":1,"Distance":1213,"Routes":"015, 017, N15"},{"StopNo":61370,"Name":"BROADWAY-CITY HALL STATION PLATFORM 1","BayNo":"N","City":"VANCOUVER","OnStreet":"BROADWAY-CITY HALL STATION","AtStreet":"PLATFORM 1","Latitude":49.263138,"Longitude":-123.114693,"WheelchairAccess":0,"Distance":1217,"Routes":"980"},{"StopNo":50778,"Name":"SB FRASER ST FS E 16 AVE","BayNo":"N","City":"VANCOUVER","OnStreet":"FRASER ST","AtStreet":"E 16 AVE","Latitude":49.256111,"Longitude":-123.090057,"WheelchairAccess":1,"Distance":1223,"Routes":"008, N8"},{"StopNo":61027,"Name":"BROADWAY-CITY HALL STN BAY 2","BayNo":"2","City":"VANCOUVER","OnStreet":"BROADWAY-CITY HALL STN","AtStreet":"BAY 2","Latitude":49.262760,"Longitude":-123.114655,"WheelchairAccess":1,"Distance":1225,"Routes":"015, 017, N15"},{"StopNo":61369,"Name":"BROADWAY-CITY HALL STATION PLATFORM 2","BayNo":"N","City":"VANCOUVER","OnStreet":"BROADWAY-CITY HALL STATION","AtStreet":"PLATFORM 2","Latitude":49.263123,"Longitude":-123.114815,"WheelchairAccess":0,"Distance":1226,"Routes":"980"},{"StopNo":51278,"Name":"EB PRIOR ST FS DUNLEVY AVE","BayNo":"N","City":"VANCOUVER","OnStreet":"PRIOR ST","AtStreet":"DUNLEVY AVE","Latitude":49.276623,"Longitude":-123.095192,"WheelchairAccess":0,"Distance":1239,"Routes":"022"},{"StopNo":61368,"Name":"OLYMPIC VILLAGE STATION PLATFORM 1","BayNo":"N","City":"VANCOUVER","OnStreet":"OLYMPIC VILLAGE STATION","AtStreet":"PLATFORM 1","Latitude":49.266609,"Longitude":-123.115440,"WheelchairAccess":0,"Distance":1243,"Routes":"980"},{"StopNo":61367,"Name":"OLYMPIC VILLAGE STATION PLATFORM 2","BayNo":"N","City":"VANCOUVER","OnStreet":"OLYMPIC VILLAGE STATION","AtStreet":"PLATFORM 2","Latitude":49.266590,"Longitude":-123.115494,"WheelchairAccess":0,"Distance":1247,"Routes":"980"},{"StopNo":50413,"Name":"BROADWAY-CITY HALL STN BAY 3","BayNo":"3","City":"VANCOUVER","OnStreet":"BROADWAY-CITY HALL STN","AtStreet":"BAY 3","Latitude":49.262829,"Longitude":-123.115052,"WheelchairAccess":1,"Distance":1251,"Routes":""},{"StopNo":51138,"Name":"EB KINGSWAY FS FRASER ST","BayNo":"N","City":"VANCOUVER","OnStreet":"KINGSWAY","AtStreet":"FRASER ST","Latitude":49.256214,"Longitude":-123.089020,"WheelchairAccess":1,"Distance":1252,"Routes":"019, N19"},{"StopNo":51364,"Name":"WB PRIOR ST FS JACKSON AVE","BayNo":"N","City":"VANCOUVER","OnStreet":"PRIOR ST","AtStreet":"JACKSON AVE","Latitude":49.276726,"Longitude":-123.094154,"WheelchairAccess":1,"Distance":1266,"Routes":"022"},{"StopNo":50843,"Name":"NB FRASER ST FS E 17 AVE","BayNo":"N","City":"VANCOUVER","OnStreet":"FRASER ST","AtStreet":"E 17 AVE","Latitude":49.255775,"Longitude":-123.089737,"WheelchairAccess":1,"Distance":1267,"Routes":"008, N8"},{"StopNo":58307,"Name":"SB MAIN ST FS E 18 AVE","BayNo":"N","City":"VANCOUVER","OnStreet":"MAIN ST","AtStreet":"E 18 AVE","Latitude":49.254337,"Longitude":-123.100960,"WheelchairAccess":1,"Distance":1275,"Routes":"003"},{"StopNo":61040,"Name":"OLYMPIC VILLAGE STN BAY 1","BayNo":"1","City":"VANCOUVER","OnStreet":"OLYMPIC VILLAGE STN","AtStreet":"BAY 1","Latitude":49.266247,"Longitude":-123.115944,"WheelchairAccess":1,"Distance":1277,"Routes":"015, 050, 084"},{"StopNo":60307,"Name":"BROADWAY-CITY HALL STN BAY 3 ","BayNo":"3","City":"VANCOUVER","OnStreet":"BROADWAY-CITY HALL STN","AtStreet":"BAY 3","Latitude":49.261997,"Longitude":-123.115112,"WheelchairAccess":1,"Distance":1282,"Routes":"015, 017, N15"},{"StopNo":61254,"Name":"OLYMPIC VILLAGE STN BAY 3","BayNo":"3","City":"VANCOUVER","OnStreet":"OLYMPIC VILLAGE STN","AtStreet":"BAY 3","Latitude":49.265938,"Longitude":-123.116051,"WheelchairAccess":1,"Distance":1283,"Routes":"015, 050"},{"StopNo":58501,"Name":"BROADWAY-CITY HALL STN BAY 4","BayNo":"4","City":"VANCOUVER","OnStreet":"BROADWAY-CITY HALL STN","AtStreet":"BAY 4","Latitude":49.263336,"Longitude":-123.115715,"WheelchairAccess":1,"Distance":1285,"Routes":"099, N9"},{"StopNo":51274,"Name":"SB GORE AVE FS UNION ST","BayNo":"N","City":"VANCOUVER","OnStreet":"GORE AVE","AtStreet":"UNION ST","Latitude":49.277359,"Longitude":-123.097023,"WheelchairAccess":0,"Distance":1303,"Routes":"022"},{"StopNo":50481,"Name":"NB CAMBIE ST FS W 12 AVE","BayNo":"N","City":"VANCOUVER","OnStreet":"CAMBIE ST","AtStreet":"W 12 AVE","Latitude":49.260757,"Longitude":-123.114830,"WheelchairAccess":1,"Distance":1314,"Routes":"015, 017, N15"},{"StopNo":51279,"Name":"EB PRIOR ST FS PRINCESS AVE","BayNo":"N","City":"VANCOUVER","OnStreet":"PRIOR ST","AtStreet":"PRINCESS AVE","Latitude":49.276550,"Longitude":-123.091209,"WheelchairAccess":0,"Distance":1316,"Routes":"022"},{"StopNo":50884,"Name":"EB E BROADWAY FS GLEN DR","BayNo":"N","City":"VANCOUVER","OnStreet":"E BROADWAY","AtStreet":"GLEN DR","Latitude":49.262321,"Longitude":-123.080872,"WheelchairAccess":1,"Distance":1324,"Routes":"009, N9"},{"StopNo":50917,"Name":"WB E BROADWAY NS GLEN DR","BayNo":"N","City":"VANCOUVER","OnStreet":"E BROADWAY","AtStreet":"GLEN DR","Latitude":49.262497,"Longitude":-123.080765,"WheelchairAccess":1,"Distance":1326,"Routes":"009, N9"},{"StopNo":58269,"Name":"WB W BROADWAY NS ASH ST","BayNo":"N","City":"VANCOUVER","OnStreet":"W BROADWAY","AtStreet":"ASH ST","Latitude":49.263348,"Longitude":-123.116425,"WheelchairAccess":1,"Distance":1335,"Routes":"009"},{"StopNo":59767,"Name":"VCC\/CLARK STN UNLOADING ONLY","BayNo":"1","City":"VANCOUVER","OnStreet":"VCC-CLARK STATION","AtStreet":"UNLOADING ONLY","Latitude":49.265976,"Longitude":-123.079842,"WheelchairAccess":1,"Distance":1345,"Routes":"084"},{"StopNo":51363,"Name":"WB PRIOR ST FS HEATLEY AVE","BayNo":"N","City":"VANCOUVER","OnStreet":"PRIOR ST","AtStreet":"HEATLEY AVE","Latitude":49.276649,"Longitude":-123.090210,"WheelchairAccess":1,"Distance":1356,"Routes":"022"},{"StopNo":50414,"Name":"SB CAMBIE ST FS W 12 AVE","BayNo":"N","City":"VANCOUVER","OnStreet":"CAMBIE ST","AtStreet":"W 12 AVE","Latitude":49.260113,"Longitude":-123.115143,"WheelchairAccess":1,"Distance":1365,"Routes":"015, N15"},{"StopNo":59803,"Name":"VCC\/CLARK STN BAY 1","BayNo":"1","City":"VANCOUVER","OnStreet":"VCC-CLARK STATION","AtStreet":"BAY 1","Latitude":49.265484,"Longitude":-123.079460,"WheelchairAccess":1,"Distance":1372,"Routes":"084"},{"StopNo":61924,"Name":"SB MAIN ST FS E GEORGIA ST","BayNo":"N","City":"VANCOUVER","OnStreet":"MAIN ST","AtStreet":"E GEORGIA ST","Latitude":49.277980,"Longitude":-123.099990,"WheelchairAccess":1,"Distance":1373,"Routes":""},{"StopNo":60418,"Name":"WB W 12 AVE FS CAMBIE ST","BayNo":"N","City":"VANCOUVER","OnStreet":"W 12TH AVE","AtStreet":"CAMBIE ST","Latitude":49.260483,"Longitude":-123.115593,"WheelchairAccess":1,"Distance":1377,"Routes":"017"},{"StopNo":59836,"Name":"NB MAIN ST FS E 20 AVE","BayNo":"N","City":"VANCOUVER","OnStreet":"MAIN ST","AtStreet":"E 20 AVE","Latitude":49.253227,"Longitude":-123.100761,"WheelchairAccess":1,"Distance":1395,"Routes":"003"},{"StopNo":60824,"Name":"VCC-CLARK STATION PLATFORM 1","BayNo":"N","City":"VANCOUVER","OnStreet":"VCC-CLARK STATION","AtStreet":"PLATFORM 1","Latitude":49.265873,"Longitude":-123.079048,"WheelchairAccess":0,"Distance":1402,"Routes":"991"},{"StopNo":60825,"Name":"VCC-CLARK STATION PLATFORM 2","BayNo":"N","City":"VANCOUVER","OnStreet":"VCC-CLARK STATION","AtStreet":"PLATFORM 2","Latitude":49.265800,"Longitude":-123.079056,"WheelchairAccess":0,"Distance":1402,"Routes":"991"},{"StopNo":50480,"Name":"NB CAMBIE ST FS W 14 AVE","BayNo":"N","City":"VANCOUVER","OnStreet":"CAMBIE ST","AtStreet":"W 14 AVE","Latitude":49.258987,"Longitude":-123.114891,"WheelchairAccess":1,"Distance":1411,"Routes":"015, N15"},{"StopNo":59755,"Name":"WB W 6 AVE FS ASH ST","BayNo":"N","City":"VANCOUVER","OnStreet":"W 6 AVE","AtStreet":"ASH ST","Latitude":49.266014,"Longitude":-123.117966,"WheelchairAccess":1,"Distance":1422,"Routes":"050, 084"},{"StopNo":51280,"Name":"EB PRIOR ST NS HAWKS AVE","BayNo":"N","City":"VANCOUVER","OnStreet":"PRIOR ST","AtStreet":"HAWKS AVE","Latitude":49.276482,"Longitude":-123.087662,"WheelchairAccess":1,"Distance":1431,"Routes":"022"},{"StopNo":51362,"Name":"WB PRIOR ST FS HAWKS AVE","BayNo":"N","City":"VANCOUVER","OnStreet":"PRIOR ST","AtStreet":"HAWKS AVE","Latitude":49.276611,"Longitude":-123.087837,"WheelchairAccess":1,"Distance":1436,"Routes":"022"},{"StopNo":50842,"Name":"NB FRASER ST FS E 19 AVE","BayNo":"N","City":"VANCOUVER","OnStreet":"FRASER ST","AtStreet":"E 19 AVE","Latitude":49.254000,"Longitude":-123.089820,"WheelchairAccess":0,"Distance":1439,"Routes":""},{"StopNo":59292,"Name":"SB FRASER ST NS E 19 AVE","BayNo":"N","City":"VANCOUVER","OnStreet":"FRASER ST","AtStreet":"E 19 AVE","Latitude":49.253864,"Longitude":-123.090092,"WheelchairAccess":1,"Distance":1444,"Routes":""},{"StopNo":50924,"Name":"WB W BROADWAY FS ASH ST","BayNo":"N","City":"VANCOUVER","OnStreet":"W BROADWAY","AtStreet":"ASH ST","Latitude":49.263359,"Longitude":-123.118095,"WheelchairAccess":1,"Distance":1454,"Routes":"009, N9"},{"StopNo":61149,"Name":"SB CAMBIE ST FS W 14 AVE","BayNo":"N","City":"VANCOUVER","OnStreet":"CAMBIE ST","AtStreet":"W 14 AVE","Latitude":49.258461,"Longitude":-123.115196,"WheelchairAccess":1,"Distance":1461,"Routes":"015, N15"},{"StopNo":59919,"Name":"NB PAT QUINN WAY FS PACIFIC BLVD","BayNo":"N","City":"VANCOUVER","OnStreet":"PAT QUINN WAY","AtStreet":"PACIFIC BLVD","Latitude":49.277431,"Longitude":-123.107544,"WheelchairAccess":1,"Distance":1467,"Routes":"023"},{"StopNo":51366,"Name":"NB GORE AVE FS E GEORGIA ST","BayNo":"N","City":"VANCOUVER","OnStreet":"GORE AVE","AtStreet":"E GEORGIA ST","Latitude":49.278839,"Longitude":-123.097008,"WheelchairAccess":0,"Distance":1467,"Routes":"022"},{"StopNo":50184,"Name":"NB MAIN ST FS E GEORGIA ST","BayNo":"N","City":"VANCOUVER","OnStreet":"MAIN ST","AtStreet":"E GEORGIA ST","Latitude":49.278969,"Longitude":-123.099609,"WheelchairAccess":1,"Distance":1481,"Routes":"003, 008, 019, 022, N19, N8"},{"StopNo":50916,"Name":"WB E BROADWAY FS CLARK DR","BayNo":"N","City":"VANCOUVER","OnStreet":"E BROADWAY","AtStreet":"CLARK DR","Latitude":49.262501,"Longitude":-123.078552,"WheelchairAccess":1,"Distance":1481,"Routes":"009, 099, N9"},{"StopNo":50779,"Name":"SB FRASER ST FS E 19 AVE","BayNo":"N","City":"VANCOUVER","OnStreet":"FRASER ST","AtStreet":"E 19 AVE","Latitude":49.253479,"Longitude":-123.090126,"WheelchairAccess":1,"Distance":1482,"Routes":"008, N8"},{"StopNo":50230,"Name":"SB MAIN ST FS KEEFER ST ","BayNo":"N","City":"VANCOUVER","OnStreet":"MAIN ST","AtStreet":"KEEFER ST","Latitude":49.279034,"Longitude":-123.099915,"WheelchairAccess":1,"Distance":1489,"Routes":"003, 008, 019, 022, N19, N8"},{"StopNo":50244,"Name":"SB MAIN ST FS E 20 AVE","BayNo":"N","City":"VANCOUVER","OnStreet":"MAIN ST","AtStreet":"E 20 AVE","Latitude":49.252396,"Longitude":-123.101097,"WheelchairAccess":1,"Distance":1490,"Routes":"003"},{"StopNo":51273,"Name":"SB GORE AVE FS KEEFER ST","BayNo":"N","City":"VANCOUVER","OnStreet":"GORE AVE","AtStreet":"KEEFER ST","Latitude":49.279106,"Longitude":-123.097252,"WheelchairAccess":1,"Distance":1495,"Routes":"022"},{"StopNo":59918,"Name":"EB PACIFIC BLVD FS MARINASIDE CRES","BayNo":"N","City":"VANCOUVER","OnStreet":"PACIFIC BLVD","AtStreet":"MARINASIDE CRES","Latitude":49.274212,"Longitude":-123.114449,"WheelchairAccess":1,"Distance":1504,"Routes":"023"},{"StopNo":59924,"Name":"SB QUEBEC ST FS KEEFER ST","BayNo":"N","City":"VANCOUVER","OnStreet":"QUEBEC ST","AtStreet":"KEEFER ST","Latitude":49.279007,"Longitude":-123.102219,"WheelchairAccess":0,"Distance":1508,"Routes":"023"},{"StopNo":51289,"Name":"SB CLARK DR FS E 6 AVE","BayNo":"N","City":"VANCOUVER","OnStreet":"CLARK DR","AtStreet":"E 6 AVE","Latitude":49.264805,"Longitude":-123.077629,"WheelchairAccess":1,"Distance":1508,"Routes":"022"},{"StopNo":60223,"Name":"NB FRASER ST FS E 20 AVE","BayNo":"","City":"VANCOUVER","OnStreet":"FRASER ST","AtStreet":"E 20 AVE","Latitude":49.253269,"Longitude":-123.089867,"WheelchairAccess":1,"Distance":1511,"Routes":"008, N8"},{"StopNo":51288,"Name":"SB CLARK DR FS E 3 AVE","BayNo":"N","City":"VANCOUVER","OnStreet":"CLARK DR","AtStreet":"E 3 AVE","Latitude":49.267559,"Longitude":-123.077530,"WheelchairAccess":1,"Distance":1527,"Routes":"022"},{"StopNo":60496,"Name":"NB CLARK DR FS E 6 AVE","BayNo":"","City":"VANCOUVER","OnStreet":"CLARK DR","AtStreet":"E 6TH AVE","Latitude":49.265491,"Longitude":-123.077301,"WheelchairAccess":1,"Distance":1529,"Routes":"022"},{"StopNo":50479,"Name":"NB CAMBIE ST FS W 16 AVE","BayNo":"N","City":"VANCOUVER","OnStreet":"CAMBIE ST","AtStreet":"W 16 AVE","Latitude":49.257156,"Longitude":-123.114906,"WheelchairAccess":1,"Distance":1529,"Routes":"015, N15"},{"StopNo":51351,"Name":"NB CLARK DR NS E 6 AVE","BayNo":"N","City":"VANCOUVER","OnStreet":"CLARK DR","AtStreet":"E 6 AVE","Latitude":49.264845,"Longitude":-123.077316,"WheelchairAccess":1,"Distance":1531,"Routes":""},{"StopNo":50874,"Name":"EB W BROADWAY FS HEATHER ST","BayNo":"N","City":"VANCOUVER","OnStreet":"W BROADWAY","AtStreet":"HEATHER ST","Latitude":49.263206,"Longitude":-123.119255,"WheelchairAccess":1,"Distance":1540,"Routes":"009, N9"},{"StopNo":51133,"Name":"WB KEEFER ST FS COLUMBIA ST","BayNo":"N","City":"VANCOUVER","OnStreet":"KEEFER ST","AtStreet":"COLUMBIA ST","Latitude":49.279266,"Longitude":-123.102943,"WheelchairAccess":0,"Distance":1547,"Routes":"023"},{"StopNo":51290,"Name":"SB CLARK DR FS E BROADWAY","BayNo":"N","City":"VANCOUVER","OnStreet":"CLARK DR","AtStreet":"E BROADWAY","Latitude":49.262016,"Longitude":-123.077728,"WheelchairAccess":1,"Distance":1552,"Routes":"022"},{"StopNo":51287,"Name":"SB CLARK DR FS E 1 AVE","BayNo":"N","City":"VANCOUVER","OnStreet":"CLARK DR","AtStreet":"E 1 AVE","Latitude":49.268967,"Longitude":-123.077553,"WheelchairAccess":1,"Distance":1554,"Routes":"022"},{"StopNo":51352,"Name":"NB CLARK DR FS E 3 AVE","BayNo":"N","City":"VANCOUVER","OnStreet":"CLARK DR","AtStreet":"E 3 AVE","Latitude":49.268147,"Longitude":-123.077255,"WheelchairAccess":1,"Distance":1557,"Routes":"022"},{"StopNo":51350,"Name":"NB CLARK DR FS E BROADWAY","BayNo":"N","City":"VANCOUVER","OnStreet":"CLARK DR","AtStreet":"E BROADWAY","Latitude":49.262753,"Longitude":-123.077370,"WheelchairAccess":1,"Distance":1558,"Routes":"022"},{"StopNo":59992,"Name":"NB PAT QUINN WAY NS EXPO BLVD","BayNo":"N","City":"VANCOUVER","OnStreet":"PAT QUINN WAY","AtStreet":"EXPO BLVD","Latitude":49.278393,"Longitude":-123.107521,"WheelchairAccess":1,"Distance":1562,"Routes":"023"},{"StopNo":51281,"Name":"EB PRIOR ST FS CAMPBELL AVE","BayNo":"N","City":"VANCOUVER","OnStreet":"PRIOR ST","AtStreet":"CAMPBELL AVE","Latitude":49.276443,"Longitude":-123.084503,"WheelchairAccess":1,"Distance":1564,"Routes":"022"},{"StopNo":52057,"Name":"HEATHER SQUARE BAY 1","BayNo":"1","City":"VANCOUVER","OnStreet":"HEATHER SQUARE","AtStreet":"BAY 1","Latitude":49.266190,"Longitude":-123.120110,"WheelchairAccess":1,"Distance":1578,"Routes":"050"},{"StopNo":58054,"Name":"HEATHER SQUARE BAY 2","BayNo":"2","City":"VANCOUVER","OnStreet":"HEATHER SQUARE","AtStreet":"BAY 2","Latitude":49.266296,"Longitude":-123.120132,"WheelchairAccess":1,"Distance":1580,"Routes":"050"},{"StopNo":59754,"Name":"EB W 6 AVE NS HEATHER ST","BayNo":"N","City":"VANCOUVER","OnStreet":"W 6 AVE","AtStreet":"HEATHER ST","Latitude":49.265831,"Longitude":-123.120148,"WheelchairAccess":1,"Distance":1580,"Routes":"084"},{"StopNo":61121,"Name":"WB W 16 AVE FS CAMBIE ST","BayNo":"N","City":"VANCOUVER","OnStreet":"W 16 AVE","AtStreet":"CAMBIE ST","Latitude":49.257004,"Longitude":-123.115677,"WheelchairAccess":1,"Distance":1583,"Routes":"033"},{"StopNo":51139,"Name":"EB KINGSWAY FS SAINT CATHERINES ST","BayNo":"N","City":"VANCOUVER","OnStreet":"KINGSWAY","AtStreet":"SAINT CATHERINES ST","Latitude":49.254368,"Longitude":-123.085052,"WheelchairAccess":1,"Distance":1586,"Routes":"019, N19"},{"StopNo":50415,"Name":"SB CAMBIE ST FS W 16 AVE","BayNo":"N","City":"VANCOUVER","OnStreet":"CAMBIE ST","AtStreet":"W 16 AVE","Latitude":49.256554,"Longitude":-123.115250,"WheelchairAccess":1,"Distance":1590,"Routes":"015, 033, N15"},{"StopNo":59837,"Name":"NB MAIN ST FS E 22 AVE","BayNo":"N","City":"VANCOUVER","OnStreet":"MAIN ST","AtStreet":"E 22 AVE","Latitude":49.251453,"Longitude":-123.100868,"WheelchairAccess":1,"Distance":1592,"Routes":"003"},{"StopNo":58051,"Name":"EB KEEFER PL FS TAYLOR ST--","BayNo":"N","City":"VANCOUVER","OnStreet":"KEEFER PL","AtStreet":"TAYLOR ST","Latitude":49.279293,"Longitude":-123.105515,"WheelchairAccess":1,"Distance":1600,"Routes":"050"},{"StopNo":52099,"Name":"EB W BROADWAY NS HEATHER ST","BayNo":"N","City":"VANCOUVER","OnStreet":"W BROADWAY","AtStreet":"HEATHER ST","Latitude":49.263210,"Longitude":-123.120171,"WheelchairAccess":1,"Distance":1605,"Routes":"099"},{"StopNo":50925,"Name":"WB W BROADWAY FS HEATHER ST","BayNo":"N","City":"VANCOUVER","OnStreet":"W BROADWAY","AtStreet":"HEATHER ST","Latitude":49.263401,"Longitude":-123.120224,"WheelchairAccess":1,"Distance":1606,"Routes":"009, N9"},{"StopNo":51356,"Name":"NB CLARK DR FS E 1 AVE","BayNo":"N","City":"VANCOUVER","OnStreet":"CLARK DR","AtStreet":"E 1 AVE","Latitude":49.269993,"Longitude":-123.077217,"WheelchairAccess":1,"Distance":1608,"Routes":"022"},{"StopNo":58169,"Name":"EB KEEFER PL FS TAYLOR ST-","BayNo":"N","City":"VANCOUVER","OnStreet":"KEEFER PL","AtStreet":"TAYLOR ST","Latitude":49.279327,"Longitude":-123.105759,"WheelchairAccess":1,"Distance":1610,"Routes":"023"},{"StopNo":50885,"Name":"EB E BROADWAY FS CLARK DR-","BayNo":"N","City":"VANCOUVER","OnStreet":"E BROADWAY","AtStreet":"CLARK DR","Latitude":49.262268,"Longitude":-123.076797,"WheelchairAccess":1,"Distance":1611,"Routes":"009, N9"},{"StopNo":59991,"Name":"WB EXPO BLVD FS ABBOTT ST","BayNo":"N","City":"VANCOUVER","OnStreet":"EXPO BLVD","AtStreet":"ABBOTT ST","Latitude":49.278790,"Longitude":-123.108017,"WheelchairAccess":1,"Distance":1617,"Routes":"023"},{"StopNo":50484,"Name":"NB SMITHE ST NS EXPO BLVD","BayNo":"N","City":"VANCOUVER","OnStreet":"SMITHE ST","AtStreet":"EXPO BLVD","Latitude":49.275660,"Longitude":-123.114570,"WheelchairAccess":1,"Distance":1617,"Routes":""},{"StopNo":51272,"Name":"EB E PENDER ST FS MAIN ST","BayNo":"N","City":"VANCOUVER","OnStreet":"E PENDER ST","AtStreet":"MAIN ST","Latitude":49.280323,"Longitude":-123.099243,"WheelchairAccess":1,"Distance":1630,"Routes":"022"},{"StopNo":50520,"Name":"EB E PENDER ST NS MAIN ST","BayNo":"N","City":"VANCOUVER","OnStreet":"E PENDER ST","AtStreet":"MAIN ST","Latitude":49.280331,"Longitude":-123.100044,"WheelchairAccess":1,"Distance":1634,"Routes":"019, N19"},{"StopNo":51286,"Name":"SB CLARK DR FS GRANT ST","BayNo":"N","City":"VANCOUVER","OnStreet":"CLARK DR","AtStreet":"GRANT ST","Latitude":49.271210,"Longitude":-123.077469,"WheelchairAccess":1,"Distance":1637,"Routes":"022"},{"StopNo":51349,"Name":"NB CLARK DR NS E 11 AVE","BayNo":"N","City":"VANCOUVER","OnStreet":"CLARK DR","AtStreet":"E 11 AVE","Latitude":49.260269,"Longitude":-123.077347,"WheelchairAccess":1,"Distance":1640,"Routes":"022"},{"StopNo":51367,"Name":"WB E PENDER ST FS GORE AVE","BayNo":"N","City":"VANCOUVER","OnStreet":"E PENDER ST","AtStreet":"GORE AVE","Latitude":49.280426,"Longitude":-123.097710,"WheelchairAccess":1,"Distance":1641,"Routes":"022"},{"StopNo":60014,"Name":"WB EXPO BLVD FS NELSON ST","BayNo":"N","City":"VANCOUVER","OnStreet":"EXPO BLVD","AtStreet":"NELSON ST","Latitude":49.274765,"Longitude":-123.116234,"WheelchairAccess":1,"Distance":1643,"Routes":"023"},{"StopNo":51195,"Name":"WB KINGSWAY FS WINDSOR ST","BayNo":"N","City":"VANCOUVER","OnStreet":"KINGSWAY","AtStreet":"WINDSOR ST","Latitude":49.254147,"Longitude":-123.084076,"WheelchairAccess":1,"Distance":1649,"Routes":"019, N19"},{"StopNo":61518,"Name":"WB E PENDER ST FS MAIN ST--","BayNo":"N","City":"VANCOUVER","OnStreet":"E PENDER ST","AtStreet":"MAIN ST","Latitude":49.280460,"Longitude":-123.100266,"WheelchairAccess":1,"Distance":1650,"Routes":"007, 019, 022, 209, N19"},{"StopNo":59244,"Name":"SB GORE AVE NS E PENDER ST","BayNo":"N","City":"VANCOUVER","OnStreet":"GORE AVE","AtStreet":"E PENDER ST","Latitude":49.280520,"Longitude":-123.097480,"WheelchairAccess":1,"Distance":1652,"Routes":""},{"StopNo":50689,"Name":"WB E PENDER ST FS MAIN ST-","BayNo":"N","City":"VANCOUVER","OnStreet":"E PENDER ST","AtStreet":"MAIN ST","Latitude":49.280464,"Longitude":-123.100685,"WheelchairAccess":1,"Distance":1653,"Routes":"004, 007, 019, 022, 209, 210, 211, 214"},{"StopNo":59923,"Name":"WB KEEFER PL FS TAYLOR ST ","BayNo":"N","City":"VANCOUVER","OnStreet":"KEEFER PL","AtStreet":"TAYLOR ST","Latitude":49.279579,"Longitude":-123.106438,"WheelchairAccess":1,"Distance":1653,"Routes":"023"},{"StopNo":58499,"Name":"EB E BROADWAY FS CLARK DR--","BayNo":"N","City":"VANCOUVER","OnStreet":"E BROADWAY","AtStreet":"CLARK DR","Latitude":49.262264,"Longitude":-123.076195,"WheelchairAccess":1,"Distance":1653,"Routes":"099"},{"StopNo":51291,"Name":"SB CLARK DR FS E 12 AVE","BayNo":"N","City":"VANCOUVER","OnStreet":"CLARK DR","AtStreet":"E 12 AVE","Latitude":49.259354,"Longitude":-123.077690,"WheelchairAccess":1,"Distance":1657,"Routes":"022"},{"StopNo":50915,"Name":"WB E BROADWAY FS MCLEAN DR","BayNo":"N","City":"VANCOUVER","OnStreet":"E BROADWAY","AtStreet":"MCLEAN DR","Latitude":49.262486,"Longitude":-123.076073,"WheelchairAccess":0,"Distance":1657,"Routes":"009, N9"},{"StopNo":51361,"Name":"WB VENABLES ST FS RAYMUR AVE","BayNo":"N","City":"VANCOUVER","OnStreet":"VENABLES ST","AtStreet":"RAYMUR AVE","Latitude":49.276875,"Longitude":-123.083153,"WheelchairAccess":1,"Distance":1664,"Routes":"022"},{"StopNo":59287,"Name":"NB GORE AVE FS E PENDER ST","BayNo":"N","City":"VANCOUVER","OnStreet":"GORE AVE","AtStreet":"E PENDER ST","Latitude":49.280640,"Longitude":-123.097280,"WheelchairAccess":1,"Distance":1666,"Routes":""},{"StopNo":61810,"Name":"NB SMITHE ST FS EXPO BLVD","BayNo":"N","City":"VANCOUVER","OnStreet":"SMITHE ST","AtStreet":"EXPO BLVD","Latitude":49.276112,"Longitude":-123.114937,"WheelchairAccess":1,"Distance":1671,"Routes":"017, N15"},{"StopNo":50780,"Name":"SB FRASER ST FS E 21 AVE","BayNo":"N","City":"VANCOUVER","OnStreet":"FRASER ST","AtStreet":"E 21 AVE","Latitude":49.251621,"Longitude":-123.090187,"WheelchairAccess":1,"Distance":1672,"Routes":"008, N8"},{"StopNo":51357,"Name":"NB CLARK DR FS GRANT ST","BayNo":"N","City":"VANCOUVER","OnStreet":"CLARK DR","AtStreet":"GRANT ST","Latitude":49.271748,"Longitude":-123.077194,"WheelchairAccess":1,"Distance":1678,"Routes":"022"},{"StopNo":50245,"Name":"SB MAIN ST FS E 22 AVE","BayNo":"N","City":"VANCOUVER","OnStreet":"MAIN ST","AtStreet":"E 22 AVE","Latitude":49.250675,"Longitude":-123.101089,"WheelchairAccess":1,"Distance":1680,"Routes":"003"},{"StopNo":50021,"Name":"EB E PENDER ST FS CARRALL ST","BayNo":"N","City":"VANCOUVER","OnStreet":"E PENDER ST","AtStreet":"CARRALL ST","Latitude":49.280396,"Longitude":-123.103798,"WheelchairAccess":1,"Distance":1683,"Routes":"019, 022, N19"},{"StopNo":50478,"Name":"NB CAMBIE ST FS W 18 AVE","BayNo":"N","City":"VANCOUVER","OnStreet":"CAMBIE ST","AtStreet":"W 18 AVE","Latitude":49.255123,"Longitude":-123.115021,"WheelchairAccess":1,"Distance":1684,"Routes":"015, 033, N15"},{"StopNo":50229,"Name":"SB MAIN ST FS E HASTINGS ST","BayNo":"N","City":"VANCOUVER","OnStreet":"MAIN ST","AtStreet":"E HASTINGS ST","Latitude":49.280811,"Longitude":-123.099815,"WheelchairAccess":1,"Distance":1686,"Routes":"003, 004, 007, 008, N8"},{"StopNo":59916,"Name":"EB PACIFIC BLVD NS BOATHOUSE MEWS","BayNo":"N","City":"VANCOUVER","OnStreet":"PACIFIC BLVD","AtStreet":"BOATHOUSE MEWS","Latitude":49.274212,"Longitude":-123.117630,"WheelchairAccess":1,"Distance":1689,"Routes":"023"},{"StopNo":57967,"Name":"STADIUM-CHINATOWN STATION PLATFORM 2","BayNo":"N","City":"VANCOUVER","OnStreet":"STADIUM-CHINATOWN STATION","AtStreet":"PLATFORM 2","Latitude":49.279179,"Longitude":-123.109215,"WheelchairAccess":0,"Distance":1695,"Routes":"992"},{"StopNo":60416,"Name":"EB W 12 AVE NS HEATHER ST","BayNo":"N","City":"VANCOUVER","OnStreet":"W 12TH AVE","AtStreet":"HEATHER ST","Latitude":49.260395,"Longitude":-123.120308,"WheelchairAccess":1,"Distance":1697,"Routes":"017"},{"StopNo":60417,"Name":"WB W 12 AVE FS HEATHER ST","BayNo":"N","City":"VANCOUVER","OnStreet":"W 12TH AVE","AtStreet":"HEATHER ST","Latitude":49.260555,"Longitude":-123.120407,"WheelchairAccess":1,"Distance":1697,"Routes":"017"},{"StopNo":58000,"Name":"STADIUM-CHINATOWN STATION PLATFORM 1","BayNo":"N","City":"VANCOUVER","OnStreet":"STADIUM-CHINATOWN STATION","AtStreet":"PLATFORM 1","Latitude":49.279270,"Longitude":-123.109108,"WheelchairAccess":0,"Distance":1700,"Routes":"992"},{"StopNo":50022,"Name":"NB COLUMBIA ST FS E PENDER ST","BayNo":"N","City":"VANCOUVER","OnStreet":"COLUMBIA ST","AtStreet":"E PENDER ST","Latitude":49.280773,"Longitude":-123.102196,"WheelchairAccess":1,"Distance":1701,"Routes":"050"},{"StopNo":60227,"Name":"WB VENABLES ST NS RAYMUR AVE","BayNo":"","City":"VANCOUVER","OnStreet":"VENABLES ST","AtStreet":"RAYMUR AVE","Latitude":49.276883,"Longitude":-123.082278,"WheelchairAccess":1,"Distance":1708,"Routes":""},{"StopNo":50841,"Name":"NB FRASER ST FS E 22 AVE","BayNo":"N","City":"VANCOUVER","OnStreet":"FRASER ST","AtStreet":"E 22 AVE","Latitude":49.251282,"Longitude":-123.089928,"WheelchairAccess":1,"Distance":1714,"Routes":"008, N8"},{"StopNo":52713,"Name":"EB E HASTINGS ST FS MAIN ST--","BayNo":"N","City":"VANCOUVER","OnStreet":"E HASTINGS ST","AtStreet":"MAIN ST","Latitude":49.281219,"Longitude":-123.098305,"WheelchairAccess":1,"Distance":1728,"Routes":"R5"},{"StopNo":50934,"Name":"EB E HASTINGS ST FS MAIN ST-","BayNo":"N","City":"VANCOUVER","OnStreet":"E HASTINGS ST","AtStreet":"MAIN ST","Latitude":49.281223,"Longitude":-123.099037,"WheelchairAccess":1,"Distance":1729,"Routes":"014, 016, 020, N20, N35"},{"StopNo":50935,"Name":"EB E HASTINGS ST FS GORE AVE","BayNo":"N","City":"VANCOUVER","OnStreet":"E HASTINGS ST","AtStreet":"GORE AVE","Latitude":49.281208,"Longitude":-123.096764,"WheelchairAccess":1,"Distance":1731,"Routes":"014, 016, 020, N20, N35"},{"StopNo":50416,"Name":"SB CAMBIE ST FS W 18 AVE","BayNo":"N","City":"VANCOUVER","OnStreet":"CAMBIE ST","AtStreet":"W 18 AVE","Latitude":49.254673,"Longitude":-123.115280,"WheelchairAccess":1,"Distance":1733,"Routes":"015, 033, N15"},{"StopNo":50091,"Name":"WB W PENDER ST FS CARRALL ST","BayNo":"N","City":"VANCOUVER","OnStreet":"W PENDER ST","AtStreet":"CARRALL ST","Latitude":49.280708,"Longitude":-123.104996,"WheelchairAccess":1,"Distance":1739,"Routes":"004, 007, 019, 022, 209, 210, 211, 214, N19"},{"StopNo":51292,"Name":"SB CLARK DR NS E 14 AVE","BayNo":"N","City":"VANCOUVER","OnStreet":"CLARK DR","AtStreet":"E 14 AVE","Latitude":49.257940,"Longitude":-123.077420,"WheelchairAccess":1,"Distance":1747,"Routes":""},{"StopNo":50507,"Name":"WB E HASTINGS ST FS DUNLEVY AVE","BayNo":"N","City":"VANCOUVER","OnStreet":"E HASTINGS ST","AtStreet":"DUNLEVY AVE","Latitude":49.281357,"Longitude":-123.095848,"WheelchairAccess":1,"Distance":1753,"Routes":"014, 016, 020, N20, N35"},{"StopNo":53391,"Name":"WB E HASTINGS ST NS MAIN ST","BayNo":"N","City":"VANCOUVER","OnStreet":"E HASTINGS ST","AtStreet":"MAIN ST","Latitude":49.281425,"Longitude":-123.099365,"WheelchairAccess":1,"Distance":1753,"Routes":"014, 016, 020, R5"},{"StopNo":50936,"Name":"EB E HASTINGS ST FS JACKSON AVE","BayNo":"N","City":"VANCOUVER","OnStreet":"E HASTINGS ST","AtStreet":"JACKSON AVE","Latitude":49.281113,"Longitude":-123.092957,"WheelchairAccess":1,"Distance":1761,"Routes":"014, 016, 020, N20, N35"},{"StopNo":51282,"Name":"EB VENABLES ST FS GLEN DR","BayNo":"N","City":"VANCOUVER","OnStreet":"VENABLES ST","AtStreet":"GLEN DR","Latitude":49.276726,"Longitude":-123.080956,"WheelchairAccess":1,"Distance":1762,"Routes":"022"},{"StopNo":50185,"Name":"WB E HASTINGS ST FS MAIN ST","BayNo":"N","City":"VANCOUVER","OnStreet":"E HASTINGS ST","AtStreet":"MAIN ST","Latitude":49.281456,"Longitude":-123.100777,"WheelchairAccess":1,"Distance":1763,"Routes":"003, 008, N20, N35, N8"},{"StopNo":51285,"Name":"SB CLARK DR FS WILLIAM ST","BayNo":"N","City":"VANCOUVER","OnStreet":"CLARK DR","AtStreet":"WILLIAM ST","Latitude":49.273781,"Longitude":-123.077423,"WheelchairAccess":1,"Distance":1767,"Routes":"022"},{"StopNo":50506,"Name":"WB E HASTINGS ST FS JACKSON AVE","BayNo":"N","City":"VANCOUVER","OnStreet":"E HASTINGS ST","AtStreet":"JACKSON AVE","Latitude":49.281322,"Longitude":-123.093903,"WheelchairAccess":1,"Distance":1770,"Routes":"014, 016, 020, N20, N35"},{"StopNo":50933,"Name":"EB E HASTINGS ST FS CARRALL ST","BayNo":"N","City":"VANCOUVER","OnStreet":"E HASTINGS ST","AtStreet":"CARRALL ST","Latitude":49.281322,"Longitude":-123.103441,"WheelchairAccess":1,"Distance":1778,"Routes":""},{"StopNo":50937,"Name":"EB E HASTINGS ST FS PRINCESS AVE","BayNo":"N","City":"VANCOUVER","OnStreet":"E HASTINGS ST","AtStreet":"PRINCESS AVE","Latitude":49.281082,"Longitude":-123.090973,"WheelchairAccess":1,"Distance":1795,"Routes":"014, 016, 020, N20, N35"},{"StopNo":50505,"Name":"WB E HASTINGS ST FS PRINCESS AVE","BayNo":"N","City":"VANCOUVER","OnStreet":"E HASTINGS ST","AtStreet":"PRINCESS AVE","Latitude":49.281281,"Longitude":-123.092018,"WheelchairAccess":1,"Distance":1795,"Routes":"014, 016, 020, N20, N35"},{"StopNo":50411,"Name":"EB NELSON ST FS CAMBIE ST","BayNo":"N","City":"VANCOUVER","OnStreet":"NELSON ST","AtStreet":"CAMBIE ST","Latitude":49.275791,"Longitude":-123.117737,"WheelchairAccess":1,"Distance":1800,"Routes":"017, N15"},{"StopNo":58529,"Name":"EB W PENDER ST FS ABBOTT ST","BayNo":"N","City":"VANCOUVER","OnStreet":"W PENDER ST","AtStreet":"ABBOTT ST","Latitude":49.280891,"Longitude":-123.106979,"WheelchairAccess":1,"Distance":1803,"Routes":"019, 022, N19"},{"StopNo":58235,"Name":"SB ABBOTT ST FS W PENDER ST","BayNo":"N","City":"VANCOUVER","OnStreet":"ABBOTT ST","AtStreet":"W PENDER ST","Latitude":49.280739,"Longitude":-123.107727,"WheelchairAccess":1,"Distance":1807,"Routes":"050"},{"StopNo":51358,"Name":"NB CLARK DR FS WILLIAM ST","BayNo":"N","City":"VANCOUVER","OnStreet":"CLARK DR","AtStreet":"WILLIAM ST","Latitude":49.274265,"Longitude":-123.077156,"WheelchairAccess":1,"Distance":1811,"Routes":"022"},{"StopNo":50485,"Name":"WB SMITHE ST NS CAMBIE ST","BayNo":"N","City":"VANCOUVER","OnStreet":"SMITHE ST","AtStreet":"CAMBIE ST","Latitude":49.277050,"Longitude":-123.116260,"WheelchairAccess":1,"Distance":1812,"Routes":""},{"StopNo":52905,"Name":"EB W HASTINGS ST NS CARRALL ST","BayNo":"N","City":"VANCOUVER","OnStreet":"W HASTINGS ST","AtStreet":"CARRALL ST","Latitude":49.281467,"Longitude":-123.104797,"WheelchairAccess":1,"Distance":1817,"Routes":"014, 016, 020, N20, N35"},{"StopNo":60356,"Name":"LARWILL PARK LAYOVER ONLY--","BayNo":"N","City":"VANCOUVER","OnStreet":"LARWILL PARK","AtStreet":"LAYOVER ONLY","Latitude":49.279812,"Longitude":-123.111267,"WheelchairAccess":-1,"Distance":1829,"Routes":"250, 253, 254"},{"StopNo":60103,"Name":"NB CAMBIE ST FS NELSON ST","BayNo":"N","City":"VANCOUVER","OnStreet":"CAMBIE ST","AtStreet":"NELSON ST","Latitude":49.276260,"Longitude":-123.117760,"WheelchairAccess":1,"Distance":1834,"Routes":"006"},{"StopNo":60104,"Name":"NB CAMBIE ST FS ROBSON ST","BayNo":"N","City":"VANCOUVER","OnStreet":"CAMBIE ST","AtStreet":"ROBSON ST","Latitude":49.278324,"Longitude":-123.114670,"WheelchairAccess":1,"Distance":1837,"Routes":"006"},{"StopNo":59914,"Name":"WB PACIFIC BLVD FS CAMBIE ST","BayNo":"N","City":"VANCOUVER","OnStreet":"PACIFIC BLVD","AtStreet":"CAMBIE ST","Latitude":49.274605,"Longitude":-123.119682,"WheelchairAccess":1,"Distance":1837,"Routes":"023"},{"StopNo":50425,"Name":"EB E CORDOVA ST FS MAIN ST","BayNo":"N","City":"VANCOUVER","OnStreet":"E CORDOVA ST","AtStreet":"MAIN ST","Latitude":49.282204,"Longitude":-123.098946,"WheelchairAccess":1,"Distance":1838,"Routes":"004, 007, 209, 210, 211, 214"},{"StopNo":51360,"Name":"WB VENABLES ST FS VERNON DR","BayNo":"N","City":"VANCOUVER","OnStreet":"VENABLES ST","AtStreet":"VERNON DR","Latitude":49.276867,"Longitude":-123.079735,"WheelchairAccess":0,"Distance":1838,"Routes":"022"},{"StopNo":50477,"Name":"NB CAMBIE ST FS W 20 AVE","BayNo":"N","City":"VANCOUVER","OnStreet":"CAMBIE ST","AtStreet":"W 20 AVE","Latitude":49.253242,"Longitude":-123.115105,"WheelchairAccess":1,"Distance":1840,"Routes":"015, 033, N15"},{"StopNo":60049,"Name":"SB CAMBIE ST NS NELSON ST","BayNo":"N","City":"VANCOUVER","OnStreet":"CAMBIE ST","AtStreet":"NELSON ST","Latitude":49.276601,"Longitude":-123.117499,"WheelchairAccess":1,"Distance":1844,"Routes":""},{"StopNo":61073,"Name":"SB CAMBIE ST FS ROBSON ST","BayNo":"N","City":"VANCOUVER","OnStreet":"CAMBIE ST","AtStreet":"ROBSON ST","Latitude":49.278000,"Longitude":-123.115402,"WheelchairAccess":1,"Distance":1845,"Routes":"006, 017, N15"},{"StopNo":50228,"Name":"EB E CORDOVA ST NS MAIN ST","BayNo":"N","City":"VANCOUVER","OnStreet":"E CORDOVA ST","AtStreet":"MAIN ST","Latitude":49.282234,"Longitude":-123.100006,"WheelchairAccess":1,"Distance":1845,"Routes":"003, 008, N8"},{"StopNo":50426,"Name":"EB E CORDOVA ST FS DUNLEVY AVE","BayNo":"N","City":"VANCOUVER","OnStreet":"E CORDOVA ST","AtStreet":"DUNLEVY AVE","Latitude":49.282135,"Longitude":-123.094849,"WheelchairAccess":1,"Distance":1848,"Routes":"004, 007, 209"},{"StopNo":60102,"Name":"SB CAMBIE ST FS NELSON ST","BayNo":"N","City":"VANCOUVER","OnStreet":"CAMBIE ST","AtStreet":"NELSON ST","Latitude":49.275955,"Longitude":-123.118439,"WheelchairAccess":1,"Distance":1851,"Routes":"006"},{"StopNo":50186,"Name":"WB W HASTINGS ST FS CARRALL ST","BayNo":"N","City":"VANCOUVER","OnStreet":"W HASTINGS ST","AtStreet":"CARRALL ST","Latitude":49.281734,"Longitude":-123.105370,"WheelchairAccess":1,"Distance":1856,"Routes":"003, 008, 014, 016, 020, N20, N35, N8"},{"StopNo":50169,"Name":"NB MAIN ST FS E KING EDWARD AVE","BayNo":"N","City":"VANCOUVER","OnStreet":"MAIN ST","AtStreet":"E KING EDWARD AVE","Latitude":49.249054,"Longitude":-123.100937,"WheelchairAccess":1,"Distance":1858,"Routes":"003"},{"StopNo":50781,"Name":"SB FRASER ST FS E 23 AVE","BayNo":"N","City":"VANCOUVER","OnStreet":"FRASER ST","AtStreet":"E 23 AVE","Latitude":49.249809,"Longitude":-123.090248,"WheelchairAccess":1,"Distance":1860,"Routes":"008, N8"},{"StopNo":60355,"Name":"LARWILL PARK LAYOVER ONLY-","BayNo":"N","City":"VANCOUVER","OnStreet":"LARWILL PARK","AtStreet":"LAYOVER ONLY","Latitude":49.279991,"Longitude":-123.111633,"WheelchairAccess":-1,"Distance":1860,"Routes":"240, 241, 246, 247"},{"StopNo":50082,"Name":"SB CAMBIE ST FS W GEORGIA ST","BayNo":"N","City":"VANCOUVER","OnStreet":"CAMBIE ST","AtStreet":"W GEORGIA ST","Latitude":49.279171,"Longitude":-123.113632,"WheelchairAccess":1,"Distance":1865,"Routes":"006, 017, N15"},{"StopNo":61122,"Name":"WB W 16 AVE FS HEATHER ST","BayNo":"N","City":"VANCOUVER","OnStreet":"W 16 AVE","AtStreet":"HEATHER ST","Latitude":49.257061,"Longitude":-123.120453,"WheelchairAccess":1,"Distance":1867,"Routes":"033"},{"StopNo":59550,"Name":"NB CAMBIE ST FS W GEORGIA ST","BayNo":"1","City":"VANCOUVER","OnStreet":"CAMBIE ST","AtStreet":"W GEORGIA ST","Latitude":49.279637,"Longitude":-123.112669,"WheelchairAccess":1,"Distance":1867,"Routes":""},{"StopNo":60301,"Name":"NB CAMBIE ST NS DUNSMUIR ST","BayNo":"N","City":"VANCOUVER","OnStreet":"CAMBIE ST","AtStreet":"DUNSMUIR ST","Latitude":49.279760,"Longitude":-123.112480,"WheelchairAccess":0,"Distance":1871,"Routes":""},{"StopNo":51284,"Name":"SB CLARK DR FS PARKER ST","BayNo":"N","City":"VANCOUVER","OnStreet":"CLARK DR","AtStreet":"PARKER ST","Latitude":49.275524,"Longitude":-123.077377,"WheelchairAccess":0,"Distance":1876,"Routes":"022"},{"StopNo":50016,"Name":"YALETOWN-ROUNDHOUSE STN BAY 4","BayNo":"4","City":"VANCOUVER","OnStreet":"YALETOWN-ROUNDHOUSE STN","AtStreet":"BAY 4","Latitude":49.274036,"Longitude":-123.120842,"WheelchairAccess":1,"Distance":1877,"Routes":"023"},{"StopNo":50093,"Name":"WB W PENDER ST FS ABBOTT ST","BayNo":"N","City":"VANCOUVER","OnStreet":"W PENDER ST","AtStreet":"ABBOTT ST","Latitude":49.281288,"Longitude":-123.108215,"WheelchairAccess":1,"Distance":1877,"Routes":"004, 007, 019, 022, 209, 210, 211, 214, N19"},{"StopNo":60289,"Name":"WB E KING EDWARD AVE NS MAIN ST","BayNo":"N","City":"VANCOUVER","OnStreet":"E KING EDWARD AVE","AtStreet":"MAIN ST","Latitude":49.248850,"Longitude":-123.100621,"WheelchairAccess":1,"Distance":1878,"Routes":""},{"StopNo":60342,"Name":"SB CAMBIE ST NS W GEORGIA ST","BayNo":"N","City":"VANCOUVER","OnStreet":"CAMBIE ST","AtStreet":"W GEORGIA ST","Latitude":49.279676,"Longitude":-123.112876,"WheelchairAccess":1,"Distance":1879,"Routes":""},{"StopNo":51570,"Name":"WB E KING EDWARD AVE FS PRINCE EDWARD ST","BayNo":"N","City":"VANCOUVER","OnStreet":"E KING EDWARD AVE","AtStreet":"PRINCE EDWARD ST","Latitude":49.248783,"Longitude":-123.097122,"WheelchairAccess":1,"Distance":1881,"Routes":"025"},{"StopNo":51571,"Name":"WB E KING EDWARD AVE FS MAIN ST","BayNo":"N","City":"VANCOUVER","OnStreet":"E KING EDWARD AVE","AtStreet":"MAIN ST","Latitude":49.248867,"Longitude":-123.101631,"WheelchairAccess":1,"Distance":1884,"Routes":"025"},{"StopNo":50427,"Name":"EB E CORDOVA ST NS PRINCESS AVE","BayNo":"N","City":"VANCOUVER","OnStreet":"E CORDOVA ST","AtStreet":"PRINCESS AVE","Latitude":49.282070,"Longitude":-123.091705,"WheelchairAccess":1,"Distance":1886,"Routes":"004, 007, 209"},{"StopNo":60302,"Name":"NB CAMBIE ST NS DUNSMUIR ST","BayNo":"2","City":"VANCOUVER","OnStreet":"CAMBIE ST","AtStreet":"DUNSMUIR ST","Latitude":49.280190,"Longitude":-123.111855,"WheelchairAccess":1,"Distance":1887,"Routes":"005, 006"},{"StopNo":59468,"Name":"EB W HASTINGS FS ABBOTT ST","BayNo":"N","City":"VANCOUVER","OnStreet":"W HASTINGS","AtStreet":"ABBOTT ST","Latitude":49.281788,"Longitude":-123.106728,"WheelchairAccess":1,"Distance":1891,"Routes":"014, 016, 020, N20, N35"},{"StopNo":50417,"Name":"SB CAMBIE ST FS W 20 AVE","BayNo":"N","City":"VANCOUVER","OnStreet":"CAMBIE ST","AtStreet":"W 20 AVE","Latitude":49.252766,"Longitude":-123.115379,"WheelchairAccess":1,"Distance":1893,"Routes":"015, 033, N15"},{"StopNo":50227,"Name":"EB E CORDOVA ST FS CARRALL ST","BayNo":"N","City":"VANCOUVER","OnStreet":"E CORDOVA ST","AtStreet":"CARRALL ST","Latitude":49.282323,"Longitude":-123.103816,"WheelchairAccess":1,"Distance":1893,"Routes":""},{"StopNo":50504,"Name":"WB E HASTINGS ST FS HAWKS AVE","BayNo":"N","City":"VANCOUVER","OnStreet":"E HASTINGS ST","AtStreet":"HAWKS AVE","Latitude":49.281200,"Longitude":-123.087669,"WheelchairAccess":1,"Distance":1893,"Routes":"014, 016, 020, N20, N35"},{"StopNo":61074,"Name":"SB MAIN ST FS POWELL ST ","BayNo":"N","City":"VANCOUVER","OnStreet":"MAIN ST","AtStreet":"POWELL ST","Latitude":49.282700,"Longitude":-123.099731,"WheelchairAccess":1,"Distance":1895,"Routes":"004, 007, 209, 210, 211, 214"},{"StopNo":51518,"Name":"EB E KING EDWARD AVE FS MAIN ST","BayNo":"N","City":"VANCOUVER","OnStreet":"E KING EDWARD AVE","AtStreet":"MAIN ST","Latitude":49.248695,"Longitude":-123.100555,"WheelchairAccess":0,"Distance":1895,"Routes":"025"},{"StopNo":51519,"Name":"EB E KING EDWARD AVE FS PRINCE EDWARD ST","BayNo":"N","City":"VANCOUVER","OnStreet":"E KING EDWARD AVE","AtStreet":"PRINCE EDWARD ST","Latitude":49.248638,"Longitude":-123.096184,"WheelchairAccess":1,"Distance":1901,"Routes":"025"},{"StopNo":51569,"Name":"WB E KING EDWARD AVE FS SAINT GEORGE ST","BayNo":"N","City":"VANCOUVER","OnStreet":"E KING EDWARD AVE","AtStreet":"SAINT GEORGE ST","Latitude":49.248753,"Longitude":-123.094414,"WheelchairAccess":1,"Distance":1904,"Routes":"025"},{"StopNo":51140,"Name":"EB KINGSWAY FS GLEN DR","BayNo":"N","City":"VANCOUVER","OnStreet":"KINGSWAY","AtStreet":"GLEN DR","Latitude":49.252628,"Longitude":-123.081352,"WheelchairAccess":1,"Distance":1905,"Routes":"019, N19"},{"StopNo":50938,"Name":"EB E HASTINGS ST FS HAWKS AVE","BayNo":"N","City":"VANCOUVER","OnStreet":"E HASTINGS ST","AtStreet":"HAWKS AVE","Latitude":49.281006,"Longitude":-123.086655,"WheelchairAccess":1,"Distance":1905,"Routes":"014, 016, 020, N20, N35"},{"StopNo":51283,"Name":"EB VENABLES ST FS VERNON DR","BayNo":"N","City":"VANCOUVER","OnStreet":"VENABLES ST","AtStreet":"VERNON DR","Latitude":49.276695,"Longitude":-123.078247,"WheelchairAccess":0,"Distance":1906,"Routes":"022"},{"StopNo":51517,"Name":"EB E KING EDWARD AVE FS QUEBEC ST","BayNo":"N","City":"VANCOUVER","OnStreet":"E KING EDWARD AVE","AtStreet":"QUEBEC ST","Latitude":49.248736,"Longitude":-123.102742,"WheelchairAccess":0,"Distance":1910,"Routes":""},{"StopNo":53392,"Name":"WB W HASTINGS ST NS ABBOTT ST","BayNo":"N","City":"VANCOUVER","OnStreet":"W HASTINGS ST","AtStreet":"ABBOTT ST","Latitude":49.282005,"Longitude":-123.106842,"WheelchairAccess":1,"Distance":1917,"Routes":"R5"},{"StopNo":60492,"Name":"EB CORDOVA ST NS CARRALL ST","BayNo":"N","City":"VANCOUVER","OnStreet":"W CORDOVA ST","AtStreet":"CARRALL ST","Latitude":49.282440,"Longitude":-123.104630,"WheelchairAccess":1,"Distance":1918,"Routes":""},{"StopNo":50081,"Name":"SB CAMBIE ST NS DUNSMUIR ST","BayNo":"N","City":"VANCOUVER","OnStreet":"CAMBIE ST","AtStreet":"DUNSMUIR ST","Latitude":49.280815,"Longitude":-123.111160,"WheelchairAccess":1,"Distance":1922,"Routes":"005, 006, N15, N24"},{"StopNo":50246,"Name":"SB MAIN ST FS E KING EDWARD AVE","BayNo":"N","City":"VANCOUVER","OnStreet":"MAIN ST","AtStreet":"E KING EDWARD AVE","Latitude":49.248466,"Longitude":-123.101196,"WheelchairAccess":1,"Distance":1925,"Routes":"003"},{"StopNo":51520,"Name":"EB E KING EDWARD AVE FS SAINT GEORGE ST","BayNo":"N","City":"VANCOUVER","OnStreet":"E KING EDWARD AVE","AtStreet":"SAINT GEORGE ST","Latitude":49.248608,"Longitude":-123.093689,"WheelchairAccess":1,"Distance":1928,"Routes":"025"},{"StopNo":60369,"Name":"WB W GEORGIA ST NS HAMILTON ST","BayNo":"N","City":"VANCOUVER","OnStreet":"W GEORGIA ST","AtStreet":"HAMILTON ST","Latitude":49.279827,"Longitude":-123.113800,"WheelchairAccess":1,"Distance":1931,"Routes":"240, 241, 246, 247, 250, 253, 254, N24"},{"StopNo":50932,"Name":"EB W HASTINGS ST NS ABBOTT ST","BayNo":"N","City":"VANCOUVER","OnStreet":"W HASTINGS ST","AtStreet":"ABBOTT ST","Latitude":49.281980,"Longitude":-123.107590,"WheelchairAccess":1,"Distance":1932,"Routes":""},{"StopNo":51572,"Name":"WB W KING EDWARD AVE FS ONTARIO ST","BayNo":"N","City":"VANCOUVER","OnStreet":"W KING EDWARD AVE","AtStreet":"ONTARIO ST","Latitude":49.248920,"Longitude":-123.105385,"WheelchairAccess":1,"Distance":1932,"Routes":"025"},{"StopNo":60335,"Name":"EB E KING EDWARD AVE FS ONTARIO ST","BayNo":"N","City":"VANCOUVER","OnStreet":"E KING EDWARD AVE","AtStreet":"ONTARIO ST","Latitude":49.248772,"Longitude":-123.104630,"WheelchairAccess":1,"Distance":1934,"Routes":"025"},{"StopNo":51359,"Name":"WB VENABLES ST FS CLARK DR","BayNo":"N","City":"VANCOUVER","OnStreet":"VENABLES ST","AtStreet":"CLARK DR","Latitude":49.276840,"Longitude":-123.077919,"WheelchairAccess":1,"Distance":1935,"Routes":"022"},{"StopNo":60336,"Name":"EB E CORDOVA ST FS HEATLEY AVE","BayNo":"N","City":"VANCOUVER","OnStreet":"E CORDOVA ST","AtStreet":"HEATLEY AVE","Latitude":49.282021,"Longitude":-123.089073,"WheelchairAccess":1,"Distance":1939,"Routes":"004, 007, 209"},{"StopNo":50516,"Name":"WB POWELL ST FS GORE AVE","BayNo":"N","City":"VANCOUVER","OnStreet":"POWELL ST","AtStreet":"GORE AVE","Latitude":49.283222,"Longitude":-123.098137,"WheelchairAccess":1,"Distance":1951,"Routes":"004, 007, 209"},{"StopNo":50840,"Name":"NB FRASER ST FS E KING EDWARD AVE","BayNo":"N","City":"VANCOUVER","OnStreet":"FRASER ST","AtStreet":"E KING EDWARD AVE","Latitude":49.248974,"Longitude":-123.089996,"WheelchairAccess":1,"Distance":1954,"Routes":"008, N8"},{"StopNo":59558,"Name":"WB DUNSMUIR ST FS CAMBIE ST","BayNo":"N","City":"VANCOUVER","OnStreet":"DUNSMUIR ST","AtStreet":"CAMBIE ST","Latitude":49.280838,"Longitude":-123.112007,"WheelchairAccess":1,"Distance":1955,"Routes":"257"},{"StopNo":50517,"Name":"WB POWELL ST FS MAIN ST","BayNo":"N","City":"VANCOUVER","OnStreet":"POWELL ST","AtStreet":"MAIN ST","Latitude":49.283270,"Longitude":-123.100110,"WheelchairAccess":1,"Distance":1960,"Routes":""},{"StopNo":50503,"Name":"WB E HASTINGS ST FS CAMPBELL AVE","BayNo":"N","City":"VANCOUVER","OnStreet":"E HASTINGS ST","AtStreet":"CAMPBELL AVE","Latitude":49.281155,"Longitude":-123.085251,"WheelchairAccess":1,"Distance":1967,"Routes":"014, 016, 020, N20, N35"},{"StopNo":61608,"Name":"NB MAIN ST FS E 26 AV","BayNo":"N","City":"VANCOUVER","OnStreet":"MAIN ST","AtStreet":"E 26 AVE","Latitude":49.248070,"Longitude":-123.100950,"WheelchairAccess":1,"Distance":1967,"Routes":""},{"StopNo":51568,"Name":"WB E KING EDWARD AVE FS FRASER ST","BayNo":"N","City":"VANCOUVER","OnStreet":"E KING EDWARD AVE","AtStreet":"FRASER ST","Latitude":49.248726,"Longitude":-123.090591,"WheelchairAccess":0,"Distance":1968,"Routes":"025"},{"StopNo":50187,"Name":"WB W HASTINGS ST FS ABBOTT ST","BayNo":"N","City":"VANCOUVER","OnStreet":"W HASTINGS ST","AtStreet":"ABBOTT ST","Latitude":49.282223,"Longitude":-123.108040,"WheelchairAccess":1,"Distance":1969,"Routes":"003, 008, 014, 016, 020, N20, N35, N8"},{"StopNo":50515,"Name":"WB POWELL ST FS JACKSON AVE","BayNo":"N","City":"VANCOUVER","OnStreet":"POWELL ST","AtStreet":"JACKSON AVE","Latitude":49.283146,"Longitude":-123.093727,"WheelchairAccess":1,"Distance":1971,"Routes":"004, 007, 209"},{"StopNo":61870,"Name":"SB HAMILTON ST NS W GEORGIA ST","BayNo":"N","City":"VANCOUVER","OnStreet":"HAMILTON ST","AtStreet":"W GEORGIA ST","Latitude":49.280275,"Longitude":-123.113845,"WheelchairAccess":1,"Distance":1974,"Routes":""},{"StopNo":58125,"Name":"EB W CORDOVA ST FS ABBOTT ST","BayNo":"N","City":"VANCOUVER","OnStreet":"W CORDOVA ST","AtStreet":"ABBOTT ST","Latitude":49.282715,"Longitude":-123.106056,"WheelchairAccess":1,"Distance":1975,"Routes":"003, 004, 007, 008, 209, 210, 211, 214, N8"},{"StopNo":59513,"Name":"EB W GEORGIA ST NS HAMILTON ST","BayNo":"N","City":"VANCOUVER","OnStreet":"W GEORGIA ST","AtStreet":"HAMILTON ST","Latitude":49.280019,"Longitude":-123.114489,"WheelchairAccess":1,"Distance":1977,"Routes":""},{"StopNo":51516,"Name":"EB W KING EDWARD AVE FS MANITOBA ST","BayNo":"N","City":"VANCOUVER","OnStreet":"W KING EDWARD AVE","AtStreet":"MANITOBA ST","Latitude":49.248817,"Longitude":-123.107040,"WheelchairAccess":1,"Distance":1977,"Routes":"025"},{"StopNo":51194,"Name":"WB KINGSWAY FS INVERNESS ST","BayNo":"N","City":"VANCOUVER","OnStreet":"KINGSWAY","AtStreet":"INVERNESS ST","Latitude":49.252365,"Longitude":-123.080254,"WheelchairAccess":1,"Distance":1980,"Routes":"019, N19"},{"StopNo":50622,"Name":"WB ROBSON ST FS HAMILTON ST","BayNo":"N","City":"VANCOUVER","OnStreet":"ROBSON ST","AtStreet":"HAMILTON ST","Latitude":49.279144,"Longitude":-123.116257,"WheelchairAccess":1,"Distance":1981,"Routes":"017, N15"},{"StopNo":50038,"Name":"WB POWELL ST FS COLUMBIA ST","BayNo":"N","City":"VANCOUVER","OnStreet":"POWELL ST","AtStreet":"COLUMBIA ST","Latitude":49.283283,"Longitude":-123.102898,"WheelchairAccess":1,"Distance":1985,"Routes":"050"},{"StopNo":50939,"Name":"EB E HASTINGS ST FS CAMPBELL AVE","BayNo":"N","City":"VANCOUVER","OnStreet":"E HASTINGS ST","AtStreet":"CAMPBELL AVE","Latitude":49.280956,"Longitude":-123.084229,"WheelchairAccess":1,"Distance":1985,"Routes":"014, 016, 020, N20, N35"},{"StopNo":61871,"Name":"SB HAMILTON ST FS DUNSMUIR ST","BayNo":"N","City":"VANCOUVER","OnStreet":"HAMILTON ST","AtStreet":"DUNSMUIR ST","Latitude":49.280661,"Longitude":-123.113264,"WheelchairAccess":1,"Distance":1986,"Routes":""},{"StopNo":52712,"Name":"EB W HASTINGS ST NS ABBOTT ST","BayNo":"N","City":"VANCOUVER","OnStreet":"W HASTINGS ST","AtStreet":"ABBOTT ST","Latitude":49.282215,"Longitude":-123.108833,"WheelchairAccess":1,"Distance":1989,"Routes":"R5"},{"StopNo":50476,"Name":"NB CAMBIE ST FS W 22 AVE","BayNo":"N","City":"VANCOUVER","OnStreet":"CAMBIE ST","AtStreet":"W 22 AVE","Latitude":49.251472,"Longitude":-123.115166,"WheelchairAccess":1,"Distance":1995,"Routes":"015, 033, N15"}]