[{"StopNo":50178,"Name":"NB MAIN ST FS E 5 AVE","BayNo":"N","City":"VANCOUVER","OnStreet":"MAIN ST","AtStreet":"E 5 AVE","Latitude":49.266719,"Longitude":-123.100662,"WheelchairAccess":1,"Distance":127,"Routes":"003, 008, 019, N19, N8"},{"StopNo":50235,"Name":"SB MAIN ST FS E 3 AVE","BayNo":"N","City":"VANCOUVER","OnStreet":"MAIN ST","AtStreet":"E 3 AVE","Latitude":49.267991,"Longitude":-123.100925,"WheelchairAccess":1,"Distance":164,"Routes":"003, 008, 019, N19, N8"},{"StopNo":58510,"Name":"SB MAIN ST FS E 5 AVE-","BayNo":"N","City":"VANCOUVER","OnStreet":"MAIN ST","AtStreet":"E 5 AVE","Latitude":49.266106,"Longitude":-123.100973,"WheelchairAccess":1,"Distance":183,"Routes":"008, 019, N19, N8"},{"StopNo":59762,"Name":"EB E 2 AVE FS MAIN ST","BayNo":"N","City":"VANCOUVER","OnStreet":"E 2 AVE","AtStreet":"MAIN ST","Latitude":49.268684,"Longitude":-123.100066,"WheelchairAccess":1,"Distance":184,"Routes":"084"},{"StopNo":50236,"Name":"SB MAIN ST FS E 5 AVE--","BayNo":"N","City":"VANCOUVER","OnStreet":"MAIN ST","AtStreet":"E 5 AVE","Latitude":49.265849,"Longitude":-123.100989,"WheelchairAccess":1,"Distance":203,"Routes":"003"},{"StopNo":59580,"Name":"SB MAIN ST FS E 2 AVE","BayNo":"N","City":"VANCOUVER","OnStreet":"MAIN ST","AtStreet":"E 2 AVE","Latitude":49.268688,"Longitude":-123.100898,"WheelchairAccess":1,"Distance":216,"Routes":""},{"StopNo":50177,"Name":"NB MAIN ST NS E 6 AVE","BayNo":"N","City":"VANCOUVER","OnStreet":"MAIN ST","AtStreet":"E 6 AVE","Latitude":49.265339,"Longitude":-123.100685,"WheelchairAccess":1,"Distance":235,"Routes":"003, 008, 019, N19, N8"},{"StopNo":59763,"Name":"EB GREAT NORTHERN WAY FS BRUNSWICK ST ","BayNo":"N","City":"VANCOUVER","OnStreet":"GREAT NORTHERN WAY","AtStreet":"BRUNSWICK ST","Latitude":49.266743,"Longitude":-123.095812,"WheelchairAccess":1,"Distance":239,"Routes":"084"},{"StopNo":50179,"Name":"NB MAIN ST FS E 2 AVE","BayNo":"N","City":"VANCOUVER","OnStreet":"MAIN ST","AtStreet":"E 2 AVE","Latitude":49.269455,"Longitude":-123.100505,"WheelchairAccess":1,"Distance":276,"Routes":"003, 008, 019, N19, N8"},{"StopNo":59764,"Name":"WB GREAT NORTHERN NS PRINCE EDWARD ","BayNo":"N","City":"VANCOUVER","OnStreet":"GREAT NORTHERN WAY","AtStreet":"PRINCE EDWARD ST","Latitude":49.266890,"Longitude":-123.095260,"WheelchairAccess":1,"Distance":277,"Routes":""},{"StopNo":59761,"Name":"WB E 2 AVE FS MAIN ST","BayNo":"N","City":"VANCOUVER","OnStreet":"E 2 AVE","AtStreet":"MAIN ST","Latitude":49.269283,"Longitude":-123.101217,"WheelchairAccess":1,"Distance":283,"Routes":"084"},{"StopNo":61684,"Name":"WB GREAT NORTHERN WAY NS THORNTON ST","BayNo":"N","City":"VANCOUVER","OnStreet":"GREAT NORTHERN WAY","AtStreet":"THORNTON ST","Latitude":49.266906,"Longitude":-123.094710,"WheelchairAccess":1,"Distance":316,"Routes":"084"},{"StopNo":61694,"Name":"SB MAIN ST FS E 1 AV","BayNo":"N","City":"VANCOUVER","OnStreet":"MAIN ST","AtStreet":"E 1 AV","Latitude":49.269830,"Longitude":-123.100840,"WheelchairAccess":1,"Distance":324,"Routes":""},{"StopNo":50771,"Name":"EB KINGSWAY FS MAIN ST ","BayNo":"N","City":"VANCOUVER","OnStreet":"KINGSWAY","AtStreet":"MAIN ST","Latitude":49.263824,"Longitude":-123.100514,"WheelchairAccess":1,"Distance":386,"Routes":"008, 019, N19, N8"},{"StopNo":50237,"Name":"SB MAIN ST NS E 8 AVE","BayNo":"N","City":"VANCOUVER","OnStreet":"MAIN ST","AtStreet":"E 8 AVE","Latitude":49.263886,"Longitude":-123.101094,"WheelchairAccess":1,"Distance":394,"Routes":"003"},{"StopNo":50234,"Name":"SB MAIN ST FS SWITCHMEN ST","BayNo":"N","City":"VANCOUVER","OnStreet":"MAIN ST","AtStreet":"SWITCHMEN ST","Latitude":49.270621,"Longitude":-123.100821,"WheelchairAccess":1,"Distance":405,"Routes":"003, 008, 019, N19, N8"},{"StopNo":50180,"Name":"NB MAIN ST FS INDUSTRIAL AVE","BayNo":"N","City":"VANCOUVER","OnStreet":"MAIN ST","AtStreet":"INDUSTRIAL AVE","Latitude":49.270803,"Longitude":-123.100432,"WheelchairAccess":1,"Distance":417,"Routes":"003, 008, 019, N19, N8"},{"StopNo":59760,"Name":"EB E 2 AVE FS ONTARIO ST","BayNo":"N","City":"VANCOUVER","OnStreet":"E 2 AVE","AtStreet":"ONTARIO ST","Latitude":49.269125,"Longitude":-123.104153,"WheelchairAccess":1,"Distance":430,"Routes":"084"},{"StopNo":58145,"Name":"WB KINGSWAY FS E BROADWAY","BayNo":"N","City":"VANCOUVER","OnStreet":"KINGSWAY","AtStreet":"E BROADWAY","Latitude":49.263296,"Longitude":-123.099681,"WheelchairAccess":1,"Distance":433,"Routes":"008, 019, N19, N8"},{"StopNo":50176,"Name":"NB MAIN ST FS E BROADWAY","BayNo":"N","City":"VANCOUVER","OnStreet":"MAIN ST","AtStreet":"E BROADWAY","Latitude":49.263233,"Longitude":-123.100792,"WheelchairAccess":1,"Distance":455,"Routes":"003"},{"StopNo":50850,"Name":"WB E BROADWAY NS SCOTIA ST","BayNo":"N","City":"VANCOUVER","OnStreet":"E BROADWAY","AtStreet":"SCOTIA ST","Latitude":49.262926,"Longitude":-123.098697,"WheelchairAccess":1,"Distance":472,"Routes":"008, 009, N8, N9"},{"StopNo":50880,"Name":"EB E BROADWAY NS KINGSWAY","BayNo":"N","City":"VANCOUVER","OnStreet":"E BROADWAY","AtStreet":"KINGSWAY ST","Latitude":49.262778,"Longitude":-123.099816,"WheelchairAccess":1,"Distance":491,"Routes":"009, N9"},{"StopNo":52101,"Name":"EB E BROADWAY FS MAIN ST","BayNo":"N","City":"VANCOUVER","OnStreet":"E BROADWAY","AtStreet":"MAIN ST","Latitude":49.262801,"Longitude":-123.100420,"WheelchairAccess":1,"Distance":495,"Routes":"099"},{"StopNo":50881,"Name":"WB E BROADWAY FS MAIN ST-","BayNo":"N","City":"VANCOUVER","OnStreet":"E BROADWAY","AtStreet":"MAIN ST","Latitude":49.263020,"Longitude":-123.101629,"WheelchairAccess":1,"Distance":497,"Routes":"009, N9"},{"StopNo":59759,"Name":"WB W 2 AVE FS ONTARIO ST","BayNo":"N","City":"VANCOUVER","OnStreet":"W 2 AVE","AtStreet":"ONTARIO ST","Latitude":49.269360,"Longitude":-123.105040,"WheelchairAccess":1,"Distance":499,"Routes":""},{"StopNo":50772,"Name":"EB E BROADWAY FS KINGSWAY","BayNo":"N","City":"VANCOUVER","OnStreet":"E BROADWAY","AtStreet":"KINGSWAY","Latitude":49.262719,"Longitude":-123.098055,"WheelchairAccess":1,"Distance":499,"Routes":"008, 009, N8, N9"},{"StopNo":50879,"Name":"EB E BROADWAY NS MAIN ST","BayNo":"N","City":"VANCOUVER","OnStreet":"E BROADWAY","AtStreet":"MAIN ST","Latitude":49.262831,"Longitude":-123.101345,"WheelchairAccess":1,"Distance":510,"Routes":"009, N9"},{"StopNo":51134,"Name":"EB KINGSWAY FS E BROADWAY","BayNo":"N","City":"VANCOUVER","OnStreet":"KINGSWAY","AtStreet":"E BROADWAY","Latitude":49.262551,"Longitude":-123.099412,"WheelchairAccess":1,"Distance":514,"Routes":"019, N19"},{"StopNo":58500,"Name":"WB E BROADWAY FS MAIN ST--","BayNo":"N","City":"VANCOUVER","OnStreet":"E BROADWAY","AtStreet":"MAIN ST","Latitude":49.263037,"Longitude":-123.102228,"WheelchairAccess":1,"Distance":514,"Routes":"099"},{"StopNo":50849,"Name":"WB E BROADWAY FS PRINCE EDWARD ST","BayNo":"N","City":"VANCOUVER","OnStreet":"E BROADWAY","AtStreet":"PRINCE EDWARD ST","Latitude":49.262835,"Longitude":-123.096513,"WheelchairAccess":1,"Distance":515,"Routes":"008, 009, N8, N9"},{"StopNo":50238,"Name":"SB MAIN ST FS E BROADWAY","BayNo":"N","City":"VANCOUVER","OnStreet":"MAIN ST","AtStreet":"E BROADWAY","Latitude":49.262541,"Longitude":-123.101140,"WheelchairAccess":1,"Distance":536,"Routes":"003"},{"StopNo":58953,"Name":"WB E 10 AVE FS KINGSWAY","BayNo":"N","City":"VANCOUVER","OnStreet":"E 10 AVE","AtStreet":"KINGSWAY","Latitude":49.262030,"Longitude":-123.099601,"WheelchairAccess":0,"Distance":572,"Routes":""},{"StopNo":60375,"Name":"WB GREAT NORTHERN WAY FS CAROLINA ST","BayNo":"N","City":"VANCOUVER","OnStreet":"GREAT NORTHERN WAY","AtStreet":"CAROLINA STREET","Latitude":49.266868,"Longitude":-123.091178,"WheelchairAccess":1,"Distance":572,"Routes":"084"},{"StopNo":50773,"Name":"EB E BROADWAY FS PRINCE EDWARD ST","BayNo":"N","City":"VANCOUVER","OnStreet":"E BROADWAY","AtStreet":"PRINCE EDWARD ST","Latitude":49.262454,"Longitude":-123.095524,"WheelchairAccess":1,"Distance":583,"Routes":"008, 009, N8, N9"},{"StopNo":51275,"Name":"EB TERMINAL AVE FS WESTERN ST","BayNo":"N","City":"VANCOUVER","OnStreet":"TERMINAL AVE","AtStreet":"WESTERN ST","Latitude":49.272477,"Longitude":-123.098889,"WheelchairAccess":0,"Distance":591,"Routes":"022"},{"StopNo":58280,"Name":"WB TERMINAL AVE AT 300 BLOCK","BayNo":"N","City":"VANCOUVER","OnStreet":"TERMINAL AVE","AtStreet":"300 BLOCK","Latitude":49.272363,"Longitude":-123.096638,"WheelchairAccess":1,"Distance":604,"Routes":"022"},{"StopNo":50878,"Name":"EB E BROADWAY FS ONTARIO ST","BayNo":"N","City":"VANCOUVER","OnStreet":"E BROADWAY","AtStreet":"ONTARIO ST","Latitude":49.262911,"Longitude":-123.104471,"WheelchairAccess":1,"Distance":615,"Routes":"009, N9"},{"StopNo":51276,"Name":"EB TERMINAL AVE NS THORNTON ST","BayNo":"N","City":"VANCOUVER","OnStreet":"TERMINAL AVE","AtStreet":"THORNTON ST","Latitude":49.271619,"Longitude":-123.093947,"WheelchairAccess":1,"Distance":618,"Routes":"022"},{"StopNo":60391,"Name":"EB GREAT NORTHERN WAY FS CAROLINA ST","BayNo":"N","City":"VANCOUVER","OnStreet":"GREAT NORTHERN WAY","AtStreet":"CAROLINA ST","Latitude":49.266680,"Longitude":-123.090557,"WheelchairAccess":1,"Distance":619,"Routes":"084"},{"StopNo":61954,"Name":"WB W 2 AVE FS MANITOBA ST","BayNo":"N","City":"VANCOUVER","OnStreet":"W 2 AVE","AtStreet":"MANITOBA ST","Latitude":49.269368,"Longitude":-123.106978,"WheelchairAccess":1,"Distance":625,"Routes":"084"},{"StopNo":50920,"Name":"WB W BROADWAY FS ONTARIO ST","BayNo":"N","City":"VANCOUVER","OnStreet":"W BROADWAY","AtStreet":"ONTARIO ST","Latitude":49.263101,"Longitude":-123.105291,"WheelchairAccess":1,"Distance":640,"Routes":"009, N9"},{"StopNo":57879,"Name":"WB GREAT NORTHERN WAY FS FRASER ST","BayNo":"N","City":"VANCOUVER","OnStreet":"GREAT NORTHERN WAY","AtStreet":"FRASER ST","Latitude":49.266860,"Longitude":-123.090210,"WheelchairAccess":1,"Distance":642,"Routes":""},{"StopNo":50848,"Name":"WB E BROADWAY FS SAINT GEORGE ST","BayNo":"N","City":"VANCOUVER","OnStreet":"E BROADWAY","AtStreet":"SAINT GEORGE ST","Latitude":49.262598,"Longitude":-123.093535,"WheelchairAccess":1,"Distance":646,"Routes":"008, 009, N8, N9"},{"StopNo":50233,"Name":"SB MAIN ST NS TERMINAL AVE","BayNo":"N","City":"VANCOUVER","OnStreet":"MAIN ST","AtStreet":"TERMINAL AVE","Latitude":49.273072,"Longitude":-123.100189,"WheelchairAccess":1,"Distance":662,"Routes":"003, 008, 019, N19, N8"},{"StopNo":57968,"Name":"MAIN STREET-SCIENCE WORLD STATION PLATFORM 2","BayNo":"N","City":"VANCOUVER","OnStreet":"SKYTRAIN","AtStreet":"MAIN STREET STN","Latitude":49.273099,"Longitude":-123.100399,"WheelchairAccess":0,"Distance":667,"Routes":""},{"StopNo":59929,"Name":"SB STATION ST NS TERMINAL AVE","BayNo":"N","City":"VANCOUVER","OnStreet":"STATION ST","AtStreet":"TERMINAL AVE","Latitude":49.273162,"Longitude":-123.098684,"WheelchairAccess":1,"Distance":667,"Routes":"023"},{"StopNo":51354,"Name":"WB TERMINAL AVE NS THORNTON ST","BayNo":"N","City":"VANCOUVER","OnStreet":"TERMINAL AVE","AtStreet":"THORNTON ST","Latitude":49.271779,"Longitude":-123.093108,"WheelchairAccess":1,"Distance":670,"Routes":"022"},{"StopNo":57999,"Name":"MAIN STREET-SCIENCE WORLD STATION PLATFORM 1","BayNo":"N","City":"VANCOUVER","OnStreet":"SKYTRAIN","AtStreet":"MAIN STREET STN","Latitude":49.273172,"Longitude":-123.100350,"WheelchairAccess":0,"Distance":675,"Routes":""},{"StopNo":50181,"Name":"NB MAIN ST FS TERMINAL AVE","BayNo":"N","City":"VANCOUVER","OnStreet":"MAIN ST","AtStreet":"TERMINAL AVE","Latitude":49.273395,"Longitude":-123.099831,"WheelchairAccess":1,"Distance":695,"Routes":"003, 008, 019, 022, N19, N8"},{"StopNo":50774,"Name":"EB E BROADWAY FS SAINT GEORGE ST","BayNo":"N","City":"VANCOUVER","OnStreet":"E BROADWAY","AtStreet":"SAINT GEORGE ST","Latitude":49.262402,"Longitude":-123.092514,"WheelchairAccess":1,"Distance":711,"Routes":"008, 009, N8, N9"},{"StopNo":59925,"Name":"NB QUEBEC ST FS TERMINAL AVE","BayNo":"N","City":"VANCOUVER","OnStreet":"QUEBEC ST","AtStreet":"TERMINAL AVE","Latitude":49.273359,"Longitude":-123.101521,"WheelchairAccess":1,"Distance":712,"Routes":"023"},{"StopNo":60351,"Name":"SB STATION ST FS NATIONAL AVE","BayNo":"N","City":"VANCOUVER","OnStreet":"STATION ST","AtStreet":"NATIONAL AVE","Latitude":49.273853,"Longitude":-123.098650,"WheelchairAccess":1,"Distance":744,"Routes":""},{"StopNo":50174,"Name":"NB MAIN ST FS E 12 AVE","BayNo":"N","City":"VANCOUVER","OnStreet":"MAIN ST","AtStreet":"E 12 AVE","Latitude":49.260528,"Longitude":-123.100888,"WheelchairAccess":1,"Distance":750,"Routes":"003"},{"StopNo":59726,"Name":"EB W BROADWAY NS MANITOBA ST","BayNo":"N","City":"VANCOUVER","OnStreet":"W BROADWAY","AtStreet":"MANITOBA ST","Latitude":49.262970,"Longitude":-123.107330,"WheelchairAccess":1,"Distance":761,"Routes":""},{"StopNo":51135,"Name":"EB KINGSWAY NS E 12 AVE","BayNo":"N","City":"VANCOUVER","OnStreet":"KINGSWAY","AtStreet":"E 12 AVE","Latitude":49.260192,"Longitude":-123.097102,"WheelchairAccess":1,"Distance":788,"Routes":"019, N19"},{"StopNo":51199,"Name":"WB KINGSWAY FS E 12 AVE","BayNo":"N","City":"VANCOUVER","OnStreet":"KINGSWAY","AtStreet":"E 12 AVE","Latitude":49.260171,"Longitude":-123.096663,"WheelchairAccess":1,"Distance":797,"Routes":"019, N19"},{"StopNo":59758,"Name":"EB W 2 AVE NS COLUMBIA ST","BayNo":"N","City":"VANCOUVER","OnStreet":"W 2 AVE","AtStreet":"COLUMBIA ST","Latitude":49.269029,"Longitude":-123.109733,"WheelchairAccess":1,"Distance":802,"Routes":"084"},{"StopNo":59757,"Name":"WB W 2 AVE FS COLUMBIA ST","BayNo":"N","City":"VANCOUVER","OnStreet":"W 2 AVE","AtStreet":"COLUMBIA ST","Latitude":49.269190,"Longitude":-123.109900,"WheelchairAccess":1,"Distance":819,"Routes":""},{"StopNo":50232,"Name":"SB MAIN ST FS NATIONAL AVE","BayNo":"N","City":"VANCOUVER","OnStreet":"MAIN ST","AtStreet":"NATIONAL AVE","Latitude":49.274506,"Longitude":-123.100141,"WheelchairAccess":1,"Distance":820,"Routes":"003, 008, 019, 022, N19, N8"},{"StopNo":50240,"Name":"SB MAIN ST FS E 12 AVE","BayNo":"N","City":"VANCOUVER","OnStreet":"MAIN ST","AtStreet":"E 12 AVE","Latitude":49.259888,"Longitude":-123.101270,"WheelchairAccess":1,"Distance":825,"Routes":"003"},{"StopNo":58613,"Name":"WB E BROADWAY FS FRASER ST ","BayNo":"N","City":"VANCOUVER","OnStreet":"E BROADWAY","AtStreet":"FRASER ST","Latitude":49.262593,"Longitude":-123.090090,"WheelchairAccess":1,"Distance":825,"Routes":"008, 009, 099, N8, N9"},{"StopNo":59928,"Name":"EB NATIONAL AVE FS MAIN ST","BayNo":"N","City":"VANCOUVER","OnStreet":"NATIONAL AVE","AtStreet":"MAIN ST","Latitude":49.274846,"Longitude":-123.099441,"WheelchairAccess":1,"Distance":855,"Routes":"023"},{"StopNo":60006,"Name":"EB W BROADWAY FS COLUMBIA ST","BayNo":"N","City":"VANCOUVER","OnStreet":"W BROADWAY","AtStreet":"COLUMBIA ST","Latitude":49.263020,"Longitude":-123.109050,"WheelchairAccess":1,"Distance":860,"Routes":"009, N9"},{"StopNo":59765,"Name":"WB GREAT NORTHERN WAY FS FOLEY ST","BayNo":"N","City":"VANCOUVER","OnStreet":"GREAT NORTHERN WAY","AtStreet":"FOLEY ST","Latitude":49.266404,"Longitude":-123.087137,"WheelchairAccess":1,"Distance":868,"Routes":"084"},{"StopNo":59926,"Name":"EB NATIONAL AVE FS QUEBEC ST","BayNo":"N","City":"VANCOUVER","OnStreet":"NATIONAL AVE","AtStreet":"QUEBEC ST","Latitude":49.274870,"Longitude":-123.101464,"WheelchairAccess":1,"Distance":875,"Routes":"023"},{"StopNo":60248,"Name":"EB E BROADWAY NS FRASER ST","BayNo":"N","City":"VANCOUVER","OnStreet":"E BROADWAY","AtStreet":"FRASER ST","Latitude":49.262364,"Longitude":-123.089378,"WheelchairAccess":1,"Distance":882,"Routes":"009, 099, N9"},{"StopNo":50921,"Name":"WB W BROADWAY FS COLUMBIA ST","BayNo":"N","City":"VANCOUVER","OnStreet":"W BROADWAY","AtStreet":"COLUMBIA ST","Latitude":49.263212,"Longitude":-123.109868,"WheelchairAccess":1,"Distance":900,"Routes":"009, N9"},{"StopNo":50182,"Name":"NB MAIN ST FS NATIONAL AVE","BayNo":"N","City":"VANCOUVER","OnStreet":"MAIN ST","AtStreet":"NATIONAL AVE","Latitude":49.275321,"Longitude":-123.099748,"WheelchairAccess":1,"Distance":908,"Routes":"003, 008, 019, 022, N19, N8"},{"StopNo":50775,"Name":"SB FRASER ST FS E BROADWAY","BayNo":"N","City":"VANCOUVER","OnStreet":"FRASER ST","AtStreet":"E BROADWAY","Latitude":49.262021,"Longitude":-123.089232,"WheelchairAccess":1,"Distance":913,"Routes":"008, N8"},{"StopNo":59927,"Name":"NB QUEBEC ST FS NATIONAL AVE","BayNo":"N","City":"VANCOUVER","OnStreet":"QUEBEC ST","AtStreet":"NATIONAL AVE","Latitude":49.275246,"Longitude":-123.101804,"WheelchairAccess":1,"Distance":921,"Routes":"023"},{"StopNo":50846,"Name":"NB FRASER ST FS E 10 AVE","BayNo":"N","City":"VANCOUVER","OnStreet":"FRASER ST","AtStreet":"E 10 AVE","Latitude":49.261837,"Longitude":-123.089030,"WheelchairAccess":1,"Distance":938,"Routes":"008, N8"},{"StopNo":58614,"Name":"EB E BROADWAY FS FRASER ST ","BayNo":"N","City":"VANCOUVER","OnStreet":"E BROADWAY ST","AtStreet":"FRASER ST","Latitude":49.262360,"Longitude":-123.088390,"WheelchairAccess":1,"Distance":940,"Routes":""},{"StopNo":59582,"Name":"NB MAIN ST FS E 14 AVE","BayNo":"N","City":"VANCOUVER","OnStreet":"MAIN ST","AtStreet":"E 14 AVE","Latitude":49.258782,"Longitude":-123.100989,"WheelchairAccess":1,"Distance":943,"Routes":"003"},{"StopNo":61985,"Name":"WB W 2 AVE FS CROWE ST","BayNo":"N","City":"VANCOUVER","OnStreet":"W 2 AVE","AtStreet":"CROWE ST","Latitude":49.268170,"Longitude":-123.111966,"WheelchairAccess":1,"Distance":944,"Routes":"084"},{"StopNo":51277,"Name":"EB TERMINAL AVE FS BEGG ST","BayNo":"N","City":"VANCOUVER","OnStreet":"TERMINAL AVE","AtStreet":"BEGG ST","Latitude":49.270461,"Longitude":-123.087037,"WheelchairAccess":1,"Distance":946,"Routes":"022"},{"StopNo":59766,"Name":"EB GREAT NORTHERN WAY FS FOLEY ST","BayNo":"N","City":"VANCOUVER","OnStreet":"GREAT NORTHERN WAY","AtStreet":"FOLEY ST","Latitude":49.266021,"Longitude":-123.086122,"WheelchairAccess":1,"Distance":947,"Routes":"084"},{"StopNo":51136,"Name":"EB KINGSWAY FS E 13 AVE","BayNo":"N","City":"VANCOUVER","OnStreet":"KINGSWAY","AtStreet":"E 13 AVE","Latitude":49.258948,"Longitude":-123.095429,"WheelchairAccess":1,"Distance":951,"Routes":"019, N19"},{"StopNo":50876,"Name":"EB W BROADWAY FS ALBERTA ST","BayNo":"N","City":"VANCOUVER","OnStreet":"W BROADWAY","AtStreet":"ALBERTA ST","Latitude":49.263050,"Longitude":-123.110550,"WheelchairAccess":1,"Distance":952,"Routes":""},{"StopNo":51353,"Name":"WB TERMINAL AVE NS BEGG ST","BayNo":"N","City":"VANCOUVER","OnStreet":"TERMINAL AVE","AtStreet":"BEGG ST","Latitude":49.270771,"Longitude":-123.087153,"WheelchairAccess":1,"Distance":952,"Routes":"022"},{"StopNo":50919,"Name":"WB E BROADWAY FS PRINCE ALBERT ST","BayNo":"N","City":"VANCOUVER","OnStreet":"E BROADWAY","AtStreet":"PRINCE ALBERT ST","Latitude":49.262579,"Longitude":-123.087643,"WheelchairAccess":1,"Distance":972,"Routes":"009, N9"},{"StopNo":50241,"Name":"SB MAIN ST FS E 14 AVE","BayNo":"N","City":"VANCOUVER","OnStreet":"MAIN ST","AtStreet":"E 14 AVE","Latitude":49.258082,"Longitude":-123.101305,"WheelchairAccess":1,"Distance":1023,"Routes":"003"},{"StopNo":50776,"Name":"SB FRASER ST FS E 11 AVE","BayNo":"N","City":"VANCOUVER","OnStreet":"FRASER ST","AtStreet":"E 11 AVE","Latitude":49.260320,"Longitude":-123.089275,"WheelchairAccess":1,"Distance":1040,"Routes":"008, N8"},{"StopNo":50845,"Name":"NB FRASER ST FS E 12 AVE","BayNo":"N","City":"VANCOUVER","OnStreet":"FRASER ST","AtStreet":"E 12 AVE","Latitude":49.260077,"Longitude":-123.089055,"WheelchairAccess":1,"Distance":1071,"Routes":"008, N8"},{"StopNo":51198,"Name":"WB KINGSWAY FS SAINT GEORGE ST","BayNo":"N","City":"VANCOUVER","OnStreet":"KINGSWAY","AtStreet":"SAINT GEORGE ST","Latitude":49.258170,"Longitude":-123.093585,"WheelchairAccess":1,"Distance":1076,"Routes":"019, N19"},{"StopNo":51278,"Name":"EB PRIOR ST FS DUNLEVY AVE","BayNo":"N","City":"VANCOUVER","OnStreet":"PRIOR ST","AtStreet":"DUNLEVY AVE","Latitude":49.276624,"Longitude":-123.095194,"WheelchairAccess":0,"Distance":1088,"Routes":"022"},{"StopNo":50922,"Name":"BROADWAY-CITY HALL STN BAY 5","BayNo":"5","City":"VANCOUVER","OnStreet":"BROADWAY-CITY HALL STN","AtStreet":"BAY 5","Latitude":49.263296,"Longitude":-123.113277,"WheelchairAccess":1,"Distance":1118,"Routes":"009, N9"},{"StopNo":51364,"Name":"WB PRIOR ST FS JACKSON AVE","BayNo":"N","City":"VANCOUVER","OnStreet":"PRIOR ST","AtStreet":"JACKSON AVE","Latitude":49.276725,"Longitude":-123.094157,"WheelchairAccess":1,"Distance":1121,"Routes":"022"},{"StopNo":52100,"Name":"BROADWAY-CITY HALL STN BAY 6","BayNo":"6","City":"VANCOUVER","OnStreet":"BROADWAY-CITY HALL STN","AtStreet":"BAY 6","Latitude":49.263084,"Longitude":-123.113352,"WheelchairAccess":1,"Distance":1133,"Routes":"009"},{"StopNo":51274,"Name":"SB GORE AVE FS UNION ST","BayNo":"N","City":"VANCOUVER","OnStreet":"GORE AVE","AtStreet":"UNION ST","Latitude":49.277360,"Longitude":-123.097020,"WheelchairAccess":0,"Distance":1143,"Routes":"022"},{"StopNo":59581,"Name":"NB MAIN ST FS E 16 AVE","BayNo":"N","City":"VANCOUVER","OnStreet":"MAIN ST","AtStreet":"E 16 AVE","Latitude":49.256943,"Longitude":-123.101068,"WheelchairAccess":1,"Distance":1146,"Routes":"003"},{"StopNo":61039,"Name":"OLYMPIC VILLAGE STN BAY 2","BayNo":"2","City":"VANCOUVER","OnStreet":"OLYMPIC VILLAGE STN","AtStreet":"BAY 2","Latitude":49.266425,"Longitude":-123.114936,"WheelchairAccess":1,"Distance":1156,"Routes":"084"},{"StopNo":50483,"Name":"NB CAMBIE ST NS W 7 AVE","BayNo":"N","City":"VANCOUVER","OnStreet":"CAMBIE ST","AtStreet":"W 7 AVE","Latitude":49.264648,"Longitude":-123.114622,"WheelchairAccess":1,"Distance":1164,"Routes":"015, 017, N15"},{"StopNo":50883,"Name":"EB E BROADWAY FS SAINT CATHERINES ST","BayNo":"N","City":"VANCOUVER","OnStreet":"E BROADWAY","AtStreet":"SAINT CATHERINES ST","Latitude":49.262351,"Longitude":-123.084744,"WheelchairAccess":1,"Distance":1168,"Routes":"009, N9"},{"StopNo":61367,"Name":"OLYMPIC VILLAGE STATION","BayNo":"N","City":"VANCOUVER","OnStreet":"SKYTRAIN","AtStreet":"OLYMPIC VILLAGE STN","Latitude":49.266616,"Longitude":-123.115218,"WheelchairAccess":0,"Distance":1175,"Routes":""},{"StopNo":51137,"Name":"EB KINGSWAY NS CAROLINA ST","BayNo":"N","City":"VANCOUVER","OnStreet":"KINGSWAY","AtStreet":"CAROLINA ST","Latitude":49.257418,"Longitude":-123.092371,"WheelchairAccess":1,"Distance":1187,"Routes":"019, N19"},{"StopNo":51279,"Name":"EB PRIOR ST FS PRINCESS AVE","BayNo":"N","City":"VANCOUVER","OnStreet":"PRIOR ST","AtStreet":"PRINCESS AVE","Latitude":49.276551,"Longitude":-123.091207,"WheelchairAccess":0,"Distance":1189,"Routes":"022"},{"StopNo":50482,"Name":"NB CAMBIE ST NS W 8 AVE","BayNo":"N","City":"VANCOUVER","OnStreet":"CAMBIE ST","AtStreet":"W 8 AVE","Latitude":49.263806,"Longitude":-123.114640,"WheelchairAccess":1,"Distance":1191,"Routes":"017, N15"},{"StopNo":50875,"Name":"BROADWAY-CITY HALL STN BAY 1","BayNo":"1","City":"VANCOUVER","OnStreet":"BROADWAY-CITY HALL STN","AtStreet":"BAY 1","Latitude":49.263107,"Longitude":-123.114283,"WheelchairAccess":1,"Distance":1194,"Routes":"099, N9"},{"StopNo":50412,"Name":"SB CAMBIE ST FS W 7 AVE","BayNo":"N","City":"VANCOUVER","OnStreet":"CAMBIE ST","AtStreet":"W 7 AVE","Latitude":49.264477,"Longitude":-123.114982,"WheelchairAccess":1,"Distance":1194,"Routes":"015, 017, N15"},{"StopNo":61368,"Name":"OLYMPIC VILLAGE STATION","BayNo":"N","City":"VANCOUVER","OnStreet":"SKYTRAIN","AtStreet":"OLYMPIC VILLAGE STN","Latitude":49.266557,"Longitude":-123.115527,"WheelchairAccess":0,"Distance":1198,"Routes":""},{"StopNo":50777,"Name":"SB FRASER ST FS E 13 AVE","BayNo":"N","City":"VANCOUVER","OnStreet":"FRASER ST","AtStreet":"E 13 AVE","Latitude":49.258479,"Longitude":-123.089284,"WheelchairAccess":1,"Distance":1198,"Routes":"008, N8"},{"StopNo":61924,"Name":"SB MAIN ST FS E GEORGIA ST","BayNo":"N","City":"VANCOUVER","OnStreet":"MAIN ST","AtStreet":"E GEORGIA ST","Latitude":49.277980,"Longitude":-123.099990,"WheelchairAccess":1,"Distance":1205,"Routes":""},{"StopNo":50844,"Name":"NB FRASER ST FS E 14 AVE","BayNo":"N","City":"VANCOUVER","OnStreet":"FRASER ST","AtStreet":"E 14 AVE","Latitude":49.258292,"Longitude":-123.089096,"WheelchairAccess":1,"Distance":1223,"Routes":"008, N8"},{"StopNo":50918,"Name":"WB E BROADWAY FS WINDSOR ST","BayNo":"N","City":"VANCOUVER","OnStreet":"E BROADWAY","AtStreet":"WINDSOR ST","Latitude":49.262532,"Longitude":-123.083724,"WheelchairAccess":1,"Distance":1225,"Routes":"009, N9"},{"StopNo":50242,"Name":"SB MAIN ST FS E 16 AVE","BayNo":"N","City":"VANCOUVER","OnStreet":"MAIN ST","AtStreet":"E 16 AVE","Latitude":49.256251,"Longitude":-123.101386,"WheelchairAccess":1,"Distance":1225,"Routes":"003"},{"StopNo":61040,"Name":"OLYMPIC VILLAGE STN BAY 1","BayNo":"1","City":"VANCOUVER","OnStreet":"OLYMPIC VILLAGE STN","AtStreet":"BAY 1","Latitude":49.266245,"Longitude":-123.115944,"WheelchairAccess":1,"Distance":1230,"Routes":"050, 084"},{"StopNo":61027,"Name":"BROADWAY-CITY HALL STN BAY 2","BayNo":"2","City":"VANCOUVER","OnStreet":"BROADWAY-CITY HALL STN","AtStreet":"BAY 2","Latitude":49.262759,"Longitude":-123.114655,"WheelchairAccess":1,"Distance":1234,"Routes":"015, 017, N15"},{"StopNo":51363,"Name":"WB PRIOR ST FS HEATLEY AVE","BayNo":"N","City":"VANCOUVER","OnStreet":"PRIOR ST","AtStreet":"HEATLEY AVE","Latitude":49.276651,"Longitude":-123.090210,"WheelchairAccess":1,"Distance":1235,"Routes":"022"},{"StopNo":61254,"Name":"OLYMPIC VILLAGE STN BAY 3","BayNo":"3","City":"VANCOUVER","OnStreet":"OLYMPIC VILLAGE STN","AtStreet":"BAY 3","Latitude":49.265937,"Longitude":-123.116053,"WheelchairAccess":1,"Distance":1241,"Routes":"015"},{"StopNo":61370,"Name":"BROADWAY-CITY HALL STATION","BayNo":"N","City":"VANCOUVER","OnStreet":"SKYTRAIN","AtStreet":"BROADWAY-CITY HALL STN","Latitude":49.262725,"Longitude":-123.114753,"WheelchairAccess":0,"Distance":1242,"Routes":""},{"StopNo":61369,"Name":"BROADWAY-CITY HALL STATION","BayNo":"N","City":"VANCOUVER","OnStreet":"SKYTRAIN","AtStreet":"BROADWAY-CITY HALL STN","Latitude":49.262684,"Longitude":-123.114856,"WheelchairAccess":0,"Distance":1250,"Routes":""},{"StopNo":50413,"Name":"BROADWAY-CITY HALL STN BAY 3","BayNo":"3","City":"VANCOUVER","OnStreet":"BROADWAY-CITY HALL STN","AtStreet":"BAY 3","Latitude":49.262829,"Longitude":-123.115052,"WheelchairAccess":1,"Distance":1257,"Routes":""},{"StopNo":58501,"Name":"BROADWAY-CITY HALL STN BAY 4","BayNo":"4","City":"VANCOUVER","OnStreet":"BROADWAY-CITY HALL STN","AtStreet":"BAY 4","Latitude":49.263338,"Longitude":-123.115714,"WheelchairAccess":1,"Distance":1282,"Routes":"099, N9"},{"StopNo":51197,"Name":"WB KINGSWAY FS FRASER ST","BayNo":"N","City":"VANCOUVER","OnStreet":"KINGSWAY","AtStreet":"FRASER ST","Latitude":49.257027,"Longitude":-123.090227,"WheelchairAccess":1,"Distance":1296,"Routes":"019, N19"},{"StopNo":59919,"Name":"NB PAT QUINN WAY FS PACIFIC BLVD","BayNo":"N","City":"VANCOUVER","OnStreet":"PAT QUINN WAY","AtStreet":"PACIFIC BLVD","Latitude":49.277432,"Longitude":-123.107546,"WheelchairAccess":1,"Distance":1298,"Routes":"023"},{"StopNo":60307,"Name":"BROADWAY-CITY HALL STN BAY 3 ","BayNo":"3","City":"VANCOUVER","OnStreet":"BROADWAY-CITY HALL STN","AtStreet":"BAY 3","Latitude":49.261999,"Longitude":-123.115110,"WheelchairAccess":1,"Distance":1299,"Routes":"015, 017, N15"},{"StopNo":51366,"Name":"NB GORE AVE FS E GEORGIA ST","BayNo":"N","City":"VANCOUVER","OnStreet":"GORE AVE","AtStreet":"E GEORGIA ST","Latitude":49.278838,"Longitude":-123.097008,"WheelchairAccess":0,"Distance":1307,"Routes":"022"},{"StopNo":50184,"Name":"NB MAIN ST FS E GEORGIA ST","BayNo":"N","City":"VANCOUVER","OnStreet":"MAIN ST","AtStreet":"E GEORGIA ST","Latitude":49.278968,"Longitude":-123.099607,"WheelchairAccess":1,"Distance":1313,"Routes":"003, 008, 019, 022, N19, N8"},{"StopNo":50230,"Name":"SB MAIN ST FS KEEFER ST ","BayNo":"N","City":"VANCOUVER","OnStreet":"MAIN ST","AtStreet":"KEEFER ST","Latitude":49.279029,"Longitude":-123.099896,"WheelchairAccess":1,"Distance":1321,"Routes":"003, 008, 019, 022, N19, N8"},{"StopNo":51280,"Name":"EB PRIOR ST NS HAWKS AVE","BayNo":"N","City":"VANCOUVER","OnStreet":"PRIOR ST","AtStreet":"HAWKS AVE","Latitude":49.276481,"Longitude":-123.087659,"WheelchairAccess":1,"Distance":1325,"Routes":"022"},{"StopNo":51362,"Name":"WB PRIOR ST FS HAWKS AVE","BayNo":"N","City":"VANCOUVER","OnStreet":"PRIOR ST","AtStreet":"HAWKS AVE","Latitude":49.276610,"Longitude":-123.087839,"WheelchairAccess":1,"Distance":1328,"Routes":"022"},{"StopNo":58269,"Name":"WB W BROADWAY NS ASH ST","BayNo":"N","City":"VANCOUVER","OnStreet":"W BROADWAY","AtStreet":"ASH ST","Latitude":49.263347,"Longitude":-123.116426,"WheelchairAccess":1,"Distance":1330,"Routes":"009"},{"StopNo":51273,"Name":"SB GORE AVE FS KEEFER ST","BayNo":"N","City":"VANCOUVER","OnStreet":"GORE AVE","AtStreet":"KEEFER ST","Latitude":49.279105,"Longitude":-123.097251,"WheelchairAccess":1,"Distance":1334,"Routes":"022"},{"StopNo":59924,"Name":"SB QUEBEC ST FS KEEFER ST","BayNo":"N","City":"VANCOUVER","OnStreet":"QUEBEC ST","AtStreet":"KEEFER ST","Latitude":49.279008,"Longitude":-123.102218,"WheelchairAccess":0,"Distance":1337,"Routes":"023"},{"StopNo":50481,"Name":"NB CAMBIE ST FS W 12 AVE","BayNo":"N","City":"VANCOUVER","OnStreet":"CAMBIE ST","AtStreet":"W 12 AVE","Latitude":49.260758,"Longitude":-123.114831,"WheelchairAccess":1,"Distance":1349,"Routes":"015, 017, N15"},{"StopNo":59835,"Name":"NB MAIN ST FS E 18 AVE","BayNo":"N","City":"VANCOUVER","OnStreet":"MAIN ST","AtStreet":"E 18 AVE","Latitude":49.255006,"Longitude":-123.100984,"WheelchairAccess":1,"Distance":1359,"Routes":"003"},{"StopNo":59918,"Name":"EB PACIFIC BLVD FS MARINASIDE CRES","BayNo":"N","City":"VANCOUVER","OnStreet":"PACIFIC BLVD","AtStreet":"MARINASIDE CRES","Latitude":49.274212,"Longitude":-123.114446,"WheelchairAccess":1,"Distance":1365,"Routes":"023"},{"StopNo":51133,"Name":"WB KEEFER ST FS COLUMBIA ST","BayNo":"N","City":"VANCOUVER","OnStreet":"KEEFER ST","AtStreet":"COLUMBIA ST","Latitude":49.279267,"Longitude":-123.102946,"WheelchairAccess":0,"Distance":1375,"Routes":"023"},{"StopNo":59755,"Name":"WB W 6 AVE FS ASH ST","BayNo":"N","City":"VANCOUVER","OnStreet":"W 6 AVE","AtStreet":"ASH ST","Latitude":49.266015,"Longitude":-123.117968,"WheelchairAccess":1,"Distance":1379,"Routes":"050, 084"},{"StopNo":59992,"Name":"NB PAT QUINN WAY NS EXPO BLVD","BayNo":"N","City":"VANCOUVER","OnStreet":"PAT QUINN WAY","AtStreet":"EXPO BLVD","Latitude":49.278392,"Longitude":-123.107518,"WheelchairAccess":1,"Distance":1391,"Routes":"023"},{"StopNo":50778,"Name":"SB FRASER ST FS E 16 AVE","BayNo":"N","City":"VANCOUVER","OnStreet":"FRASER ST","AtStreet":"E 16 AVE","Latitude":49.256110,"Longitude":-123.090058,"WheelchairAccess":1,"Distance":1392,"Routes":"008, N8"},{"StopNo":59767,"Name":"VCC\/CLARK STN UNLOADING ONLY","BayNo":"1","City":"VANCOUVER","OnStreet":"VCC-CLARK STATION","AtStreet":"UNLOADING ONLY","Latitude":49.265975,"Longitude":-123.079842,"WheelchairAccess":1,"Distance":1400,"Routes":""},{"StopNo":50414,"Name":"SB CAMBIE ST FS W 12 AVE","BayNo":"N","City":"VANCOUVER","OnStreet":"CAMBIE ST","AtStreet":"W 12 AVE","Latitude":49.260113,"Longitude":-123.115144,"WheelchairAccess":1,"Distance":1407,"Routes":"015, N15"},{"StopNo":60418,"Name":"WB W 12 AVE FS CAMBIE ST","BayNo":"N","City":"VANCOUVER","OnStreet":"W 12TH AVE","AtStreet":"CAMBIE ST","Latitude":49.260482,"Longitude":-123.115590,"WheelchairAccess":1,"Distance":1412,"Routes":"017"},{"StopNo":51138,"Name":"EB KINGSWAY FS FRASER ST","BayNo":"N","City":"VANCOUVER","OnStreet":"KINGSWAY","AtStreet":"FRASER ST","Latitude":49.256214,"Longitude":-123.089018,"WheelchairAccess":1,"Distance":1419,"Routes":"019, N19"},{"StopNo":50917,"Name":"WB E BROADWAY NS GLEN DR","BayNo":"N","City":"VANCOUVER","OnStreet":"E BROADWAY","AtStreet":"GLEN DR","Latitude":49.262497,"Longitude":-123.080761,"WheelchairAccess":1,"Distance":1425,"Routes":"009, N9"},{"StopNo":50884,"Name":"EB E BROADWAY FS GLEN DR","BayNo":"N","City":"VANCOUVER","OnStreet":"E BROADWAY","AtStreet":"GLEN DR","Latitude":49.262322,"Longitude":-123.080869,"WheelchairAccess":1,"Distance":1425,"Routes":"009, N9"},{"StopNo":58051,"Name":"EB KEEFER PL FS TAYLOR ST--","BayNo":"N","City":"VANCOUVER","OnStreet":"KEEFER PL","AtStreet":"TAYLOR ST","Latitude":49.279294,"Longitude":-123.105515,"WheelchairAccess":1,"Distance":1428,"Routes":"050"},{"StopNo":58307,"Name":"SB MAIN ST FS E 18 AVE","BayNo":"N","City":"VANCOUVER","OnStreet":"MAIN ST","AtStreet":"E 18 AVE","Latitude":49.254339,"Longitude":-123.100959,"WheelchairAccess":1,"Distance":1433,"Routes":"003"},{"StopNo":59803,"Name":"VCC\/CLARK STN BAY 1","BayNo":"1","City":"VANCOUVER","OnStreet":"VCC-CLARK STATION","AtStreet":"BAY 1","Latitude":49.265476,"Longitude":-123.079447,"WheelchairAccess":1,"Distance":1435,"Routes":"084"},{"StopNo":50843,"Name":"NB FRASER ST FS E 17 AVE","BayNo":"N","City":"VANCOUVER","OnStreet":"FRASER ST","AtStreet":"E 17 AVE","Latitude":49.255774,"Longitude":-123.089737,"WheelchairAccess":1,"Distance":1436,"Routes":"008, N8"},{"StopNo":58169,"Name":"EB KEEFER PL FS TAYLOR ST-","BayNo":"N","City":"VANCOUVER","OnStreet":"KEEFER PL","AtStreet":"TAYLOR ST","Latitude":49.279326,"Longitude":-123.105758,"WheelchairAccess":1,"Distance":1437,"Routes":"023"},{"StopNo":50924,"Name":"WB W BROADWAY FS ASH ST","BayNo":"N","City":"VANCOUVER","OnStreet":"W BROADWAY","AtStreet":"ASH ST","Latitude":49.263360,"Longitude":-123.118098,"WheelchairAccess":1,"Distance":1445,"Routes":"009, N9"},{"StopNo":59991,"Name":"WB EXPO BLVD FS ABBOTT ST","BayNo":"N","City":"VANCOUVER","OnStreet":"EXPO BLVD","AtStreet":"ABBOTT ST","Latitude":49.278791,"Longitude":-123.108015,"WheelchairAccess":1,"Distance":1447,"Routes":"023"},{"StopNo":60824,"Name":"VCC-CLARK STATION PLATFORM 1","BayNo":"N","City":"VANCOUVER","OnStreet":"SKYTRAIN","AtStreet":"VCC-CLARK STN","Latitude":49.265873,"Longitude":-123.079049,"WheelchairAccess":0,"Distance":1458,"Routes":""},{"StopNo":60825,"Name":"VCC-CLARK STATION PLATFORM 2","BayNo":"N","City":"VANCOUVER","OnStreet":"SKYTRAIN","AtStreet":"VCC-CLARK STN","Latitude":49.265799,"Longitude":-123.079054,"WheelchairAccess":0,"Distance":1459,"Routes":""},{"StopNo":51272,"Name":"EB E PENDER ST FS MAIN ST","BayNo":"N","City":"VANCOUVER","OnStreet":"E PENDER ST","AtStreet":"MAIN ST","Latitude":49.280323,"Longitude":-123.099245,"WheelchairAccess":1,"Distance":1463,"Routes":"022"},{"StopNo":50520,"Name":"EB E PENDER ST NS MAIN ST","BayNo":"N","City":"VANCOUVER","OnStreet":"E PENDER ST","AtStreet":"MAIN ST","Latitude":49.280329,"Longitude":-123.100047,"WheelchairAccess":1,"Distance":1466,"Routes":"019, N19"},{"StopNo":50480,"Name":"NB CAMBIE ST FS W 14 AVE","BayNo":"N","City":"VANCOUVER","OnStreet":"CAMBIE ST","AtStreet":"W 14 AVE","Latitude":49.258988,"Longitude":-123.114893,"WheelchairAccess":1,"Distance":1466,"Routes":"015, N15"},{"StopNo":50484,"Name":"NB SMITHE ST NS EXPO BLVD","BayNo":"N","City":"VANCOUVER","OnStreet":"SMITHE ST","AtStreet":"EXPO BLVD","Latitude":49.275660,"Longitude":-123.114570,"WheelchairAccess":1,"Distance":1470,"Routes":""},{"StopNo":51281,"Name":"EB PRIOR ST FS CAMPBELL AVE","BayNo":"N","City":"VANCOUVER","OnStreet":"PRIOR ST","AtStreet":"CAMPBELL AVE","Latitude":49.276442,"Longitude":-123.084506,"WheelchairAccess":1,"Distance":1476,"Routes":"022"},{"StopNo":51367,"Name":"WB E PENDER ST FS GORE AVE","BayNo":"N","City":"VANCOUVER","OnStreet":"E PENDER ST","AtStreet":"GORE AVE","Latitude":49.280427,"Longitude":-123.097706,"WheelchairAccess":1,"Distance":1478,"Routes":"022"},{"StopNo":61518,"Name":"WB E PENDER ST FS MAIN ST--","BayNo":"N","City":"VANCOUVER","OnStreet":"E PENDER ST","AtStreet":"MAIN ST","Latitude":49.280462,"Longitude":-123.100263,"WheelchairAccess":1,"Distance":1481,"Routes":"007, 019, 022, 209, N19"},{"StopNo":59923,"Name":"WB KEEFER PL FS TAYLOR ST ","BayNo":"N","City":"VANCOUVER","OnStreet":"KEEFER PL","AtStreet":"TAYLOR ST","Latitude":49.279581,"Longitude":-123.106439,"WheelchairAccess":1,"Distance":1481,"Routes":"023"},{"StopNo":50689,"Name":"WB E PENDER ST FS MAIN ST-","BayNo":"N","City":"VANCOUVER","OnStreet":"E PENDER ST","AtStreet":"MAIN ST","Latitude":49.280463,"Longitude":-123.100688,"WheelchairAccess":1,"Distance":1484,"Routes":"004, 007, 019, 022, 209"},{"StopNo":59244,"Name":"SB GORE AVE NS E PENDER ST","BayNo":"N","City":"VANCOUVER","OnStreet":"GORE AVE","AtStreet":"E PENDER ST","Latitude":49.280520,"Longitude":-123.097480,"WheelchairAccess":1,"Distance":1489,"Routes":""},{"StopNo":59287,"Name":"NB GORE AVE FS E PENDER ST","BayNo":"N","City":"VANCOUVER","OnStreet":"GORE AVE","AtStreet":"E PENDER ST","Latitude":49.280640,"Longitude":-123.097280,"WheelchairAccess":1,"Distance":1504,"Routes":""},{"StopNo":60014,"Name":"WB EXPO BLVD FS NELSON ST","BayNo":"N","City":"VANCOUVER","OnStreet":"EXPO BLVD","AtStreet":"NELSON ST","Latitude":49.274765,"Longitude":-123.116234,"WheelchairAccess":1,"Distance":1506,"Routes":"023"},{"StopNo":50021,"Name":"EB E PENDER ST FS CARRALL ST","BayNo":"N","City":"VANCOUVER","OnStreet":"E PENDER ST","AtStreet":"CARRALL ST","Latitude":49.280394,"Longitude":-123.103799,"WheelchairAccess":1,"Distance":1511,"Routes":"019, 022, N19"},{"StopNo":50229,"Name":"SB MAIN ST FS E HASTINGS ST","BayNo":"N","City":"VANCOUVER","OnStreet":"MAIN ST","AtStreet":"E HASTINGS ST","Latitude":49.280810,"Longitude":-123.099812,"WheelchairAccess":1,"Distance":1518,"Routes":"003, 004, 007, 008, N8"},{"StopNo":61149,"Name":"SB CAMBIE ST FS W 14 AVE","BayNo":"N","City":"VANCOUVER","OnStreet":"CAMBIE ST","AtStreet":"W 14 AVE","Latitude":49.258460,"Longitude":-123.115193,"WheelchairAccess":1,"Distance":1520,"Routes":"015, N15"},{"StopNo":61810,"Name":"NB SMITHE ST FS EXPO BLVD","BayNo":"N","City":"VANCOUVER","OnStreet":"SMITHE ST","AtStreet":"EXPO BLVD","Latitude":49.276112,"Longitude":-123.114934,"WheelchairAccess":1,"Distance":1523,"Routes":"017, N15"},{"StopNo":57967,"Name":"STADIUM-CHINATOWN STATION PLATFORM 2","BayNo":"N","City":"VANCOUVER","OnStreet":"SKYTRAIN","AtStreet":"STADIUM STN","Latitude":49.279178,"Longitude":-123.109213,"WheelchairAccess":0,"Distance":1526,"Routes":""},{"StopNo":50022,"Name":"NB COLUMBIA ST FS E PENDER ST","BayNo":"N","City":"VANCOUVER","OnStreet":"COLUMBIA ST","AtStreet":"E PENDER ST","Latitude":49.280772,"Longitude":-123.102196,"WheelchairAccess":1,"Distance":1530,"Routes":"050"},{"StopNo":58000,"Name":"STADIUM-CHINATOWN STATION PLATFORM 1","BayNo":"N","City":"VANCOUVER","OnStreet":"SKYTRAIN","AtStreet":"STADIUM STN","Latitude":49.279271,"Longitude":-123.109109,"WheelchairAccess":0,"Distance":1531,"Routes":""},{"StopNo":50874,"Name":"EB W BROADWAY FS HEATHER ST","BayNo":"N","City":"VANCOUVER","OnStreet":"W BROADWAY","AtStreet":"HEATHER ST","Latitude":49.263205,"Longitude":-123.119257,"WheelchairAccess":1,"Distance":1531,"Routes":"009, N9"},{"StopNo":52057,"Name":"HEATHER SQUARE BAY 1","BayNo":"1","City":"VANCOUVER","OnStreet":"HEATHER SQUARE","AtStreet":"BAY 1","Latitude":49.266191,"Longitude":-123.120109,"WheelchairAccess":1,"Distance":1532,"Routes":"050"},{"StopNo":58054,"Name":"HEATHER SQUARE BAY 2","BayNo":"2","City":"VANCOUVER","OnStreet":"HEATHER SQUARE","AtStreet":"BAY 2","Latitude":49.266296,"Longitude":-123.120135,"WheelchairAccess":1,"Distance":1533,"Routes":"050"},{"StopNo":59754,"Name":"EB W 6 AVE NS HEATHER ST","BayNo":"N","City":"VANCOUVER","OnStreet":"W 6 AVE","AtStreet":"HEATHER ST","Latitude":49.265832,"Longitude":-123.120144,"WheelchairAccess":1,"Distance":1538,"Routes":"084"},{"StopNo":59836,"Name":"NB MAIN ST FS E 20 AVE","BayNo":"N","City":"VANCOUVER","OnStreet":"MAIN ST","AtStreet":"E 20 AVE","Latitude":49.253226,"Longitude":-123.100763,"WheelchairAccess":1,"Distance":1555,"Routes":"003"},{"StopNo":59916,"Name":"EB PACIFIC BLVD NS BOATHOUSE MEWS","BayNo":"N","City":"VANCOUVER","OnStreet":"PACIFIC BLVD","AtStreet":"BOATHOUSE MEWS","Latitude":49.274210,"Longitude":-123.117633,"WheelchairAccess":1,"Distance":1559,"Routes":"023"},{"StopNo":51288,"Name":"SB CLARK DR FS E 3 AVE","BayNo":"N","City":"VANCOUVER","OnStreet":"CLARK DR","AtStreet":"E 3 AVE","Latitude":49.267558,"Longitude":-123.077527,"WheelchairAccess":1,"Distance":1562,"Routes":"022"},{"StopNo":52713,"Name":"EB E HASTINGS ST FS MAIN ST--","BayNo":"N","City":"VANCOUVER","OnStreet":"E HASTINGS ST","AtStreet":"MAIN ST","Latitude":49.281220,"Longitude":-123.098307,"WheelchairAccess":1,"Distance":1564,"Routes":"R5"},{"StopNo":50934,"Name":"EB E HASTINGS ST FS MAIN ST-","BayNo":"N","City":"VANCOUVER","OnStreet":"E HASTINGS ST","AtStreet":"MAIN ST","Latitude":49.281225,"Longitude":-123.099034,"WheelchairAccess":1,"Distance":1564,"Routes":"014, 016, 020, N20, N35"},{"StopNo":50091,"Name":"WB W PENDER ST FS CARRALL ST","BayNo":"N","City":"VANCOUVER","OnStreet":"W PENDER ST","AtStreet":"CARRALL ST","Latitude":49.280707,"Longitude":-123.104998,"WheelchairAccess":1,"Distance":1567,"Routes":"004, 007, 019, 022, 209, N19"},{"StopNo":50935,"Name":"EB E HASTINGS ST FS GORE AVE","BayNo":"N","City":"VANCOUVER","OnStreet":"E HASTINGS ST","AtStreet":"GORE AVE","Latitude":49.281207,"Longitude":-123.096763,"WheelchairAccess":1,"Distance":1570,"Routes":"014, 016, 020, N20, N35"},{"StopNo":51287,"Name":"SB CLARK DR FS E 1 AVE","BayNo":"N","City":"VANCOUVER","OnStreet":"CLARK DR","AtStreet":"E 1 AVE","Latitude":49.268967,"Longitude":-123.077555,"WheelchairAccess":1,"Distance":1572,"Routes":"022"},{"StopNo":50916,"Name":"WB E BROADWAY FS CLARK DR","BayNo":"N","City":"VANCOUVER","OnStreet":"E BROADWAY","AtStreet":"CLARK DR","Latitude":49.262499,"Longitude":-123.078554,"WheelchairAccess":1,"Distance":1575,"Routes":"009, 099, N9"},{"StopNo":51289,"Name":"SB CLARK DR FS E 6 AVE","BayNo":"N","City":"VANCOUVER","OnStreet":"CLARK DR","AtStreet":"E 6 AVE","Latitude":49.264806,"Longitude":-123.077630,"WheelchairAccess":1,"Distance":1576,"Routes":"022"},{"StopNo":51361,"Name":"WB VENABLES ST FS RAYMUR AVE","BayNo":"N","City":"VANCOUVER","OnStreet":"VENABLES ST","AtStreet":"RAYMUR AVE","Latitude":49.276876,"Longitude":-123.083149,"WheelchairAccess":1,"Distance":1580,"Routes":"022"},{"StopNo":51352,"Name":"NB CLARK DR FS E 3 AVE","BayNo":"N","City":"VANCOUVER","OnStreet":"CLARK DR","AtStreet":"E 3 AVE","Latitude":49.268147,"Longitude":-123.077256,"WheelchairAccess":1,"Distance":1585,"Routes":"022"},{"StopNo":53391,"Name":"WB E HASTINGS ST NS MAIN ST","BayNo":"N","City":"VANCOUVER","OnStreet":"E HASTINGS ST","AtStreet":"MAIN ST","Latitude":49.281426,"Longitude":-123.099363,"WheelchairAccess":1,"Distance":1586,"Routes":"014, 016, 020, R5"},{"StopNo":50185,"Name":"WB E HASTINGS ST FS MAIN ST","BayNo":"N","City":"VANCOUVER","OnStreet":"E HASTINGS ST","AtStreet":"MAIN ST","Latitude":49.281440,"Longitude":-123.100300,"WheelchairAccess":1,"Distance":1590,"Routes":"003, 008, N20, N35, N8"},{"StopNo":50925,"Name":"WB W BROADWAY FS HEATHER ST","BayNo":"N","City":"VANCOUVER","OnStreet":"W BROADWAY","AtStreet":"HEATHER ST","Latitude":49.263401,"Longitude":-123.120227,"WheelchairAccess":1,"Distance":1593,"Routes":"009, N9"},{"StopNo":52099,"Name":"EB W BROADWAY NS HEATHER ST","BayNo":"N","City":"VANCOUVER","OnStreet":"W BROADWAY","AtStreet":"HEATHER ST","Latitude":49.263212,"Longitude":-123.120173,"WheelchairAccess":1,"Distance":1595,"Routes":"099"},{"StopNo":50507,"Name":"WB E HASTINGS ST FS DUNLEVY AVE","BayNo":"N","City":"VANCOUVER","OnStreet":"E HASTINGS ST","AtStreet":"DUNLEVY AVE","Latitude":49.281356,"Longitude":-123.095847,"WheelchairAccess":1,"Distance":1595,"Routes":"014, 016, 020, N20, N35"},{"StopNo":51351,"Name":"NB CLARK DR NS E 6 AVE","BayNo":"N","City":"VANCOUVER","OnStreet":"CLARK DR","AtStreet":"E 6 AVE","Latitude":49.264845,"Longitude":-123.077316,"WheelchairAccess":1,"Distance":1598,"Routes":"022"},{"StopNo":50479,"Name":"NB CAMBIE ST FS W 16 AVE","BayNo":"N","City":"VANCOUVER","OnStreet":"CAMBIE ST","AtStreet":"W 16 AVE","Latitude":49.257158,"Longitude":-123.114908,"WheelchairAccess":1,"Distance":1601,"Routes":"015, N15"},{"StopNo":50933,"Name":"EB E HASTINGS ST FS CARRALL ST","BayNo":"N","City":"VANCOUVER","OnStreet":"E HASTINGS ST","AtStreet":"CARRALL ST","Latitude":49.281322,"Longitude":-123.103441,"WheelchairAccess":1,"Distance":1606,"Routes":""},{"StopNo":50842,"Name":"NB FRASER ST FS E 19 AVE","BayNo":"N","City":"VANCOUVER","OnStreet":"FRASER ST","AtStreet":"E 19 AVE","Latitude":49.254000,"Longitude":-123.089820,"WheelchairAccess":0,"Distance":1610,"Routes":""},{"StopNo":50936,"Name":"EB E HASTINGS ST FS JACKSON AVE","BayNo":"N","City":"VANCOUVER","OnStreet":"E HASTINGS ST","AtStreet":"JACKSON AVE","Latitude":49.281112,"Longitude":-123.092955,"WheelchairAccess":1,"Distance":1613,"Routes":"014, 016, 020, N20, N35"},{"StopNo":59292,"Name":"SB FRASER ST NS E 19 AVE","BayNo":"N","City":"VANCOUVER","OnStreet":"FRASER ST","AtStreet":"E 19 AVE","Latitude":49.253864,"Longitude":-123.090092,"WheelchairAccess":1,"Distance":1615,"Routes":"008, N8"},{"StopNo":51356,"Name":"NB CLARK DR FS E 1 AVE","BayNo":"N","City":"VANCOUVER","OnStreet":"CLARK DR","AtStreet":"E 1 AVE","Latitude":49.269991,"Longitude":-123.077215,"WheelchairAccess":1,"Distance":1615,"Routes":"022"},{"StopNo":50506,"Name":"WB E HASTINGS ST FS JACKSON AVE","BayNo":"N","City":"VANCOUVER","OnStreet":"E HASTINGS ST","AtStreet":"JACKSON AVE","Latitude":49.281321,"Longitude":-123.093904,"WheelchairAccess":1,"Distance":1618,"Routes":"014, 016, 020, N20, N35"},{"StopNo":60227,"Name":"WB VENABLES ST NS RAYMUR AVE","BayNo":"","City":"VANCOUVER","OnStreet":"VENABLES ST","AtStreet":"RAYMUR AVE","Latitude":49.276883,"Longitude":-123.082278,"WheelchairAccess":1,"Distance":1627,"Routes":""},{"StopNo":51286,"Name":"SB CLARK DR FS GRANT ST","BayNo":"N","City":"VANCOUVER","OnStreet":"CLARK DR","AtStreet":"GRANT ST","Latitude":49.271208,"Longitude":-123.077466,"WheelchairAccess":1,"Distance":1629,"Routes":"022"},{"StopNo":58529,"Name":"EB W PENDER ST FS ABBOTT ST","BayNo":"N","City":"VANCOUVER","OnStreet":"W PENDER ST","AtStreet":"ABBOTT ST","Latitude":49.280892,"Longitude":-123.106976,"WheelchairAccess":1,"Distance":1631,"Routes":"019, 022, N19"},{"StopNo":58235,"Name":"SB ABBOTT ST FS W PENDER ST","BayNo":"N","City":"VANCOUVER","OnStreet":"ABBOTT ST","AtStreet":"W PENDER ST","Latitude":49.280740,"Longitude":-123.107725,"WheelchairAccess":1,"Distance":1636,"Routes":"050"},{"StopNo":52905,"Name":"EB W HASTINGS ST NS CARRALL ST","BayNo":"N","City":"VANCOUVER","OnStreet":"W HASTINGS ST","AtStreet":"CARRALL ST","Latitude":49.281469,"Longitude":-123.104795,"WheelchairAccess":1,"Distance":1644,"Routes":"014, 016, 020, N20, N35"},{"StopNo":51350,"Name":"NB CLARK DR FS E BROADWAY","BayNo":"N","City":"VANCOUVER","OnStreet":"CLARK DR","AtStreet":"E BROADWAY","Latitude":49.262754,"Longitude":-123.077367,"WheelchairAccess":1,"Distance":1648,"Routes":"022"},{"StopNo":51290,"Name":"SB CLARK DR FS E BROADWAY","BayNo":"N","City":"VANCOUVER","OnStreet":"CLARK DR","AtStreet":"E BROADWAY","Latitude":49.262018,"Longitude":-123.077730,"WheelchairAccess":1,"Distance":1649,"Routes":"022"},{"StopNo":50244,"Name":"SB MAIN ST FS E 20 AVE","BayNo":"N","City":"VANCOUVER","OnStreet":"MAIN ST","AtStreet":"E 20 AVE","Latitude":49.252395,"Longitude":-123.101095,"WheelchairAccess":1,"Distance":1649,"Routes":"003"},{"StopNo":50505,"Name":"WB E HASTINGS ST FS PRINCESS AVE","BayNo":"N","City":"VANCOUVER","OnStreet":"E HASTINGS ST","AtStreet":"PRINCESS AVE","Latitude":49.281282,"Longitude":-123.092019,"WheelchairAccess":1,"Distance":1651,"Routes":"014, 016, 020, N20, N35"},{"StopNo":61121,"Name":"WB W 16 AVE FS CAMBIE ST","BayNo":"N","City":"VANCOUVER","OnStreet":"W 16 AVE","AtStreet":"CAMBIE ST","Latitude":49.257005,"Longitude":-123.115680,"WheelchairAccess":1,"Distance":1653,"Routes":"033"},{"StopNo":50779,"Name":"SB FRASER ST FS E 19 AVE","BayNo":"N","City":"VANCOUVER","OnStreet":"FRASER ST","AtStreet":"E 19 AVE","Latitude":49.253480,"Longitude":-123.090130,"WheelchairAccess":1,"Distance":1654,"Routes":""},{"StopNo":50937,"Name":"EB E HASTINGS ST FS PRINCESS AVE","BayNo":"N","City":"VANCOUVER","OnStreet":"E HASTINGS ST","AtStreet":"PRINCESS AVE","Latitude":49.281081,"Longitude":-123.090971,"WheelchairAccess":1,"Distance":1655,"Routes":"014, 016, 020, N20, N35"},{"StopNo":50411,"Name":"EB NELSON ST FS CAMBIE ST","BayNo":"N","City":"VANCOUVER","OnStreet":"NELSON ST","AtStreet":"CAMBIE ST","Latitude":49.275788,"Longitude":-123.117719,"WheelchairAccess":1,"Distance":1660,"Routes":"017, N15"},{"StopNo":60356,"Name":"LARWILL PARK LAYOVER ONLY--","BayNo":"N","City":"VANCOUVER","OnStreet":"LARWILL PARK","AtStreet":"LAYOVER ONLY","Latitude":49.279812,"Longitude":-123.111266,"WheelchairAccess":-1,"Distance":1662,"Routes":""},{"StopNo":50485,"Name":"WB SMITHE ST NS CAMBIE ST","BayNo":"N","City":"VANCOUVER","OnStreet":"SMITHE ST","AtStreet":"CAMBIE ST","Latitude":49.277050,"Longitude":-123.116260,"WheelchairAccess":1,"Distance":1664,"Routes":""},{"StopNo":51357,"Name":"NB CLARK DR FS GRANT ST","BayNo":"N","City":"VANCOUVER","OnStreet":"CLARK DR","AtStreet":"GRANT ST","Latitude":49.271749,"Longitude":-123.077197,"WheelchairAccess":1,"Distance":1665,"Routes":"022"},{"StopNo":50415,"Name":"SB CAMBIE ST FS W 16 AVE","BayNo":"N","City":"VANCOUVER","OnStreet":"CAMBIE ST","AtStreet":"W 16 AVE","Latitude":49.256555,"Longitude":-123.115252,"WheelchairAccess":1,"Distance":1666,"Routes":"015, 033, N15"},{"StopNo":50425,"Name":"EB E CORDOVA ST FS MAIN ST","BayNo":"N","City":"VANCOUVER","OnStreet":"E CORDOVA ST","AtStreet":"MAIN ST","Latitude":49.282203,"Longitude":-123.098943,"WheelchairAccess":1,"Distance":1672,"Routes":"004, 007, 209, 210, 211, 214"},{"StopNo":50873,"Name":"EB W BROADWAY FS WILLOW  ST","BayNo":"N","City":"VANCOUVER","OnStreet":"W BROADWAY","AtStreet":"WILLOW ST","Latitude":49.263230,"Longitude":-123.121293,"WheelchairAccess":1,"Distance":1672,"Routes":"009, N9"},{"StopNo":50228,"Name":"EB E CORDOVA ST NS MAIN ST","BayNo":"N","City":"VANCOUVER","OnStreet":"E CORDOVA ST","AtStreet":"MAIN ST","Latitude":49.282229,"Longitude":-123.099988,"WheelchairAccess":1,"Distance":1677,"Routes":"003, 008, N8"},{"StopNo":60104,"Name":"NB CAMBIE ST FS ROBSON ST","BayNo":"N","City":"VANCOUVER","OnStreet":"CAMBIE ST","AtStreet":"ROBSON ST","Latitude":49.278318,"Longitude":-123.114655,"WheelchairAccess":1,"Distance":1679,"Routes":"006"},{"StopNo":60223,"Name":"NB FRASER ST FS E 20 AVE","BayNo":"","City":"VANCOUVER","OnStreet":"FRASER ST","AtStreet":"E 20 AVE","Latitude":49.253266,"Longitude":-123.089851,"WheelchairAccess":1,"Distance":1683,"Routes":"008, N8"},{"StopNo":50186,"Name":"WB W HASTINGS ST FS CARRALL ST","BayNo":"N","City":"VANCOUVER","OnStreet":"W HASTINGS ST","AtStreet":"CARRALL ST","Latitude":49.281733,"Longitude":-123.105366,"WheelchairAccess":1,"Distance":1684,"Routes":"003, 008, 014, 016, 020, N20, N35, N8"},{"StopNo":51282,"Name":"EB VENABLES ST FS GLEN DR","BayNo":"N","City":"VANCOUVER","OnStreet":"VENABLES ST","AtStreet":"GLEN DR","Latitude":49.276727,"Longitude":-123.080955,"WheelchairAccess":1,"Distance":1689,"Routes":"022"},{"StopNo":61073,"Name":"SB CAMBIE ST FS ROBSON ST","BayNo":"N","City":"VANCOUVER","OnStreet":"CAMBIE ST","AtStreet":"ROBSON ST","Latitude":49.277999,"Longitude":-123.115404,"WheelchairAccess":1,"Distance":1691,"Routes":"006, 017, N15"},{"StopNo":60103,"Name":"NB CAMBIE ST FS NELSON ST","BayNo":"N","City":"VANCOUVER","OnStreet":"CAMBIE ST","AtStreet":"NELSON ST","Latitude":49.276256,"Longitude":-123.117748,"WheelchairAccess":1,"Distance":1692,"Routes":"006"},{"StopNo":60355,"Name":"LARWILL PARK LAYOVER ONLY-","BayNo":"N","City":"VANCOUVER","OnStreet":"LARWILL PARK","AtStreet":"LAYOVER ONLY","Latitude":49.279990,"Longitude":-123.111630,"WheelchairAccess":-1,"Distance":1693,"Routes":""},{"StopNo":50426,"Name":"EB E CORDOVA ST FS DUNLEVY AVE","BayNo":"N","City":"VANCOUVER","OnStreet":"E CORDOVA ST","AtStreet":"DUNLEVY AVE","Latitude":49.282136,"Longitude":-123.094846,"WheelchairAccess":1,"Distance":1693,"Routes":"004, 007, 209"},{"StopNo":60049,"Name":"SB CAMBIE ST NS NELSON ST","BayNo":"N","City":"VANCOUVER","OnStreet":"CAMBIE ST","AtStreet":"NELSON ST","Latitude":49.276601,"Longitude":-123.117499,"WheelchairAccess":1,"Distance":1701,"Routes":""},{"StopNo":59550,"Name":"NB CAMBIE ST FS W GEORGIA ST","BayNo":"1","City":"VANCOUVER","OnStreet":"CAMBIE ST","AtStreet":"W GEORGIA ST","Latitude":49.279637,"Longitude":-123.112669,"WheelchairAccess":1,"Distance":1703,"Routes":""},{"StopNo":50885,"Name":"EB E BROADWAY FS CLARK DR-","BayNo":"N","City":"VANCOUVER","OnStreet":"E BROADWAY","AtStreet":"CLARK DR","Latitude":49.262269,"Longitude":-123.076797,"WheelchairAccess":1,"Distance":1704,"Routes":"009, N9"},{"StopNo":50082,"Name":"SB CAMBIE ST FS W GEORGIA ST","BayNo":"N","City":"VANCOUVER","OnStreet":"CAMBIE ST","AtStreet":"W GEORGIA ST","Latitude":49.279172,"Longitude":-123.113635,"WheelchairAccess":1,"Distance":1704,"Routes":"006, 017, N15"},{"StopNo":50093,"Name":"WB W PENDER ST FS ABBOTT ST","BayNo":"N","City":"VANCOUVER","OnStreet":"W PENDER ST","AtStreet":"ABBOTT ST","Latitude":49.281290,"Longitude":-123.108213,"WheelchairAccess":1,"Distance":1706,"Routes":"004, 007, 019, 022, 209, N19"},{"StopNo":60301,"Name":"NB CAMBIE ST NS DUNSMUIR ST","BayNo":"N","City":"VANCOUVER","OnStreet":"CAMBIE ST","AtStreet":"DUNSMUIR ST","Latitude":49.279760,"Longitude":-123.112480,"WheelchairAccess":0,"Distance":1706,"Routes":""},{"StopNo":59914,"Name":"WB PACIFIC BLVD FS CAMBIE ST","BayNo":"N","City":"VANCOUVER","OnStreet":"PACIFIC BLVD","AtStreet":"CAMBIE ST","Latitude":49.274606,"Longitude":-123.119683,"WheelchairAccess":1,"Distance":1711,"Routes":"023"},{"StopNo":60102,"Name":"SB CAMBIE ST FS NELSON ST","BayNo":"N","City":"VANCOUVER","OnStreet":"CAMBIE ST","AtStreet":"NELSON ST","Latitude":49.275952,"Longitude":-123.118424,"WheelchairAccess":1,"Distance":1712,"Routes":"006"},{"StopNo":59468,"Name":"EB W HASTINGS FS ABBOTT ST","BayNo":"N","City":"VANCOUVER","OnStreet":"W HASTINGS","AtStreet":"ABBOTT ST","Latitude":49.281790,"Longitude":-123.106526,"WheelchairAccess":1,"Distance":1714,"Routes":"014, 016, 020, N20, N35"},{"StopNo":60342,"Name":"SB CAMBIE ST NS W GEORGIA ST","BayNo":"N","City":"VANCOUVER","OnStreet":"CAMBIE ST","AtStreet":"W GEORGIA ST","Latitude":49.279676,"Longitude":-123.112876,"WheelchairAccess":1,"Distance":1715,"Routes":""},{"StopNo":60417,"Name":"WB W 12 AVE FS HEATHER ST","BayNo":"N","City":"VANCOUVER","OnStreet":"W 12TH AVE","AtStreet":"HEATHER ST","Latitude":49.260557,"Longitude":-123.120410,"WheelchairAccess":1,"Distance":1715,"Routes":"017"},{"StopNo":60416,"Name":"EB W 12 AVE NS HEATHER ST","BayNo":"N","City":"VANCOUVER","OnStreet":"W 12TH AVE","AtStreet":"HEATHER ST","Latitude":49.260394,"Longitude":-123.120306,"WheelchairAccess":1,"Distance":1716,"Routes":"017"},{"StopNo":60302,"Name":"NB CAMBIE ST NS DUNSMUIR ST","BayNo":"2","City":"VANCOUVER","OnStreet":"CAMBIE ST","AtStreet":"DUNSMUIR ST","Latitude":49.280182,"Longitude":-123.111842,"WheelchairAccess":1,"Distance":1720,"Routes":"005"},{"StopNo":50227,"Name":"EB E CORDOVA ST FS CARRALL ST","BayNo":"N","City":"VANCOUVER","OnStreet":"E CORDOVA ST","AtStreet":"CARRALL ST","Latitude":49.282323,"Longitude":-123.103816,"WheelchairAccess":1,"Distance":1721,"Routes":""},{"StopNo":61074,"Name":"SB MAIN ST FS POWELL ST ","BayNo":"N","City":"VANCOUVER","OnStreet":"MAIN ST","AtStreet":"POWELL ST","Latitude":49.282699,"Longitude":-123.099733,"WheelchairAccess":1,"Distance":1728,"Routes":"004, 007, 209"},{"StopNo":51285,"Name":"SB CLARK DR FS WILLIAM ST","BayNo":"N","City":"VANCOUVER","OnStreet":"CLARK DR","AtStreet":"WILLIAM ST","Latitude":49.273780,"Longitude":-123.077420,"WheelchairAccess":1,"Distance":1733,"Routes":"022"},{"StopNo":50427,"Name":"EB E CORDOVA ST NS PRINCESS AVE","BayNo":"N","City":"VANCOUVER","OnStreet":"E CORDOVA ST","AtStreet":"PRINCESS AVE","Latitude":49.282070,"Longitude":-123.091703,"WheelchairAccess":1,"Distance":1741,"Routes":"004, 007, 209"},{"StopNo":53392,"Name":"WB W HASTINGS ST NS ABBOTT ST","BayNo":"N","City":"VANCOUVER","OnStreet":"W HASTINGS ST","AtStreet":"ABBOTT ST","Latitude":49.282004,"Longitude":-123.106840,"WheelchairAccess":1,"Distance":1744,"Routes":"R5"},{"StopNo":60492,"Name":"EB CORDOVA ST NS CARRALL ST","BayNo":"N","City":"VANCOUVER","OnStreet":"W CORDOVA ST","AtStreet":"CARRALL ST","Latitude":49.282442,"Longitude":-123.104634,"WheelchairAccess":1,"Distance":1746,"Routes":"003, 004, 007, 008, 209, 210, 211, 214, N8"},{"StopNo":51139,"Name":"EB KINGSWAY FS SAINT CATHERINES ST","BayNo":"N","City":"VANCOUVER","OnStreet":"KINGSWAY","AtStreet":"SAINT CATHERINES ST","Latitude":49.254367,"Longitude":-123.085052,"WheelchairAccess":1,"Distance":1748,"Routes":"019, N19"},{"StopNo":51349,"Name":"NB CLARK DR NS E 11 AVE","BayNo":"N","City":"VANCOUVER","OnStreet":"CLARK DR","AtStreet":"E 11 AVE","Latitude":49.260268,"Longitude":-123.077343,"WheelchairAccess":1,"Distance":1752,"Routes":"022"},{"StopNo":59837,"Name":"NB MAIN ST FS E 22 AVE","BayNo":"N","City":"VANCOUVER","OnStreet":"MAIN ST","AtStreet":"E 22 AVE","Latitude":49.251452,"Longitude":-123.100866,"WheelchairAccess":1,"Distance":1752,"Routes":"003"},{"StopNo":50081,"Name":"SB CAMBIE ST NS DUNSMUIR ST","BayNo":"N","City":"VANCOUVER","OnStreet":"CAMBIE ST","AtStreet":"DUNSMUIR ST","Latitude":49.280808,"Longitude":-123.111146,"WheelchairAccess":1,"Distance":1753,"Routes":"006, N15, N24"},{"StopNo":50016,"Name":"YALETOWN-ROUNDHOUSE STN BAY 4","BayNo":"4","City":"VANCOUVER","OnStreet":"YALETOWN-ROUNDHOUSE STN","AtStreet":"BAY 4","Latitude":49.274036,"Longitude":-123.120842,"WheelchairAccess":1,"Distance":1756,"Routes":"023"},{"StopNo":50932,"Name":"EB W HASTINGS ST NS ABBOTT ST","BayNo":"N","City":"VANCOUVER","OnStreet":"W HASTINGS ST","AtStreet":"ABBOTT ST","Latitude":49.281980,"Longitude":-123.107590,"WheelchairAccess":1,"Distance":1760,"Routes":""},{"StopNo":50504,"Name":"WB E HASTINGS ST FS HAWKS AVE","BayNo":"N","City":"VANCOUVER","OnStreet":"E HASTINGS ST","AtStreet":"HAWKS AVE","Latitude":49.281200,"Longitude":-123.087667,"WheelchairAccess":1,"Distance":1766,"Routes":"014, 016, 020, N20, N35"},{"StopNo":51360,"Name":"WB VENABLES ST FS VERNON DR","BayNo":"N","City":"VANCOUVER","OnStreet":"VENABLES ST","AtStreet":"VERNON DR","Latitude":49.276868,"Longitude":-123.079737,"WheelchairAccess":0,"Distance":1768,"Routes":"022"},{"StopNo":60369,"Name":"WB W GEORGIA ST NS HAMILTON ST","BayNo":"N","City":"VANCOUVER","OnStreet":"W GEORGIA ST","AtStreet":"HAMILTON ST","Latitude":49.279826,"Longitude":-123.113802,"WheelchairAccess":1,"Distance":1769,"Routes":"240, 241, 246, 247, 250, 253, 254, N24"},{"StopNo":50478,"Name":"NB CAMBIE ST FS W 18 AVE","BayNo":"N","City":"VANCOUVER","OnStreet":"CAMBIE ST","AtStreet":"W 18 AVE","Latitude":49.255125,"Longitude":-123.115019,"WheelchairAccess":1,"Distance":1771,"Routes":"015, 033, N15"},{"StopNo":51358,"Name":"NB CLARK DR FS WILLIAM ST","BayNo":"N","City":"VANCOUVER","OnStreet":"CLARK DR","AtStreet":"WILLIAM ST","Latitude":49.274264,"Longitude":-123.077153,"WheelchairAccess":1,"Distance":1774,"Routes":"022"},{"StopNo":51291,"Name":"SB CLARK DR FS E 12 AVE","BayNo":"N","City":"VANCOUVER","OnStreet":"CLARK DR","AtStreet":"E 12 AVE","Latitude":49.259354,"Longitude":-123.077691,"WheelchairAccess":1,"Distance":1777,"Routes":"022"},{"StopNo":50938,"Name":"EB E HASTINGS ST FS HAWKS AVE","BayNo":"N","City":"VANCOUVER","OnStreet":"E HASTINGS ST","AtStreet":"HAWKS AVE","Latitude":49.281005,"Longitude":-123.086654,"WheelchairAccess":1,"Distance":1782,"Routes":"014, 016, 020, N20, N35"},{"StopNo":50516,"Name":"WB POWELL ST FS GORE AVE","BayNo":"N","City":"VANCOUVER","OnStreet":"POWELL ST","AtStreet":"GORE AVE","Latitude":49.283223,"Longitude":-123.098134,"WheelchairAccess":1,"Distance":1787,"Routes":"004, 007, 209"},{"StopNo":59558,"Name":"WB DUNSMUIR ST FS CAMBIE ST","BayNo":"N","City":"VANCOUVER","OnStreet":"DUNSMUIR ST","AtStreet":"CAMBIE ST","Latitude":49.280837,"Longitude":-123.112004,"WheelchairAccess":1,"Distance":1787,"Routes":"257"},{"StopNo":50517,"Name":"WB POWELL ST FS MAIN ST","BayNo":"N","City":"VANCOUVER","OnStreet":"POWELL ST","AtStreet":"MAIN ST","Latitude":49.283270,"Longitude":-123.100110,"WheelchairAccess":1,"Distance":1793,"Routes":""},{"StopNo":50187,"Name":"WB W HASTINGS ST FS ABBOTT ST","BayNo":"N","City":"VANCOUVER","OnStreet":"W HASTINGS ST","AtStreet":"ABBOTT ST","Latitude":49.282221,"Longitude":-123.108043,"WheelchairAccess":1,"Distance":1797,"Routes":"003, 008, 014, 016, 020, N20, N35, N8"},{"StopNo":58125,"Name":"EB W CORDOVA ST FS ABBOTT ST","BayNo":"N","City":"VANCOUVER","OnStreet":"W CORDOVA ST","AtStreet":"ABBOTT ST","Latitude":49.282714,"Longitude":-123.106060,"WheelchairAccess":1,"Distance":1802,"Routes":""},{"StopNo":60336,"Name":"EB E CORDOVA ST FS HEATLEY AVE","BayNo":"N","City":"VANCOUVER","OnStreet":"E CORDOVA ST","AtStreet":"HEATLEY AVE","Latitude":49.282020,"Longitude":-123.089076,"WheelchairAccess":1,"Distance":1803,"Routes":"004, 007, 209"},{"StopNo":51195,"Name":"WB KINGSWAY FS WINDSOR ST","BayNo":"N","City":"VANCOUVER","OnStreet":"KINGSWAY","AtStreet":"WINDSOR ST","Latitude":49.254147,"Longitude":-123.084079,"WheelchairAccess":1,"Distance":1810,"Routes":"019, N19"},{"StopNo":61870,"Name":"SB HAMILTON ST NS W GEORGIA ST","BayNo":"N","City":"VANCOUVER","OnStreet":"HAMILTON ST","AtStreet":"W GEORGIA ST","Latitude":49.280275,"Longitude":-123.113845,"WheelchairAccess":1,"Distance":1810,"Routes":""},{"StopNo":50038,"Name":"WB POWELL ST FS COLUMBIA ST","BayNo":"N","City":"VANCOUVER","OnStreet":"POWELL ST","AtStreet":"COLUMBIA ST","Latitude":49.283285,"Longitude":-123.102896,"WheelchairAccess":1,"Distance":1814,"Routes":"050"},{"StopNo":59513,"Name":"EB W GEORGIA ST NS HAMILTON ST","BayNo":"N","City":"VANCOUVER","OnStreet":"W GEORGIA ST","AtStreet":"HAMILTON ST","Latitude":49.280019,"Longitude":-123.114489,"WheelchairAccess":1,"Distance":1816,"Routes":""},{"StopNo":52712,"Name":"EB W HASTINGS ST NS ABBOTT ST","BayNo":"N","City":"VANCOUVER","OnStreet":"W HASTINGS ST","AtStreet":"ABBOTT ST","Latitude":49.282214,"Longitude":-123.108834,"WheelchairAccess":1,"Distance":1818,"Routes":"R5"},{"StopNo":50515,"Name":"WB POWELL ST FS JACKSON AVE","BayNo":"N","City":"VANCOUVER","OnStreet":"POWELL ST","AtStreet":"JACKSON AVE","Latitude":49.283146,"Longitude":-123.093725,"WheelchairAccess":1,"Distance":1819,"Routes":"004, 007, 209"},{"StopNo":61871,"Name":"SB HAMILTON ST FS DUNSMUIR ST","BayNo":"N","City":"VANCOUVER","OnStreet":"HAMILTON ST","AtStreet":"DUNSMUIR ST","Latitude":49.280661,"Longitude":-123.113264,"WheelchairAccess":1,"Distance":1821,"Routes":""},{"StopNo":50416,"Name":"SB CAMBIE ST FS W 18 AVE","BayNo":"N","City":"VANCOUVER","OnStreet":"CAMBIE ST","AtStreet":"W 18 AVE","Latitude":49.254674,"Longitude":-123.115282,"WheelchairAccess":1,"Distance":1821,"Routes":"015, 033, N15"},{"StopNo":50622,"Name":"WB ROBSON ST FS HAMILTON ST","BayNo":"N","City":"VANCOUVER","OnStreet":"ROBSON ST","AtStreet":"HAMILTON ST","Latitude":49.279145,"Longitude":-123.116259,"WheelchairAccess":1,"Distance":1826,"Routes":"017, N15"},{"StopNo":51284,"Name":"SB CLARK DR FS PARKER ST","BayNo":"N","City":"VANCOUVER","OnStreet":"CLARK DR","AtStreet":"PARKER ST","Latitude":49.275523,"Longitude":-123.077375,"WheelchairAccess":0,"Distance":1827,"Routes":"022"},{"StopNo":50080,"Name":"EB W PENDER ST FS HAMILTON ST","BayNo":"N","City":"VANCOUVER","OnStreet":"W PENDER ST","AtStreet":"HAMILTON ST","Latitude":49.281799,"Longitude":-123.110618,"WheelchairAccess":1,"Distance":1831,"Routes":"005, 017, 019, 022, N15, N19, N24"},{"StopNo":50245,"Name":"SB MAIN ST FS E 22 AVE","BayNo":"N","City":"VANCOUVER","OnStreet":"MAIN ST","AtStreet":"E 22 AVE","Latitude":49.250676,"Longitude":-123.101089,"WheelchairAccess":1,"Distance":1839,"Routes":"003"},{"StopNo":50780,"Name":"SB FRASER ST FS E 21 AVE","BayNo":"N","City":"VANCOUVER","OnStreet":"FRASER ST","AtStreet":"E 21 AVE","Latitude":49.251620,"Longitude":-123.090186,"WheelchairAccess":1,"Distance":1844,"Routes":"008, N8"},{"StopNo":51283,"Name":"EB VENABLES ST FS VERNON DR","BayNo":"N","City":"VANCOUVER","OnStreet":"VENABLES ST","AtStreet":"VERNON DR","Latitude":49.276697,"Longitude":-123.078250,"WheelchairAccess":0,"Distance":1844,"Routes":"022"},{"StopNo":50410,"Name":"SB CAMBIE ST FS W HASTINGS ST","BayNo":"N","City":"VANCOUVER","OnStreet":"CAMBIE ST","AtStreet":"W HASTINGS ST","Latitude":49.282211,"Longitude":-123.109799,"WheelchairAccess":1,"Distance":1846,"Routes":"004, 019, 050"},{"StopNo":50503,"Name":"WB E HASTINGS ST FS CAMPBELL AVE","BayNo":"N","City":"VANCOUVER","OnStreet":"E HASTINGS ST","AtStreet":"CAMPBELL AVE","Latitude":49.281155,"Longitude":-123.085249,"WheelchairAccess":1,"Distance":1850,"Routes":"014, 016, 020, N20, N35"},{"StopNo":60348,"Name":"EB W GEORGIA ST FS HOMER ST","BayNo":"N","City":"VANCOUVER","OnStreet":"W GEORGIA ST","AtStreet":"HOMER ST","Latitude":49.280236,"Longitude":-123.114837,"WheelchairAccess":1,"Distance":1851,"Routes":""},{"StopNo":50037,"Name":"EB W CORDOVA ST NS ABBOTT ST","BayNo":"N","City":"VANCOUVER","OnStreet":"W CORDOVA ST","AtStreet":"ABBOTT ST","Latitude":49.282943,"Longitude":-123.107243,"WheelchairAccess":1,"Distance":1853,"Routes":""},{"StopNo":60346,"Name":"WB W GEORGIA ST NS HOMER ST","BayNo":"N","City":"VANCOUVER","OnStreet":"W GEORGIA ST","AtStreet":"HOMER ST","Latitude":49.280458,"Longitude":-123.114778,"WheelchairAccess":1,"Distance":1867,"Routes":""},{"StopNo":51359,"Name":"WB VENABLES ST FS CLARK DR","BayNo":"N","City":"VANCOUVER","OnStreet":"VENABLES ST","AtStreet":"CLARK DR","Latitude":49.276842,"Longitude":-123.077921,"WheelchairAccess":1,"Distance":1873,"Routes":"022"},{"StopNo":50939,"Name":"EB E HASTINGS ST FS CAMPBELL AVE","BayNo":"N","City":"VANCOUVER","OnStreet":"E HASTINGS ST","AtStreet":"CAMPBELL AVE","Latitude":49.280957,"Longitude":-123.084231,"WheelchairAccess":1,"Distance":1873,"Routes":"014, 016, 020, N20, N35"},{"StopNo":51292,"Name":"SB CLARK DR NS E 14 AVE","BayNo":"N","City":"VANCOUVER","OnStreet":"CLARK DR","AtStreet":"E 14 AVE","Latitude":49.257940,"Longitude":-123.077420,"WheelchairAccess":1,"Distance":1875,"Routes":""},{"StopNo":61933,"Name":"EB CORDOVA DIVERSION FS HAWKS AVE","BayNo":"N","City":"VANCOUVER","OnStreet":"CORDOVA DIVERSION","AtStreet":"HAWKS AVE","Latitude":49.282052,"Longitude":-123.086717,"WheelchairAccess":1,"Distance":1882,"Routes":"004, 007, 209"},{"StopNo":50841,"Name":"NB FRASER ST FS E 22 AVE","BayNo":"N","City":"VANCOUVER","OnStreet":"FRASER ST","AtStreet":"E 22 AVE","Latitude":49.251282,"Longitude":-123.089924,"WheelchairAccess":1,"Distance":1886,"Routes":"008, N8"},{"StopNo":50514,"Name":"WB POWELL ST FS HEATLEY AVE","BayNo":"N","City":"VANCOUVER","OnStreet":"POWELL ST","AtStreet":"HEATLEY AVE","Latitude":49.283076,"Longitude":-123.089941,"WheelchairAccess":1,"Distance":1889,"Routes":"004, 007, 209"},{"StopNo":54606,"Name":"NB HOMER ST FS W GEORGIA ST","BayNo":"N","City":"VANCOUVER","OnStreet":"HOMER ST","AtStreet":"W GEORGIA ST","Latitude":49.280858,"Longitude":-123.114696,"WheelchairAccess":1,"Distance":1899,"Routes":""},{"StopNo":58267,"Name":"NB HOMER ST NS DUNSMUIR ST","BayNo":"N","City":"VANCOUVER","OnStreet":"HOMER ST","AtStreet":"DUNSMUIR ST","Latitude":49.281337,"Longitude":-123.113897,"WheelchairAccess":1,"Distance":1909,"Routes":""},{"StopNo":61122,"Name":"WB W 16 AVE FS HEATHER ST","BayNo":"N","City":"VANCOUVER","OnStreet":"W 16 AVE","AtStreet":"HEATHER ST","Latitude":49.257062,"Longitude":-123.120455,"WheelchairAccess":1,"Distance":1917,"Routes":"033"},{"StopNo":58266,"Name":"EB W GEORGIA ST NS HOMER ST--","BayNo":"N","City":"VANCOUVER","OnStreet":"W GEORGIA ST","AtStreet":"HOMER ST","Latitude":49.280700,"Longitude":-123.115550,"WheelchairAccess":1,"Distance":1923,"Routes":""},{"StopNo":50094,"Name":"WB W PENDER ST FS HAMILTON ST","BayNo":"N","City":"VANCOUVER","OnStreet":"W PENDER ST","AtStreet":"HAMILTON ST","Latitude":49.282472,"Longitude":-123.111370,"WheelchairAccess":1,"Distance":1923,"Routes":"004, 005, 007, 019, 022, N19"},{"StopNo":50477,"Name":"NB CAMBIE ST FS W 20 AVE","BayNo":"N","City":"VANCOUVER","OnStreet":"CAMBIE ST","AtStreet":"W 20 AVE","Latitude":49.253243,"Longitude":-123.115102,"WheelchairAccess":1,"Distance":1937,"Routes":"015, 033, N15"},{"StopNo":54444,"Name":"WB W GEORGIA ST NS RICHARDS ST","BayNo":"N","City":"VANCOUVER","OnStreet":"W GEORGIA ST","AtStreet":"RICHARDS ST","Latitude":49.280921,"Longitude":-123.115491,"WheelchairAccess":1,"Distance":1940,"Routes":"240, 241, 246, 247, N24"},{"StopNo":50188,"Name":"WB W HASTINGS ST FS HAMILTON ST","BayNo":"N","City":"VANCOUVER","OnStreet":"W HASTINGS ST","AtStreet":"HAMILTON ST","Latitude":49.283085,"Longitude":-123.110279,"WheelchairAccess":1,"Distance":1949,"Routes":"003, 008, 014, 016, 020, N20, N35, N8"},{"StopNo":50513,"Name":"WB POWELL ST FS HAWKS AVE","BayNo":"N","City":"VANCOUVER","OnStreet":"POWELL ST","AtStreet":"HAWKS AVE","Latitude":49.283030,"Longitude":-123.087522,"WheelchairAccess":1,"Distance":1952,"Routes":"004, 007, 209"},{"StopNo":50931,"Name":"EB W HASTINGS ST FS HOMER ST","BayNo":"N","City":"VANCOUVER","OnStreet":"W HASTINGS ST","AtStreet":"HOMER ST","Latitude":49.283054,"Longitude":-123.110546,"WheelchairAccess":1,"Distance":1954,"Routes":"014, 016, 020, N20, N35"},{"StopNo":50428,"Name":"EB E CORDOVA ST NS POWELL ST","BayNo":"N","City":"VANCOUVER","OnStreet":"E CORDOVA ST","AtStreet":"POWELL ST","Latitude":49.282440,"Longitude":-123.085490,"WheelchairAccess":0,"Distance":1963,"Routes":""},{"StopNo":54473,"Name":"EB W GEORGIA ST FS RICHARDS ST","BayNo":"N","City":"VANCOUVER","OnStreet":"W GEORGIA ST","AtStreet":"RICHARDS ST","Latitude":49.280989,"Longitude":-123.115989,"WheelchairAccess":1,"Distance":1968,"Routes":"240, 241, 246, 247"},{"StopNo":50407,"Name":"NB HOMER ST FS W PENDER ST","BayNo":"N","City":"VANCOUVER","OnStreet":"HOMER ST","AtStreet":"W PENDER ST","Latitude":49.282981,"Longitude":-123.111441,"WheelchairAccess":1,"Distance":1975,"Routes":"014, 209, 210, 211, 214"},{"StopNo":59525,"Name":"WB WATER ST FS ABBOTT ST","BayNo":"N","City":"VANCOUVER","OnStreet":"WATER ST","AtStreet":"ABBOTT ST","Latitude":49.284110,"Longitude":-123.107364,"WheelchairAccess":1,"Distance":1979,"Routes":"050"},{"StopNo":61918,"Name":"SB RICHARDS ST NS ROBSON ST","BayNo":"N","City":"VANCOUVER","OnStreet":"RICHARDS ST","AtStreet":"ROBSON ST","Latitude":49.280299,"Longitude":-123.117674,"WheelchairAccess":1,"Distance":1990,"Routes":"020"},{"StopNo":50417,"Name":"SB CAMBIE ST FS W 20 AVE","BayNo":"N","City":"VANCOUVER","OnStreet":"CAMBIE ST","AtStreet":"W 20 AVE","Latitude":49.252766,"Longitude":-123.115379,"WheelchairAccess":1,"Distance":1992,"Routes":"015, 033, N15"},{"StopNo":50502,"Name":"WB E HASTINGS ST FS GLEN DR","BayNo":"N","City":"VANCOUVER","OnStreet":"E HASTINGS ST","AtStreet":"GLEN DR","Latitude":49.281111,"Longitude":-123.081789,"WheelchairAccess":1,"Distance":1993,"Routes":"014, 016, 020, N20, N35"},{"StopNo":50036,"Name":"EB W CORDOVA ST FS HOMER ST","BayNo":"N","City":"VANCOUVER","OnStreet":"W CORDOVA ST","AtStreet":"HOMER ST","Latitude":49.283765,"Longitude":-123.109649,"WheelchairAccess":1,"Distance":2000,"Routes":"003, 004, 007, 008, 050, 209, 210, 211, 214, N8"}]