{
   "html_attributions" : [],
   "next_page_token" : "CvQD6gEAAHt0KgO0waoUDw5BAocKiGFnxwg2C1zKYZICyB9AH4-D9OBydmgp4xX5aYY6j3dFxqhtEtQRaUZXExQyD50dClGge6-Teeb5tKJs4gEPaE1KEbPy9EkJWNtu2lEi9EA6MtKYu-DKwxIEMk0mIAZd21Jfzi3_am7WaynkV0l5ctsczZeWswemTbYIEZJHRp2fDnGEROof3_NPZdgv8n3YK1m-VCJDO-amLbAx1W-gdu0s-Y-mTD5ggJBMsflf6Wh5zNXm06onjqdjzWiZC7KxDv1Y0DbSFFF2HjbjEG9EAGCcxI19ZT6r_0947wK9vGYwEYjDz8G0u7QLO3pLrDrfJiWJWoxMuVK3J1f79xHuRnzSLNYlz_QW34ZsZTWSjiLAyHFY6NVgmAadY5gHeuPFlJ_oGX_J3F0gVRshQgDGUnw651lZeFarVJqTvs696N2qqQnjGzeij5_z_mBu8zjayFvpg06H0f7HhoHn7npCTVUiryr6rBQdh06EPIEYKWgS_BHL6_jc2npnEzkqkbwFDCBMzBBjFl7Nc91zD6tVP8VVl59T4CVkIPqzklC63BYsVf7nfKnAs5nq38oeXxYEHK579mjRx7numy6kFkCoyUlhv3dBP5lmCnNNYC9waqVCPwdo4HCjFI-4S5dMMDbjx40SEBeUNhv77Hog0VIloVBihEEaFGR88Ok0kqqlbj_n6RuM2aRAsLbN",
   "results" : [
      {
         "geometry" : {
            "location" : {
               "lat" : 43.61425699999999,
               "lng" : -79.53279599999999
            },
            "viewport" : {
               "northeast" : {
                  "lat" : 43.6156059802915,
                  "lng" : -79.53144701970848
               },
               "southwest" : {
                  "lat" : 43.6129080197085,
                  "lng" : -79.5341449802915
               }
            }
         },
         "icon" : "https://maps.gstatic.com/mapfiles/place_api/icons/bus-71.png",
         "id" : "002c93445d7417d843523a589373b52d0422ec88",
         "name" : "Evans Ave at Bellman Ave East Side",
         "place_id" : "ChIJLz7cyCBIK4gR2WIB2BvqiRw",
         "reference" : "CmRRAAAARPXWSDEsFfCmKWmWOC8KLiqnHK9TixpCePw5LIEge6c4TGx79OeP008CzT7EWb461c6p0p_t3V6QQyvuPJbGD4NDacUq6bmrbywY57byuqLu9GyoHs3zD5hm2HylmVuOEhASQrff-7AZXjqRkTR5m355GhSFPzotCXFzdwSrgR7zerZlI4kZpg",
         "scope" : "GOOGLE",
         "types" : [
            "bus_station",
            "transit_station",
            "point_of_interest",
            "establishment"
         ],
         "vicinity" : "Canada"
      },
      {
         "geometry" : {
            "location" : {
               "lat" : 43.614303,
               "lng" : -79.53316699999999
            },
            "viewport" : {
               "northeast" : {
                  "lat" : 43.6156519802915,
                  "lng" : -79.53181801970848
               },
               "southwest" : {
                  "lat" : 43.6129540197085,
                  "lng" : -79.5345159802915
               }
            }
         },
         "icon" : "https://maps.gstatic.com/mapfiles/place_api/icons/bus-71.png",
         "id" : "ae0504ce6bd5c35ed000c96df192e8fe9ada8d4f",
         "name" : "Evans Ave at Bellman Ave",
         "place_id" : "ChIJla-SxiBIK4gR6wz-qV2QzG4",
         "reference" : "CmRRAAAAFKY1XvmcKt_SCMVqtLFgC6rQQ5Cz0Mrebau2XYxwWroqPFa-OZHzs6GnlJh1FUOc8gIspnsZd_-LsmssjDPqdaPLdYjGDWcmoI38CYOKMiNqa4y6hqEiOUAK_vgexuxDEhCCklYJ-2gbpI4cViVerHtPGhRh0tdTgScaKL9envcTZlqTO_uKYA",
         "scope" : "GOOGLE",
         "types" : [
            "bus_station",
            "transit_station",
            "point_of_interest",
            "establishment"
         ],
         "vicinity" : "Canada"
      },
      {
         "geometry" : {
            "location" : {
               "lat" : 43.614945,
               "lng" : -79.530287
            },
            "viewport" : {
               "northeast" : {
                  "lat" : 43.6162939802915,
                  "lng" : -79.52893801970851
               },
               "southwest" : {
                  "lat" : 43.6135960197085,
                  "lng" : -79.53163598029151
               }
            }
         },
         "icon" : "https://maps.gstatic.com/mapfiles/place_api/icons/bus-71.png",
         "id" : "b47de9dad489b4b19cd6b0c5012fecb41adebfde",
         "name" : "Evans Ave at Wickman Rd West Side",
         "photos" : [
            {
               "height" : 1575,
               "html_attributions" : [
                  "\u003ca href=\"https://maps.google.com/maps/contrib/117494879272789185569/photos\"\u003eRobert Bisson\u003c/a\u003e"
               ],
               "photo_reference" : "CmRaAAAA3WrurV7wI1SK89aoA463XpvK7cnr3OBT41dHm3oCmgSUIYaaTpMIhnkyOJXnneDjVGd1uEjY33IPf4ph7OkD93YpKxAwstavNRmBR713t8-CLbZKVnlZPSRurx8-H4-FEhCNIsBZ0nHqLjWbaR36b9HUGhTsvLuYrQwJPQi1_JLXORcE-RDqpA",
               "width" : 3175
            }
         ],
         "place_id" : "ChIJ4wsMZSdIK4gRgPt2DfNSUNw",
         "reference" : "CmRSAAAA3pp-tmJ_p0aVwrqEep94e2Vx3cUl8Oth2ll1g_Lvy3iwlShZ0ck6PU1Wiyk6OaVnAIYbFIn0tpAvoBPio_vZHuN7kBpUDA4clyddqEjv2P7f-SUWMkT4vWmA5Jsf3ImhEhDKx7KgPg_rJSKMGoDl8DfjGhSND4Qy9NjzYdUBR5ZNSz3T3wy-KQ",
         "scope" : "GOOGLE",
         "types" : [
            "bus_station",
            "transit_station",
            "point_of_interest",
            "establishment"
         ],
         "vicinity" : "Canada"
      },
      {
         "geometry" : {
            "location" : {
               "lat" : 43.61484099999999,
               "lng" : -79.530185
            },
            "viewport" : {
               "northeast" : {
                  "lat" : 43.61618998029149,
                  "lng" : -79.52883601970851
               },
               "southwest" : {
                  "lat" : 43.6134920197085,
                  "lng" : -79.53153398029151
               }
            }
         },
         "icon" : "https://maps.gstatic.com/mapfiles/place_api/icons/bus-71.png",
         "id" : "cadd5be1a977bda7ece8e06dfc26ba66c909c7b7",
         "name" : "Evans Ave at Wickman Rd",
         "photos" : [
            {
               "height" : 1515,
               "html_attributions" : [
                  "\u003ca href=\"https://maps.google.com/maps/contrib/117494879272789185569/photos\"\u003eRobert Bisson\u003c/a\u003e"
               ],
               "photo_reference" : "CmRaAAAAoOw5NaX_M7_cggUCNCFh4Jib-KgUuolWIScspCk7Mr-xiugGINYl4GJo9C3wEesGX6kx6uf9YYtDygHxw5aFmgVGirQwnLVbznA5XSJnqZHUztnfEBpv9_Ug9vRdCuMnEhAjMOeyfHAhgUPDwwdpRg2rGhSgdwkT8dbu9xPh0G7ZlwuPp6r7Dg",
               "width" : 1824
            }
         ],
         "place_id" : "ChIJ2773bydIK4gRPMr0IPhJ8OA",
         "reference" : "CmRSAAAAt4zYcux01iy17XBpZmk05gNbNjdqLxTpetUT4IoGr64fMMVLFkUrrQ8tKqMNkw3D0riiuWVNT125oms-kv7nRt5AnZnFPddhl6uoJBk6hHVYlDjBvkRQHyvGpQmLoLqEEhB4CL2ckF2N3fNPgk8jGZE_GhTfJi-35Z50uFwddnxea9xINuQVMw",
         "scope" : "GOOGLE",
         "types" : [
            "bus_station",
            "transit_station",
            "point_of_interest",
            "establishment"
         ],
         "vicinity" : "Canada"
      },
      {
         "geometry" : {
            "location" : {
               "lat" : 43.61366899999999,
               "lng" : -79.535957
            },
            "viewport" : {
               "northeast" : {
                  "lat" : 43.61501798029149,
                  "lng" : -79.53460801970849
               },
               "southwest" : {
                  "lat" : 43.6123200197085,
                  "lng" : -79.53730598029151
               }
            }
         },
         "icon" : "https://maps.gstatic.com/mapfiles/place_api/icons/bus-71.png",
         "id" : "0c60e162e74bbf6ebd7818b1c124c50034d68a2d",
         "name" : "Evans Ave at TreeView Dr",
         "place_id" : "ChIJae7dTCBIK4gRKkcpOiHyVqM",
         "reference" : "CmRSAAAAGCMtsB53B_bnxOFuY64-JJlilbkJiNqMRHM8ngDcp_WjyV0mwpzpYju2BFqs8HqgZsQyotMPk30Ycfv-SbaGQ8EMm-YXceVYokGn-0PH8yEY1jMYJiRIXh2rZJhvB-hLEhDztiNtaUxEzVtNL5c6LTXiGhSjCzMW1dsNHGj8Vc8NZDlOOQi2Ug",
         "scope" : "GOOGLE",
         "types" : [
            "bus_station",
            "transit_station",
            "point_of_interest",
            "establishment"
         ],
         "vicinity" : "Canada"
      },
      {
         "geometry" : {
            "location" : {
               "lat" : 43.615359,
               "lng" : -79.52845499999999
            },
            "viewport" : {
               "northeast" : {
                  "lat" : 43.61670798029149,
                  "lng" : -79.5271060197085
               },
               "southwest" : {
                  "lat" : 43.6140100197085,
                  "lng" : -79.5298039802915
               }
            }
         },
         "icon" : "https://maps.gstatic.com/mapfiles/place_api/icons/bus-71.png",
         "id" : "18277041c6312432d0b00691672812f7040874b0",
         "name" : "400 Evans Ave",
         "place_id" : "ChIJv99qdtg3K4gRh-a_lZ4gbM0",
         "reference" : "CmRSAAAABzWuDDSxgiFNY8u8F9JhXDPCIwz6_iqcLRqwIpIzGIHxs-dpBPWt1WnpbI1YaxxcXnPyL8qtApPdWh-b83_Ca45LjQCxEh1dMPfcedPd4ID3LNE7SWlmcjuY0G3IamrHEhBtUPkDLhtedS1CT9eiVTCbGhQF27Ott-H2Gik-T9525HxSmrMbTw",
         "scope" : "GOOGLE",
         "types" : [
            "bus_station",
            "transit_station",
            "point_of_interest",
            "establishment"
         ],
         "vicinity" : "Canada"
      },
      {
         "geometry" : {
            "location" : {
               "lat" : 43.613428,
               "lng" : -79.536461
            },
            "viewport" : {
               "northeast" : {
                  "lat" : 43.6147769802915,
                  "lng" : -79.53511201970849
               },
               "southwest" : {
                  "lat" : 43.6120790197085,
                  "lng" : -79.53780998029151
               }
            }
         },
         "icon" : "https://maps.gstatic.com/mapfiles/place_api/icons/bus-71.png",
         "id" : "cde3d43cd50e36532ed223421c45284455da2eae",
         "name" : "Evans Ave at TreeView Dr",
         "place_id" : "ChIJ9W91yiFIK4gRiX1getxk5o8",
         "rating" : 5,
         "reference" : "CmRSAAAAOYwlVtsr-SQW0UJD4w35O4GPzXWm_laen7ktc1PeWeany4w9ho-MqMfL9B4AnGjTY9KEF_WMVtw43gjhAZFzYaWSETkbrhZwog9pLf-PT8ZxRfsx4k5gMxgHMZNEffO0EhBChBQFPHMuzrAY9P_iwNrIGhTXDwNGAfWx56UznzGWVdNqkVfBTQ",
         "scope" : "GOOGLE",
         "types" : [
            "bus_station",
            "transit_station",
            "point_of_interest",
            "establishment"
         ],
         "vicinity" : "Canada"
      },
      {
         "geometry" : {
            "location" : {
               "lat" : 43.615277,
               "lng" : -79.528216
            },
            "viewport" : {
               "northeast" : {
                  "lat" : 43.6166259802915,
                  "lng" : -79.52686701970849
               },
               "southwest" : {
                  "lat" : 43.6139280197085,
                  "lng" : -79.5295649802915
               }
            }
         },
         "icon" : "https://maps.gstatic.com/mapfiles/place_api/icons/bus-71.png",
         "id" : "68b626a1786f406eff0cb9c45fa76b0af7346429",
         "name" : "400 Evans Ave",
         "place_id" : "ChIJCdiDddg3K4gRCdVrQCWHUZI",
         "reference" : "CmRSAAAAUJhHHv2Auq6_FqcyAnNmJJl3qenu_kW-g0SL4TkqU2eIplYfT-Nr7WTvsjTdCHbUuYjnvhy2PeLuCLOuUPb9dVRTjIMqy5fmPlE8sWkPfqJ1ZYU-D7qT67qoT6ERrn60EhDgKHYolxR7WQzCpHtval3FGhS04TN9rT2K1kEzH66sE4enQk0SrA",
         "scope" : "GOOGLE",
         "types" : [
            "bus_station",
            "transit_station",
            "point_of_interest",
            "establishment"
         ],
         "vicinity" : "Canada"
      },
      {
         "geometry" : {
            "location" : {
               "lat" : 43.613066,
               "lng" : -79.53862699999999
            },
            "viewport" : {
               "northeast" : {
                  "lat" : 43.6144149802915,
                  "lng" : -79.53727801970848
               },
               "southwest" : {
                  "lat" : 43.6117170197085,
                  "lng" : -79.5399759802915
               }
            }
         },
         "icon" : "https://maps.gstatic.com/mapfiles/place_api/icons/bus-71.png",
         "id" : "2629f95f869f1beee7ebe12804e28f2bcc0cc54f",
         "name" : "Evans Ave at North Carson St",
         "place_id" : "ChIJB-dxbx9IK4gRzbrqY-JzfxM",
         "reference" : "CmRRAAAAqp3XnradIJdoCNX-ELvENiFcRQkPiZng-b-fmkzDZUuZiYYgAPKjnS9AX8b2OtZ3V9n1lKW_h-aM5eJKXI1MGVQ8Iit2fuXumYWzTZojTZP435fzQ-L8VKZs22r3lTvOEhBWsmkWapGnJrpQC9LSkwBIGhQ5MdD3uAY5CRNmvtIFzRw-5vgBug",
         "scope" : "GOOGLE",
         "types" : [
            "bus_station",
            "transit_station",
            "point_of_interest",
            "establishment"
         ],
         "vicinity" : "Canada"
      },
      {
         "geometry" : {
            "location" : {
               "lat" : 43.612876,
               "lng" : -79.538877
            },
            "viewport" : {
               "northeast" : {
                  "lat" : 43.6142249802915,
                  "lng" : -79.53752801970849
               },
               "southwest" : {
                  "lat" : 43.6115270197085,
                  "lng" : -79.54022598029151
               }
            }
         },
         "icon" : "https://maps.gstatic.com/mapfiles/place_api/icons/bus-71.png",
         "id" : "1b579c8eec124ad295db353ff8fef822eea60dc7",
         "name" : "Evans Ave at North Carson St",
         "place_id" : "ChIJXZplaR9IK4gRsYn1fTC_Z4U",
         "reference" : "CmRSAAAAwF9O-YDyTjP575hUASVhLPKMQ629i837UTIXA1-OGAkPJJy3FHxz4AmQWcCI9x9Gp0VyhxriwGaXz3ZHnFJo109MNwPqkyuRGKDICvMfgMaOqxJpSqNNtAA7EKzIuedsEhC3laI8LqdUVKqh8m72xOJUGhTABAHyokMOC7TExb7UyydS3KIwEA",
         "scope" : "GOOGLE",
         "types" : [
            "bus_station",
            "transit_station",
            "point_of_interest",
            "establishment"
         ],
         "vicinity" : "Canada"
      },
      {
         "geometry" : {
            "location" : {
               "lat" : 43.61897909999999,
               "lng" : -79.5348173
            },
            "viewport" : {
               "northeast" : {
                  "lat" : 43.6203611802915,
                  "lng" : -79.5334801697085
               },
               "southwest" : {
                  "lat" : 43.6176632197085,
                  "lng" : -79.5361781302915
               }
            }
         },
         "icon" : "https://maps.gstatic.com/mapfiles/place_api/icons/bus-71.png",
         "id" : "fff177ee8c894218a34a4ff08d494c26534b3c52",
         "name" : "The Queensway at Vansco Rd",
         "place_id" : "ChIJj8zR9t43K4gRjzHRmk3zH24",
         "reference" : "CmRRAAAA9W_Zeyncr0r0NP0Tgq-62KyYRbkeFjIN3-WldkgHz38iayc6JDGwlnOvGevIDsuC-OCSxzL5obwQWBvHeud0Es-ACA07Gh5Vu1ymiBbbayllEiiW5ILgasa_kzGdfsk9EhB1jitMQXd2bnplGKep35aqGhSAr74PeL1-Hvtryke55CHAlGYV9w",
         "scope" : "GOOGLE",
         "types" : [
            "bus_station",
            "transit_station",
            "point_of_interest",
            "establishment"
         ],
         "vicinity" : "The Queensway, Toronto"
      },
      {
         "geometry" : {
            "location" : {
               "lat" : 43.619256,
               "lng" : -79.53476599999999
            },
            "viewport" : {
               "northeast" : {
                  "lat" : 43.6206049802915,
                  "lng" : -79.53341701970848
               },
               "southwest" : {
                  "lat" : 43.6179070197085,
                  "lng" : -79.5361149802915
               }
            }
         },
         "icon" : "https://maps.gstatic.com/mapfiles/place_api/icons/bus-71.png",
         "id" : "e218d12481a9443e7f87c7313b12afb9533e7bf2",
         "name" : "The Queensway at Vansco Rd West Side",
         "place_id" : "ChIJURtk9N43K4gRtESleEM1w5s",
         "reference" : "CmRSAAAAn6wMmOpH_avV1f7sehB29fgnwla4mDGbSoK2qkV_czCM4CTGdLsopiE9s72ssXD7KH4nloaXznvvhgXTnr4Wnh98TkJ012zG81Uc23qwymGY3E5hIBTXbojcRppHWQ-BEhAZxHcg5FU74bQ4FWhJRNs5GhRnPLYZSNu58hTbx4CtJ2YTK-5whg",
         "scope" : "GOOGLE",
         "types" : [
            "bus_station",
            "transit_station",
            "point_of_interest",
            "establishment"
         ],
         "vicinity" : "Canada"
      },
      {
         "geometry" : {
            "location" : {
               "lat" : 43.615762,
               "lng" : -79.52494999999999
            },
            "viewport" : {
               "northeast" : {
                  "lat" : 43.6171109802915,
                  "lng" : -79.52360101970849
               },
               "southwest" : {
                  "lat" : 43.6144130197085,
                  "lng" : -79.5262989802915
               }
            }
         },
         "icon" : "https://maps.gstatic.com/mapfiles/place_api/icons/bus-71.png",
         "id" : "d6ca902168fdf63a09d8921a87f445a699eb1498",
         "name" : "Evans Ave at Kipling Ave",
         "place_id" : "ChIJc4WVw9c3K4gRypSJ8Qbey5g",
         "reference" : "CmRSAAAA2NZ2Wp_2Mz_F3EsXU8sJOP_eAObZNk4W2GKTbA3Y9zgO8AHQ4MS86v0iGD9QSgYebmidmTxYaAynfqMcqjaNdvMGlwBH5aMXyiXYDvB3lMdRFW7t8QyQ6AVAHri2DOjkEhAlcW2Nsh55tO2dXbF1PZQLGhTckDPHNmuG5flEzKhig4hrP1s2Yg",
         "scope" : "GOOGLE",
         "types" : [
            "bus_station",
            "transit_station",
            "point_of_interest",
            "establishment"
         ],
         "vicinity" : "Canada"
      },
      {
         "geometry" : {
            "location" : {
               "lat" : 43.618542,
               "lng" : -79.537098
            },
            "viewport" : {
               "northeast" : {
                  "lat" : 43.6198909802915,
                  "lng" : -79.53574901970849
               },
               "southwest" : {
                  "lat" : 43.6171930197085,
                  "lng" : -79.53844698029151
               }
            }
         },
         "icon" : "https://maps.gstatic.com/mapfiles/place_api/icons/bus-71.png",
         "id" : "31ac88b8f48e7a0ab0c11d47b9f1103da9398266",
         "name" : "The Queensway at Algie Ave",
         "place_id" : "ChIJwbyWMt43K4gRLJL0aT9MF8A",
         "reference" : "CmRSAAAA_YDLy6j-Ki6K9HzaIKuBFxInDePTff39eVKjKqXh1vfiMCHxNKPxXsdJNyMZi3yBJxIPDM5wmgzcCPAdi8I8z2kWHcCH1UzqbAcEg0l-r8j4La-W0oFxUKXfJmyHB9sqEhDti5OB-RxXtaymFETqV7jIGhS6AnuPzgUK-dc2YCnAITZy1sAgIg",
         "scope" : "GOOGLE",
         "types" : [
            "bus_station",
            "transit_station",
            "point_of_interest",
            "establishment"
         ],
         "vicinity" : "Canada"
      },
      {
         "geometry" : {
            "location" : {
               "lat" : 43.616015,
               "lng" : -79.52489100000001
            },
            "viewport" : {
               "northeast" : {
                  "lat" : 43.6173639802915,
                  "lng" : -79.5235420197085
               },
               "southwest" : {
                  "lat" : 43.6146660197085,
                  "lng" : -79.52623998029151
               }
            }
         },
         "icon" : "https://maps.gstatic.com/mapfiles/place_api/icons/bus-71.png",
         "id" : "ed15dcf2594b25198c321cd077c3dc648d3d6870",
         "name" : "Kipling Ave at Evans Ave",
         "place_id" : "ChIJfWzRwNc3K4gRQWl1LusrZLw",
         "reference" : "CmRSAAAAi1hrNwjYZINJ0DFKfA2zB66vRT8loMQAGmouZGxXZ1cneZt9ukhmIENb0iaAm9yVn6b3l5YXFirUZhmuWh_uILrBoFEHFoyfX7sdALs4kG4etBlwY7yIb8WxfUZwEucMEhCULtiWKNAPAAkRNLciLee-GhRuuImfLCZxnJ4u3Ri9lQ30CJmW_Q",
         "scope" : "GOOGLE",
         "types" : [
            "bus_station",
            "transit_station",
            "point_of_interest",
            "establishment"
         ],
         "vicinity" : "Canada"
      },
      {
         "geometry" : {
            "location" : {
               "lat" : 43.615867,
               "lng" : -79.52461199999999
            },
            "viewport" : {
               "northeast" : {
                  "lat" : 43.6172159802915,
                  "lng" : -79.52326301970849
               },
               "southwest" : {
                  "lat" : 43.61451801970851,
                  "lng" : -79.5259609802915
               }
            }
         },
         "icon" : "https://maps.gstatic.com/mapfiles/place_api/icons/bus-71.png",
         "id" : "65678425c912a2bf23174725660b20b60e3c7529",
         "name" : "Evans Ave. at Kipling Ave.",
         "place_id" : "ChIJkV9sxtc3K4gRO2TqCqHvjdU",
         "reference" : "CmRSAAAA_sCKUXiowCKZ1wl-kGgAqnpYTXTkJL-I9h6e3CmOq9OPUZK78fp2QFkQNi8hOPWR77WUW6vyFdWR95Q0v-IAuM85hzF5Ge5vXUP5m1naDHbNMXmU68fDsSIT-Az_ZynZEhAh9YBdhwLWqwFDoIYGEgtnGhT6FECq3lQu53Z4XVgDdtnYpGwekw",
         "scope" : "GOOGLE",
         "types" : [
            "bus_station",
            "transit_station",
            "point_of_interest",
            "establishment"
         ],
         "vicinity" : "Canada"
      },
      {
         "geometry" : {
            "location" : {
               "lat" : 43.616338,
               "lng" : -79.52476200000001
            },
            "viewport" : {
               "northeast" : {
                  "lat" : 43.6176869802915,
                  "lng" : -79.5234130197085
               },
               "southwest" : {
                  "lat" : 43.6149890197085,
                  "lng" : -79.52611098029151
               }
            }
         },
         "icon" : "https://maps.gstatic.com/mapfiles/place_api/icons/bus-71.png",
         "id" : "d9ae52819d9a0606d729272cdea1dea17e30ca7c",
         "name" : "Kipling Ave at Evans Ave North Side",
         "place_id" : "ChIJ2UQUudc3K4gRYXpifwwMb1I",
         "reference" : "CmRRAAAAj1OiQDKbPSQWIc22Ri1EwX8ebZaVQyYGIGw-ekCGKHtH1QfkR8hH9yXIORdvz2NRaf1QEBK7YMIJADHfYrOekjDyF2ASnRQCbTF_vhVw9N1srccZLdhwzUUzQAaZPkpUEhBUygm0EfEXHPNIVq44BwG0GhS4fBa_AmW6dhGH43GfU3ZdTqmB-g",
         "scope" : "GOOGLE",
         "types" : [
            "bus_station",
            "transit_station",
            "point_of_interest",
            "establishment"
         ],
         "vicinity" : "Canada"
      },
      {
         "geometry" : {
            "location" : {
               "lat" : 43.6186507,
               "lng" : -79.53762909999999
            },
            "viewport" : {
               "northeast" : {
                  "lat" : 43.61999968029149,
                  "lng" : -79.53628011970848
               },
               "southwest" : {
                  "lat" : 43.61730171970849,
                  "lng" : -79.5389780802915
               }
            }
         },
         "icon" : "https://maps.gstatic.com/mapfiles/place_api/icons/bus-71.png",
         "id" : "3e123e9ccd692d5e8d5be083185ac0a605b3ca22",
         "name" : "The Queensway at Algie Ave",
         "place_id" : "ChIJM94PMd43K4gRptgQg7HAYoE",
         "reference" : "CmRSAAAAQPt3oFq8sw93OGHmE6HqHy8msQPjxkSWzcF9EedTuqHNmyCKt3sRXVyA1TZi0mp_apcYt19ynUcqeylqswiZyGzMhqlPHzi_8rOk2j8-5KGjkAfCOeo5gUehZyDWTzMzEhAmkZ9OR5oTzFfnuLiFYud7GhTWNJKRZDe_pgSBiqX8Nbh92T9sVA",
         "scope" : "GOOGLE",
         "types" : [
            "bus_station",
            "transit_station",
            "point_of_interest",
            "establishment"
         ],
         "vicinity" : "Canada"
      },
      {
         "geometry" : {
            "location" : {
               "lat" : 43.61604500000001,
               "lng" : -79.524339
            },
            "viewport" : {
               "northeast" : {
                  "lat" : 43.6173939802915,
                  "lng" : -79.52299001970849
               },
               "southwest" : {
                  "lat" : 43.61469601970851,
                  "lng" : -79.52568798029151
               }
            }
         },
         "icon" : "https://maps.gstatic.com/mapfiles/place_api/icons/bus-71.png",
         "id" : "dbe564f7ff07cf728fc73f573be6c7af0472dae5",
         "name" : "Evans Ave at Kipling Ave",
         "place_id" : "ChIJt84yyNc3K4gRr8BYffiS98Q",
         "reference" : "CmRSAAAAzeQsdTAklMZO7UbJEMaDqFeKCrIQeOwH8y49w4zuc9L0vzdittTrOzSbQZvB5nJ5LH8WFAwDC5yw_frUARk3O-uUCggonBNpz3L4dhgsc3rQ4vzHuZ8KtukqNZ1MeRRIEhBKUqRzBfblFpvFAPdd63jeGhSf5JYsO3eUkP7ZyIQ53UGsdogjHg",
         "scope" : "GOOGLE",
         "types" : [
            "bus_station",
            "transit_station",
            "point_of_interest",
            "establishment"
         ],
         "vicinity" : "Canada"
      },
      {
         "geometry" : {
            "location" : {
               "lat" : 43.61420199999999,
               "lng" : -79.523791
            },
            "viewport" : {
               "northeast" : {
                  "lat" : 43.61555098029149,
                  "lng" : -79.52244201970851
               },
               "southwest" : {
                  "lat" : 43.61285301970849,
                  "lng" : -79.52513998029151
               }
            }
         },
         "icon" : "https://maps.gstatic.com/mapfiles/place_api/icons/bus-71.png",
         "id" : "4158af5fdf0d366f6175fc0e3f61181a125f57eb",
         "name" : "Kipling Ave at Torlake Cres",
         "place_id" : "ChIJiQVMzSlIK4gRqJ-KpX0xlXc",
         "reference" : "CmRRAAAAcRBOfSNFNWL1UfSLO2I569J4ZBozTGYaz1QS6JjfeT0Ef2QSt0SQT5_W82zs3arMG1OqzDmYeAvv0kvDxAQsXrJ-Svr_a8rIFR2BnoC0vhE99pM5YV45IH07D8PgUobLEhDbZrfschiIep0HRV8h4Y2wGhQue14Y9Tbg_gln459VjI_-ETkheQ",
         "scope" : "GOOGLE",
         "types" : [
            "bus_station",
            "transit_station",
            "point_of_interest",
            "establishment"
         ],
         "vicinity" : "Canada"
      }
   ],
   "status" : "OK"
}
