{
   "html_attributions" : [],
   "next_page_token" : "CvQD6gEAAB9yeJP7kc_HKkF3fphbi5UaK5d49zMSMsYGvUhbVHEtElMf_mDpB3HAUG1MerT48eV-Pzjud1o1JpCmj-H8n5ccIDqDPKk0uUQ0VCpFyFsaOR9siJLpYqMb2TppihuFB0ZE9FhozhYsdoJDEE758ilf2_jB054DFqq9BMVZ-29lKRDoyMCKlOniHkje78-6B8toFjP51JxrMoLf7rrrhfixAG8V08x22Yx14EzEAsgxNR-kPy4j_Dg9Pq4zn-kuEoBOQRFKGVPydiUt658_a_fNAwxpF-IuRTB-LTAGnHu3qwoPF4C63OYJRhqSjG6HBvB9kWrX8SJl7hvblq54mOAOaFZ4i6SyIBX8LywgJh_yNxJceihJ9XvsPLkN3BIsHhVHZzWxpWGrEWTH4VdUsvknq36qpvvfERfQBeMAYFi_ETEM5IeikCXHacKtoUHxibCCH_HB3Bv2eJIg4PRWMaaOWmzQy-QZZrrulq51CIVfg-YEPyfmulpyty94tDe-qe6Rw2KUseX0XLCivFi6y0HyRR2g6FJFXo05uhJd08JaDcGSy1yOLbD139R5t7V8pjKr2KT9XmqyN-r1mKORp9Uy3xmsji9hC6RWMEZPHSwmATBNQcFT4cUNjZRTtiXocgu7n2m0V-63EFEEXUZZumMSEH_0MYz2VZgk7lERQaNKXz0aFCenmPU90NX58Z9H0_p2XAWndGqY",
   "results" : [
      {
         "geometry" : {
            "location" : {
               "lat" : 43.651226,
               "lng" : -79.579697
            },
            "viewport" : {
               "northeast" : {
                  "lat" : 43.6525749802915,
                  "lng" : -79.57834801970849
               },
               "southwest" : {
                  "lat" : 43.64987701970851,
                  "lng" : -79.58104598029151
               }
            }
         },
         "icon" : "https://maps.gstatic.com/mapfiles/place_api/icons/bus-71.png",
         "id" : "88178b5fb7633848e53372cda7de4f4d14cde443",
         "name" : "Rathburn Rd At Renforth Dr",
         "opening_hours" : {
            "open_now" : false
         },
         "place_id" : "ChIJcedc-TY4K4gRI1gvi9-BDHo",
         "plus_code" : {
            "compound_code" : "MC2C+F4 Toronto, Ontario, Canada",
            "global_code" : "87M2MC2C+F4"
         },
         "rating" : 5,
         "reference" : "ChIJcedc-TY4K4gRI1gvi9-BDHo",
         "scope" : "GOOGLE",
         "types" : [
            "bus_station",
            "transit_station",
            "point_of_interest",
            "establishment"
         ],
         "vicinity" : "Canada"
      },
      {
         "geometry" : {
            "location" : {
               "lat" : 43.651401,
               "lng" : -79.579905
            },
            "viewport" : {
               "northeast" : {
                  "lat" : 43.6527499802915,
                  "lng" : -79.57855601970849
               },
               "southwest" : {
                  "lat" : 43.6500520197085,
                  "lng" : -79.58125398029149
               }
            }
         },
         "icon" : "https://maps.gstatic.com/mapfiles/place_api/icons/bus-71.png",
         "id" : "9d5a61717e6f3b00e0ba4499d88c86510ddb208b",
         "name" : "Rathburn Rd At Renforth Dr West Side",
         "opening_hours" : {
            "open_now" : false
         },
         "place_id" : "ChIJ071A-DY4K4gRVwV_ONXwNss",
         "plus_code" : {
            "compound_code" : "MC2C+H2 Toronto, Ontario, Canada",
            "global_code" : "87M2MC2C+H2"
         },
         "reference" : "ChIJ071A-DY4K4gRVwV_ONXwNss",
         "scope" : "GOOGLE",
         "types" : [
            "bus_station",
            "transit_station",
            "point_of_interest",
            "establishment"
         ],
         "vicinity" : "Canada"
      },
      {
         "geometry" : {
            "location" : {
               "lat" : 43.65239699999999,
               "lng" : -79.57562999999999
            },
            "viewport" : {
               "northeast" : {
                  "lat" : 43.6537459802915,
                  "lng" : -79.57428101970849
               },
               "southwest" : {
                  "lat" : 43.6510480197085,
                  "lng" : -79.5769789802915
               }
            }
         },
         "icon" : "https://maps.gstatic.com/mapfiles/place_api/icons/bus-71.png",
         "id" : "c7041ccb8c325217aca310fd779c52d9128afd6d",
         "name" : "480 Rathburn Rd",
         "opening_hours" : {
            "open_now" : false
         },
         "place_id" : "ChIJjfOsZzE4K4gRFFD7CwPJfYc",
         "plus_code" : {
            "compound_code" : "MC2F+XP Toronto, Ontario, Canada",
            "global_code" : "87M2MC2F+XP"
         },
         "reference" : "ChIJjfOsZzE4K4gRFFD7CwPJfYc",
         "scope" : "GOOGLE",
         "types" : [
            "bus_station",
            "transit_station",
            "point_of_interest",
            "establishment"
         ],
         "vicinity" : "Canada"
      },
      {
         "geometry" : {
            "location" : {
               "lat" : 43.652439,
               "lng" : -79.574806
            },
            "viewport" : {
               "northeast" : {
                  "lat" : 43.6537879802915,
                  "lng" : -79.57345701970848
               },
               "southwest" : {
                  "lat" : 43.6510900197085,
                  "lng" : -79.57615498029151
               }
            }
         },
         "icon" : "https://maps.gstatic.com/mapfiles/place_api/icons/bus-71.png",
         "id" : "63cbe75181c28573f36f4d1eaf725bdf86365ad4",
         "name" : "475 Rathburn Rd",
         "opening_hours" : {
            "open_now" : false
         },
         "place_id" : "ChIJ763uezE4K4gRYtr6rxe2MPo",
         "plus_code" : {
            "compound_code" : "MC2G+X3 Toronto, Ontario, Canada",
            "global_code" : "87M2MC2G+X3"
         },
         "reference" : "ChIJ763uezE4K4gRYtr6rxe2MPo",
         "scope" : "GOOGLE",
         "types" : [
            "bus_station",
            "transit_station",
            "point_of_interest",
            "establishment"
         ],
         "vicinity" : "Canada"
      },
      {
         "geometry" : {
            "location" : {
               "lat" : 43.650612,
               "lng" : -79.581586
            },
            "viewport" : {
               "northeast" : {
                  "lat" : 43.6519609802915,
                  "lng" : -79.58023701970849
               },
               "southwest" : {
                  "lat" : 43.6492630197085,
                  "lng" : -79.5829349802915
               }
            }
         },
         "icon" : "https://maps.gstatic.com/mapfiles/place_api/icons/bus-71.png",
         "id" : "97877d9c6b3bb0e42435d783b72980b00b4ca4f8",
         "name" : "Opposite 580 Rathburn Rd",
         "opening_hours" : {
            "open_now" : false
         },
         "place_id" : "ChIJGxyqyTc4K4gRQWSgL6BwVJc",
         "plus_code" : {
            "compound_code" : "MC29+69 Toronto, Ontario, Canada",
            "global_code" : "87M2MC29+69"
         },
         "reference" : "ChIJGxyqyTc4K4gRQWSgL6BwVJc",
         "scope" : "GOOGLE",
         "types" : [
            "bus_station",
            "transit_station",
            "point_of_interest",
            "establishment"
         ],
         "vicinity" : "Canada"
      },
      {
         "geometry" : {
            "location" : {
               "lat" : 43.650645,
               "lng" : -79.58176399999999
            },
            "viewport" : {
               "northeast" : {
                  "lat" : 43.6519939802915,
                  "lng" : -79.58041501970848
               },
               "southwest" : {
                  "lat" : 43.6492960197085,
                  "lng" : -79.58311298029149
               }
            }
         },
         "icon" : "https://maps.gstatic.com/mapfiles/place_api/icons/bus-71.png",
         "id" : "819eb5597e1d15ddccfd8af163bcbcf9a7bc8b20",
         "name" : "580 Rathburn Rd",
         "opening_hours" : {
            "open_now" : false
         },
         "place_id" : "ChIJiU4tyTc4K4gR2LS4vcHgPB0",
         "plus_code" : {
            "compound_code" : "MC29+77 Toronto, Ontario, Canada",
            "global_code" : "87M2MC29+77"
         },
         "reference" : "ChIJiU4tyTc4K4gR2LS4vcHgPB0",
         "scope" : "GOOGLE",
         "types" : [
            "bus_station",
            "transit_station",
            "point_of_interest",
            "establishment"
         ],
         "vicinity" : "Canada"
      },
      {
         "geometry" : {
            "location" : {
               "lat" : 43.64985000000001,
               "lng" : -79.58279899999999
            },
            "viewport" : {
               "northeast" : {
                  "lat" : 43.6511989802915,
                  "lng" : -79.5814500197085
               },
               "southwest" : {
                  "lat" : 43.6485010197085,
                  "lng" : -79.5841479802915
               }
            }
         },
         "icon" : "https://maps.gstatic.com/mapfiles/place_api/icons/bus-71.png",
         "id" : "b63b566c7082288152af6c5b7f09f84bbdf17aae",
         "name" : "Rathburn Rd At Melbert Rd",
         "opening_hours" : {
            "open_now" : false
         },
         "place_id" : "ChIJr7Eo4Dc4K4gRXH7KOw99Hlc",
         "plus_code" : {
            "compound_code" : "JCX8+WV Toronto, Ontario, Canada",
            "global_code" : "87M2JCX8+WV"
         },
         "reference" : "ChIJr7Eo4Dc4K4gRXH7KOw99Hlc",
         "scope" : "GOOGLE",
         "types" : [
            "bus_station",
            "transit_station",
            "point_of_interest",
            "establishment"
         ],
         "vicinity" : "Canada"
      },
      {
         "geometry" : {
            "location" : {
               "lat" : 43.652644,
               "lng" : -79.57244299999999
            },
            "viewport" : {
               "northeast" : {
                  "lat" : 43.6539929802915,
                  "lng" : -79.57109401970848
               },
               "southwest" : {
                  "lat" : 43.6512950197085,
                  "lng" : -79.57379198029149
               }
            }
         },
         "icon" : "https://maps.gstatic.com/mapfiles/place_api/icons/bus-71.png",
         "id" : "83defd45cd134ca60433a2b5434a8a5088075379",
         "name" : "The West Mall At Rathburn Rd South Side",
         "opening_hours" : {
            "open_now" : false
         },
         "place_id" : "ChIJ17h0HTI4K4gRJw_69el8ox0",
         "plus_code" : {
            "compound_code" : "MC3H+32 Toronto, Ontario, Canada",
            "global_code" : "87M2MC3H+32"
         },
         "reference" : "ChIJ17h0HTI4K4gRJw_69el8ox0",
         "scope" : "GOOGLE",
         "types" : [
            "bus_station",
            "transit_station",
            "point_of_interest",
            "establishment"
         ],
         "vicinity" : "Canada"
      },
      {
         "geometry" : {
            "location" : {
               "lat" : 43.65284500000001,
               "lng" : -79.57278099999999
            },
            "viewport" : {
               "northeast" : {
                  "lat" : 43.6541939802915,
                  "lng" : -79.57143201970848
               },
               "southwest" : {
                  "lat" : 43.6514960197085,
                  "lng" : -79.5741299802915
               }
            }
         },
         "icon" : "https://maps.gstatic.com/mapfiles/place_api/icons/bus-71.png",
         "id" : "1b881c341d3704f03c90ef3937e01d9929a3c12e",
         "name" : "Rathburn Rd At The West Mall",
         "opening_hours" : {
            "open_now" : false
         },
         "place_id" : "ChIJI3jcHjI4K4gRBdMLjDj5Ijw",
         "plus_code" : {
            "compound_code" : "MC3G+4V Toronto, Ontario, Canada",
            "global_code" : "87M2MC3G+4V"
         },
         "reference" : "ChIJI3jcHjI4K4gRBdMLjDj5Ijw",
         "scope" : "GOOGLE",
         "types" : [
            "bus_station",
            "transit_station",
            "point_of_interest",
            "establishment"
         ],
         "vicinity" : "Canada"
      },
      {
         "geometry" : {
            "location" : {
               "lat" : 43.652793,
               "lng" : -79.572335
            },
            "viewport" : {
               "northeast" : {
                  "lat" : 43.65414198029149,
                  "lng" : -79.57098601970849
               },
               "southwest" : {
                  "lat" : 43.6514440197085,
                  "lng" : -79.57368398029151
               }
            }
         },
         "icon" : "https://maps.gstatic.com/mapfiles/place_api/icons/bus-71.png",
         "id" : "28a0bc8da91699a44e5104de05796778b0c9e914",
         "name" : "The West Mall At Rathburn Rd",
         "opening_hours" : {
            "open_now" : false
         },
         "place_id" : "ChIJwUi4HDI4K4gRiH5NvVoe27w",
         "plus_code" : {
            "compound_code" : "MC3H+43 Toronto, Ontario, Canada",
            "global_code" : "87M2MC3H+43"
         },
         "rating" : 4.5,
         "reference" : "ChIJwUi4HDI4K4gRiH5NvVoe27w",
         "scope" : "GOOGLE",
         "types" : [
            "bus_station",
            "transit_station",
            "point_of_interest",
            "establishment"
         ],
         "vicinity" : "Canada"
      },
      {
         "geometry" : {
            "location" : {
               "lat" : 43.6496624,
               "lng" : -79.58351089999999
            },
            "viewport" : {
               "northeast" : {
                  "lat" : 43.6509717302915,
                  "lng" : -79.58211241970849
               },
               "southwest" : {
                  "lat" : 43.6482737697085,
                  "lng" : -79.5848103802915
               }
            }
         },
         "icon" : "https://maps.gstatic.com/mapfiles/place_api/icons/bus-71.png",
         "id" : "6b324735407c0eb23cff1fa0697aba4fbed7b4e4",
         "name" : "590 Rathburn Rd",
         "opening_hours" : {
            "open_now" : false
         },
         "place_id" : "ChIJAQxvGkg4K4gRQMk2vjPeFUo",
         "plus_code" : {
            "compound_code" : "JCX8+VH Toronto, Ontario, Canada",
            "global_code" : "87M2JCX8+VH"
         },
         "reference" : "ChIJAQxvGkg4K4gRQMk2vjPeFUo",
         "scope" : "GOOGLE",
         "types" : [
            "bus_station",
            "transit_station",
            "point_of_interest",
            "establishment"
         ],
         "vicinity" : "Canada"
      },
      {
         "geometry" : {
            "location" : {
               "lat" : 43.653206,
               "lng" : -79.57225199999999
            },
            "viewport" : {
               "northeast" : {
                  "lat" : 43.6545549802915,
                  "lng" : -79.5709030197085
               },
               "southwest" : {
                  "lat" : 43.6518570197085,
                  "lng" : -79.5736009802915
               }
            }
         },
         "icon" : "https://maps.gstatic.com/mapfiles/place_api/icons/bus-71.png",
         "id" : "a870edbd701de19f5fc66294646cf4bf5e4aa3d0",
         "name" : "Rathburn Rd At The West Mall",
         "opening_hours" : {
            "open_now" : false
         },
         "place_id" : "ChIJP4fmDzI4K4gRnZrw3VBveqY",
         "plus_code" : {
            "compound_code" : "MC3H+73 Toronto, Ontario, Canada",
            "global_code" : "87M2MC3H+73"
         },
         "reference" : "ChIJP4fmDzI4K4gRnZrw3VBveqY",
         "scope" : "GOOGLE",
         "types" : [
            "bus_station",
            "transit_station",
            "point_of_interest",
            "establishment"
         ],
         "vicinity" : "Canada"
      },
      {
         "geometry" : {
            "location" : {
               "lat" : 43.65170060000001,
               "lng" : -79.569941
            },
            "viewport" : {
               "northeast" : {
                  "lat" : 43.6530495802915,
                  "lng" : -79.56859201970849
               },
               "southwest" : {
                  "lat" : 43.65035161970851,
                  "lng" : -79.5712899802915
               }
            }
         },
         "icon" : "https://maps.gstatic.com/mapfiles/place_api/icons/bus-71.png",
         "id" : "66214aba65a9f2eb388264490af3cd9fa114b809",
         "name" : "546 The West Mall",
         "opening_hours" : {
            "open_now" : false
         },
         "place_id" : "ChIJB9fcbS44K4gRgUnj_mkllv4",
         "plus_code" : {
            "compound_code" : "MC2J+M2 Toronto, Ontario, Canada",
            "global_code" : "87M2MC2J+M2"
         },
         "reference" : "ChIJB9fcbS44K4gRgUnj_mkllv4",
         "scope" : "GOOGLE",
         "types" : [
            "bus_station",
            "transit_station",
            "point_of_interest",
            "establishment"
         ],
         "vicinity" : "Canada"
      },
      {
         "geometry" : {
            "location" : {
               "lat" : 43.65183510000001,
               "lng" : -79.5697648
            },
            "viewport" : {
               "northeast" : {
                  "lat" : 43.6532257302915,
                  "lng" : -79.56848911970849
               },
               "southwest" : {
                  "lat" : 43.6505277697085,
                  "lng" : -79.57118708029149
               }
            }
         },
         "icon" : "https://maps.gstatic.com/mapfiles/place_api/icons/bus-71.png",
         "id" : "8929ce3baeee371974239c8112e33b9a345a24b0",
         "name" : "551 The West Mall",
         "opening_hours" : {
            "open_now" : false
         },
         "place_id" : "ChIJF9DmcS44K4gR78bP0RT8q3s",
         "plus_code" : {
            "compound_code" : "MC2J+P3 Toronto, Ontario, Canada",
            "global_code" : "87M2MC2J+P3"
         },
         "rating" : 5,
         "reference" : "ChIJF9DmcS44K4gR78bP0RT8q3s",
         "scope" : "GOOGLE",
         "types" : [
            "bus_station",
            "transit_station",
            "point_of_interest",
            "establishment"
         ],
         "vicinity" : "Canada"
      },
      {
         "geometry" : {
            "location" : {
               "lat" : 43.64948,
               "lng" : -79.568782
            },
            "viewport" : {
               "northeast" : {
                  "lat" : 43.6508289802915,
                  "lng" : -79.5674330197085
               },
               "southwest" : {
                  "lat" : 43.6481310197085,
                  "lng" : -79.57013098029151
               }
            }
         },
         "icon" : "https://maps.gstatic.com/mapfiles/place_api/icons/bus-71.png",
         "id" : "0b6a8ff15332df989de26e04d48ee1808ae719f3",
         "name" : "The West Mall At Holiday Dr",
         "opening_hours" : {
            "open_now" : false
         },
         "place_id" : "ChIJDRvfqS84K4gRNArbRe77JDA",
         "plus_code" : {
            "compound_code" : "JCXJ+QF Toronto, Ontario, Canada",
            "global_code" : "87M2JCXJ+QF"
         },
         "reference" : "ChIJDRvfqS84K4gRNArbRe77JDA",
         "scope" : "GOOGLE",
         "types" : [
            "bus_station",
            "transit_station",
            "point_of_interest",
            "establishment"
         ],
         "vicinity" : "Canada"
      },
      {
         "geometry" : {
            "location" : {
               "lat" : 43.649204,
               "lng" : -79.56849
            },
            "viewport" : {
               "northeast" : {
                  "lat" : 43.65055298029149,
                  "lng" : -79.56714101970849
               },
               "southwest" : {
                  "lat" : 43.64785501970849,
                  "lng" : -79.56983898029151
               }
            }
         },
         "icon" : "https://maps.gstatic.com/mapfiles/place_api/icons/bus-71.png",
         "id" : "82bfc5f1ec7b9514a77aa40c741bf885b8058e37",
         "name" : "The West Mall At Holiday Dr",
         "opening_hours" : {
            "open_now" : false
         },
         "place_id" : "ChIJL668CC84K4gRg1vZeLPF7ZY",
         "plus_code" : {
            "compound_code" : "JCXJ+MJ Toronto, Ontario, Canada",
            "global_code" : "87M2JCXJ+MJ"
         },
         "reference" : "ChIJL668CC84K4gRg1vZeLPF7ZY",
         "scope" : "GOOGLE",
         "types" : [
            "bus_station",
            "transit_station",
            "point_of_interest",
            "establishment"
         ],
         "vicinity" : "Canada"
      },
      {
         "geometry" : {
            "location" : {
               "lat" : 43.655184,
               "lng" : -79.57654699999999
            },
            "viewport" : {
               "northeast" : {
                  "lat" : 43.65653298029149,
                  "lng" : -79.57519801970849
               },
               "southwest" : {
                  "lat" : 43.6538350197085,
                  "lng" : -79.5778959802915
               }
            }
         },
         "icon" : "https://maps.gstatic.com/mapfiles/place_api/icons/bus-71.png",
         "id" : "2ce446828cbe4322858df3d95a2c171b467af6a7",
         "name" : "Wellesworth Dr At Torrington Dr",
         "opening_hours" : {
            "open_now" : false
         },
         "place_id" : "ChIJTzTYgjM4K4gRMSk6Ki_2eFg",
         "plus_code" : {
            "compound_code" : "MC4F+39 Toronto, Ontario, Canada",
            "global_code" : "87M2MC4F+39"
         },
         "reference" : "ChIJTzTYgjM4K4gRMSk6Ki_2eFg",
         "scope" : "GOOGLE",
         "types" : [
            "bus_station",
            "transit_station",
            "point_of_interest",
            "establishment"
         ],
         "vicinity" : "Canada"
      },
      {
         "geometry" : {
            "location" : {
               "lat" : 43.64850199999999,
               "lng" : -79.585228
            },
            "viewport" : {
               "northeast" : {
                  "lat" : 43.64985098029149,
                  "lng" : -79.58387901970849
               },
               "southwest" : {
                  "lat" : 43.6471530197085,
                  "lng" : -79.5865769802915
               }
            }
         },
         "icon" : "https://maps.gstatic.com/mapfiles/place_api/icons/bus-71.png",
         "id" : "9333ad8549940bfea313167dfd9ec94859319726",
         "name" : "Rathburn Rd At Ivybridge Dr West Side",
         "opening_hours" : {
            "open_now" : false
         },
         "place_id" : "ChIJc-2R0Uc4K4gRFMVhiwV0kL4",
         "plus_code" : {
            "compound_code" : "JCX7+CW Toronto, Ontario, Canada",
            "global_code" : "87M2JCX7+CW"
         },
         "reference" : "ChIJc-2R0Uc4K4gRFMVhiwV0kL4",
         "scope" : "GOOGLE",
         "types" : [
            "bus_station",
            "transit_station",
            "point_of_interest",
            "establishment"
         ],
         "vicinity" : "Canada"
      },
      {
         "geometry" : {
            "location" : {
               "lat" : 43.64838,
               "lng" : -79.58523199999999
            },
            "viewport" : {
               "northeast" : {
                  "lat" : 43.64972898029149,
                  "lng" : -79.58388301970848
               },
               "southwest" : {
                  "lat" : 43.64703101970849,
                  "lng" : -79.58658098029149
               }
            }
         },
         "icon" : "https://maps.gstatic.com/mapfiles/place_api/icons/bus-71.png",
         "id" : "2d745160d96ea1e9af89a8dc2e291883aae345fc",
         "name" : "Rathburn Rd At Ivybridge Dr",
         "opening_hours" : {
            "open_now" : false
         },
         "place_id" : "ChIJtysbzkc4K4gRaXufZPrgE04",
         "plus_code" : {
            "compound_code" : "JCX7+9W Toronto, Ontario, Canada",
            "global_code" : "87M2JCX7+9W"
         },
         "reference" : "ChIJtysbzkc4K4gRaXufZPrgE04",
         "scope" : "GOOGLE",
         "types" : [
            "bus_station",
            "transit_station",
            "point_of_interest",
            "establishment"
         ],
         "vicinity" : "Canada"
      },
      {
         "geometry" : {
            "location" : {
               "lat" : 43.65537,
               "lng" : -79.576604
            },
            "viewport" : {
               "northeast" : {
                  "lat" : 43.6567189802915,
                  "lng" : -79.57525501970851
               },
               "southwest" : {
                  "lat" : 43.6540210197085,
                  "lng" : -79.57795298029151
               }
            }
         },
         "icon" : "https://maps.gstatic.com/mapfiles/place_api/icons/bus-71.png",
         "id" : "3957c83e03ff4e86dd1b2410156d79d7b387e853",
         "name" : "Wellesworth Dr At Torrington Dr North Side",
         "opening_hours" : {
            "open_now" : false
         },
         "place_id" : "ChIJ2etteDM4K4gRqemlQjh6ByI",
         "plus_code" : {
            "compound_code" : "MC4F+49 Toronto, Ontario, Canada",
            "global_code" : "87M2MC4F+49"
         },
         "reference" : "ChIJ2etteDM4K4gRqemlQjh6ByI",
         "scope" : "GOOGLE",
         "types" : [
            "bus_station",
            "transit_station",
            "point_of_interest",
            "establishment"
         ],
         "vicinity" : "Canada"
      }
   ],
   "status" : "OK"
}
