[{"StopNo":50274,"Name":"EB W 10 AVE FS BLANCA ST","BayNo":"N","City":"VANCOUVER","OnStreet":"W 10 AVE","AtStreet":"BLANCA ST","Latitude":49.263836,"Longitude":-123.214638,"WheelchairAccess":1,"Distance":137,"Routes":"014, N17"},{"StopNo":50577,"Name":"WB W 10 AVE FS TOLMIE ST","BayNo":"N","City":"VANCOUVER","OnStreet":"W 10 AVE","AtStreet":"TOLMIE ST","Latitude":49.263966,"Longitude":-123.212509,"WheelchairAccess":1,"Distance":168,"Routes":"014, N17"},{"StopNo":50275,"Name":"EB W 10 AVE FS TOLMIE ST","BayNo":"N","City":"VANCOUVER","OnStreet":"W 10 AVE","AtStreet":"TOLMIE ST","Latitude":49.263809,"Longitude":-123.211739,"WheelchairAccess":1,"Distance":194,"Routes":"014, N17"},{"StopNo":50272,"Name":"NB BLANCA ST FS W 10 AVE","BayNo":"N","City":"VANCOUVER","OnStreet":"BLANCA ST","AtStreet":"W 10 AVE","Latitude":49.264290,"Longitude":-123.215065,"WheelchairAccess":1,"Distance":196,"Routes":"004"},{"StopNo":50601,"Name":"WB UNIVERSITY BLVD FS BLANCA ST","BayNo":"N","City":"VANCOUVER","OnStreet":"UNIVERSITY BLVD","AtStreet":"BLANCA ST","Latitude":49.264015,"Longitude":-123.215912,"WheelchairAccess":1,"Distance":209,"Routes":"004, 014, N17"},{"StopNo":60273,"Name":"NB BLANCA ST FS W 9 AVE","BayNo":"N","City":"VANCOUVER","OnStreet":"BLANCA ST","AtStreet":"W 9 AVE","Latitude":49.265097,"Longitude":-123.215040,"WheelchairAccess":0,"Distance":279,"Routes":""},{"StopNo":50600,"Name":"BLANCA LOOP BAY 2","BayNo":"2","City":"VANCOUVER","OnStreet":"BLANCA LOOP","AtStreet":"BAY 2","Latitude":49.265144,"Longitude":-123.215302,"WheelchairAccess":1,"Distance":290,"Routes":"004"},{"StopNo":60274,"Name":"BLANCA LOOP LOADING ONLY","BayNo":"N","City":"VANCOUVER","OnStreet":"BLANCA LOOP","AtStreet":"LOADING ONLY","Latitude":49.265376,"Longitude":-123.215431,"WheelchairAccess":1,"Distance":317,"Routes":""},{"StopNo":50273,"Name":"BLANCA LOOP BAY 1","BayNo":"1","City":"VANCOUVER","OnStreet":"BLANCA LOOP","AtStreet":"BAY 1","Latitude":49.265244,"Longitude":-123.215851,"WheelchairAccess":1,"Distance":317,"Routes":"004, 014"},{"StopNo":58023,"Name":"WB W 10 AVE FS SASAMAT ST","BayNo":"N","City":"VANCOUVER","OnStreet":"W 10 AVE","AtStreet":"SASAMAT ST","Latitude":49.263905,"Longitude":-123.209694,"WheelchairAccess":1,"Distance":328,"Routes":"014, 099, N17"},{"StopNo":50344,"Name":"NB BLANCA ST FS W 8 AVE","BayNo":"N","City":"VANCOUVER","OnStreet":"BLANCA ST","AtStreet":"W 8 AVE","Latitude":49.266052,"Longitude":-123.215012,"WheelchairAccess":0,"Distance":380,"Routes":"004"},{"StopNo":50276,"Name":"EB W 10 AVE FS SASAMAT ST","BayNo":"N","City":"VANCOUVER","OnStreet":"W 10 AVE","AtStreet":"SASAMAT ST","Latitude":49.263763,"Longitude":-123.208527,"WheelchairAccess":1,"Distance":402,"Routes":"014, 099, N17"},{"StopNo":51597,"Name":"WB W 16 AVE NS BLANCA ST","BayNo":"N","City":"VANCOUVER","OnStreet":"W 16 AVE","AtStreet":"BLANCA ST","Latitude":49.258507,"Longitude":-123.214569,"WheelchairAccess":1,"Distance":472,"Routes":"025, 033"},{"StopNo":50599,"Name":"SB BLANCA ST FS W 6 AVE","BayNo":"N","City":"VANCOUVER","OnStreet":"BLANCA ST","AtStreet":"W 6 AVE","Latitude":49.267014,"Longitude":-123.215225,"WheelchairAccess":0,"Distance":488,"Routes":"004"},{"StopNo":51486,"Name":"EB W 16 AVE FS BLANCA ST","BayNo":"N","City":"VANCOUVER","OnStreet":"W 16 AVE","AtStreet":"BLANCA ST","Latitude":49.258259,"Longitude":-123.214905,"WheelchairAccess":0,"Distance":502,"Routes":"025, 033"},{"StopNo":51487,"Name":"EB W 16 AVE FS TOLMIE ST","BayNo":"N","City":"VANCOUVER","OnStreet":"W 16 AVE","AtStreet":"TOLMIE ST","Latitude":49.258190,"Longitude":-123.211853,"WheelchairAccess":0,"Distance":524,"Routes":"025, 033"},{"StopNo":50576,"Name":"WB W 10 AVE FS TRIMBLE ST","BayNo":"N","City":"VANCOUVER","OnStreet":"W 10 AVE","AtStreet":"TRIMBLE ST","Latitude":49.263863,"Longitude":-123.206459,"WheelchairAccess":1,"Distance":550,"Routes":"014, N17"},{"StopNo":50345,"Name":"NB BLANCA ST FS W 6 AVE","BayNo":"N","City":"VANCOUVER","OnStreet":"BLANCA ST","AtStreet":"W 6 AVE","Latitude":49.267689,"Longitude":-123.214951,"WheelchairAccess":0,"Distance":559,"Routes":""},{"StopNo":51596,"Name":"WB W 16 AVE FS SASAMAT ST","BayNo":"N","City":"VANCOUVER","OnStreet":"W 16 AVE","AtStreet":"SASAMAT ST","Latitude":49.258430,"Longitude":-123.209778,"WheelchairAccess":1,"Distance":560,"Routes":"025, 033"},{"StopNo":50277,"Name":"EB W 10 AVE FS TRIMBLE ST","BayNo":"N","City":"VANCOUVER","OnStreet":"W 10 AVE","AtStreet":"TRIMBLE ST","Latitude":49.263687,"Longitude":-123.205582,"WheelchairAccess":1,"Distance":608,"Routes":"014, N17"},{"StopNo":60533,"Name":"NB BLANCA ST FS W 5 AVE","BayNo":"N","City":"VANCOUVER","OnStreet":"BLANCA ST","AtStreet":"W 5 AVE","Latitude":49.268417,"Longitude":-123.214951,"WheelchairAccess":-1,"Distance":639,"Routes":"004"},{"StopNo":50598,"Name":"SB BLANCA ST FS W 4 AVE","BayNo":"N","City":"VANCOUVER","OnStreet":"BLANCA ST","AtStreet":"W 4 AVE","Latitude":49.268692,"Longitude":-123.215179,"WheelchairAccess":1,"Distance":671,"Routes":"004"},{"StopNo":50346,"Name":"EB W 4 AVE FS BLANCA ST","BayNo":"N","City":"VANCOUVER","OnStreet":"W 4 AVE","AtStreet":"BLANCA ST","Latitude":49.269016,"Longitude":-123.214363,"WheelchairAccess":1,"Distance":701,"Routes":""},{"StopNo":50347,"Name":"EB W 4 AVE FS TOLMIE ST","BayNo":"N","City":"VANCOUVER","OnStreet":"W 4 AVE","AtStreet":"TOLMIE ST","Latitude":49.268974,"Longitude":-123.211487,"WheelchairAccess":1,"Distance":716,"Routes":"004, 084"},{"StopNo":50597,"Name":"WB W 4 AVE FS TOLMIE ST","BayNo":"N","City":"VANCOUVER","OnStreet":"W 4 AVE","AtStreet":"TOLMIE ST","Latitude":49.269150,"Longitude":-123.212456,"WheelchairAccess":0,"Distance":722,"Routes":"004"},{"StopNo":51913,"Name":"WB W 4 AVE FS BLANCA ST","BayNo":"N","City":"VANCOUVER","OnStreet":"W 4 AVE","AtStreet":"BLANCA ST","Latitude":49.269196,"Longitude":-123.215569,"WheelchairAccess":0,"Distance":731,"Routes":"084"},{"StopNo":51485,"Name":"EB W 16 AVE AT PACIFIC SPIRIT PARK","BayNo":"N","City":"VANCOUVER","OnStreet":"W 16 AVE","AtStreet":"PACIFIC SPIRIT PARK","Latitude":49.258320,"Longitude":-123.221642,"WheelchairAccess":0,"Distance":749,"Routes":"025, 033"},{"StopNo":50575,"Name":"WB W 10 AVE FS DISCOVERY ST","BayNo":"N","City":"VANCOUVER","OnStreet":"W 10 AVE","AtStreet":"DISCOVERY ST","Latitude":49.263828,"Longitude":-123.203438,"WheelchairAccess":1,"Distance":764,"Routes":"014, N17"},{"StopNo":50596,"Name":"WB W 4 AVE FS SASAMAT ST","BayNo":"N","City":"VANCOUVER","OnStreet":"W 4 AVE","AtStreet":"SASAMAT ST","Latitude":49.269081,"Longitude":-123.209396,"WheelchairAccess":1,"Distance":777,"Routes":"004"},{"StopNo":51488,"Name":"EB W 16 AVE FS TRIMBLE ST","BayNo":"N","City":"VANCOUVER","OnStreet":"W 16 AVE","AtStreet":"TRIMBLE ST","Latitude":49.258106,"Longitude":-123.205772,"WheelchairAccess":0,"Distance":778,"Routes":"025, 033"},{"StopNo":51598,"Name":"WB W 16 AVE AT PACIFIC SPIRIT PARK","BayNo":"N","City":"VANCOUVER","OnStreet":"W 16 AVE","AtStreet":"PACIFIC SPIRIT PARK","Latitude":49.258663,"Longitude":-123.222572,"WheelchairAccess":0,"Distance":779,"Routes":"025, 033"},{"StopNo":50278,"Name":"EB W 10 AVE FS DISCOVERY ST","BayNo":"N","City":"VANCOUVER","OnStreet":"W 10 AVE","AtStreet":"DISCOVERY ST","Latitude":49.263657,"Longitude":-123.202599,"WheelchairAccess":1,"Distance":821,"Routes":"014, N17"},{"StopNo":50349,"Name":"EB W 4 AVE NS TRIMBLE ST","BayNo":"N","City":"VANCOUVER","OnStreet":"W 4 AVE","AtStreet":"TRIMBLE ST","Latitude":49.268906,"Longitude":-123.206398,"WheelchairAccess":1,"Distance":874,"Routes":"004"},{"StopNo":50595,"Name":"WB W 4 AVE FS TRIMBLE ST","BayNo":"N","City":"VANCOUVER","OnStreet":"W 4 AVE","AtStreet":"TRIMBLE ST","Latitude":49.269028,"Longitude":-123.206429,"WheelchairAccess":1,"Distance":883,"Routes":"004"},{"StopNo":51595,"Name":"WB W 16 AVE FS DISCOVERY ST","BayNo":"N","City":"VANCOUVER","OnStreet":"W 16 AVE","AtStreet":"DISCOVERY ST","Latitude":49.258335,"Longitude":-123.203674,"WheelchairAccess":1,"Distance":884,"Routes":"025, 033"},{"StopNo":50574,"Name":"WB W 10 AVE FS COURTENAY ST","BayNo":"N","City":"VANCOUVER","OnStreet":"W 10 AVE","AtStreet":"COURTENAY ST","Latitude":49.263783,"Longitude":-123.200722,"WheelchairAccess":1,"Distance":958,"Routes":"014, N17"},{"StopNo":50279,"Name":"EB W 10 AVE FS COURTENAY ST","BayNo":"N","City":"VANCOUVER","OnStreet":"W 10 AVE","AtStreet":"COURTENAY ST","Latitude":49.263603,"Longitude":-123.199432,"WheelchairAccess":1,"Distance":1049,"Routes":"014, N17"},{"StopNo":50271,"Name":"EB UNIVERSITY BLVD AT 5100 BLOCK","BayNo":"N","City":"VANCOUVER","OnStreet":"UNIVERSITY BLVD","AtStreet":"5100 BLOCK","Latitude":49.263485,"Longitude":-123.229095,"WheelchairAccess":1,"Distance":1111,"Routes":"004, 014, N17"},{"StopNo":51489,"Name":"EB W 16 AVE FS COURTENAY ST","BayNo":"N","City":"VANCOUVER","OnStreet":"W 16 AVE","AtStreet":"COURTENAY ST","Latitude":49.258018,"Longitude":-123.199760,"WheelchairAccess":1,"Distance":1147,"Routes":"025, 033"},{"StopNo":51912,"Name":"EB NW MARINE DR FS LOCARNO CRES","BayNo":"N","City":"VANCOUVER","OnStreet":"NW MARINE DR","AtStreet":"LOCARNO CRES","Latitude":49.268799,"Longitude":-123.200827,"WheelchairAccess":0,"Distance":1160,"Routes":""},{"StopNo":50594,"Name":"WB W 4 AVE FS NW MARINE DR","BayNo":"N","City":"VANCOUVER","OnStreet":"W 4 AVE","AtStreet":"NW MARINE DR","Latitude":49.268604,"Longitude":-123.200584,"WheelchairAccess":0,"Distance":1163,"Routes":"004, 084"},{"StopNo":50602,"Name":"WB UNIVERSITY BLVD AT 5100 BLOCK","BayNo":"N","City":"VANCOUVER","OnStreet":"UNIVERSITY BLVD","AtStreet":"5100 BLOCK","Latitude":49.263695,"Longitude":-123.229836,"WheelchairAccess":1,"Distance":1167,"Routes":"004, 014, N17"},{"StopNo":61138,"Name":"WB NW MARINE DR FS W 4 AVE","BayNo":"N","City":"VANCOUVER","OnStreet":"NW MARINE DR","AtStreet":"W 4 AVE","Latitude":49.268938,"Longitude":-123.200648,"WheelchairAccess":0,"Distance":1180,"Routes":""},{"StopNo":50573,"Name":"WB W 10 AVE FS CAMOSUN ST","BayNo":"N","City":"VANCOUVER","OnStreet":"W 10 AVE","AtStreet":"CAMOSUN ST","Latitude":49.263725,"Longitude":-123.197334,"WheelchairAccess":0,"Distance":1202,"Routes":"014, N17"},{"StopNo":50280,"Name":"EB W 10 AVE FS CAMOSUN ST","BayNo":"N","City":"VANCOUVER","OnStreet":"W 10 AVE","AtStreet":"CAMOSUN ST","Latitude":49.263565,"Longitude":-123.196533,"WheelchairAccess":1,"Distance":1258,"Routes":"014, N17"},{"StopNo":51910,"Name":"EB NW MARINE DR NS DISCOVERY ST","BayNo":"N","City":"VANCOUVER","OnStreet":"NW MARINE DR","AtStreet":"DISCOVERY ST","Latitude":49.271953,"Longitude":-123.203426,"WheelchairAccess":0,"Distance":1274,"Routes":""},{"StopNo":51594,"Name":"WB W 16 AVE FS CAMOSUN ST","BayNo":"N","City":"VANCOUVER","OnStreet":"W 16 AVE","AtStreet":"CAMOSUN ST","Latitude":49.258255,"Longitude":-123.197601,"WheelchairAccess":1,"Distance":1278,"Routes":"025, 033"},{"StopNo":51934,"Name":"WB NW MARINE DR FS DISCOVERY ST","BayNo":"N","City":"VANCOUVER","OnStreet":"NW MARINE DR","AtStreet":"DISCOVERY ST","Latitude":49.271904,"Longitude":-123.203022,"WheelchairAccess":0,"Distance":1287,"Routes":""},{"StopNo":51490,"Name":"EB W 16 AVE NS CAMOSUN ST","BayNo":"N","City":"VANCOUVER","OnStreet":"W 16 AVE","AtStreet":"CAMOSUN ST","Latitude":49.257984,"Longitude":-123.197495,"WheelchairAccess":1,"Distance":1297,"Routes":"025, 033"},{"StopNo":61133,"Name":"SB NW MARINE DR FS BELMONT AVE","BayNo":"N","City":"VANCOUVER","OnStreet":"TRIMBLE ST","AtStreet":"BELMONT AVE","Latitude":49.273327,"Longitude":-123.205803,"WheelchairAccess":0,"Distance":1315,"Routes":""},{"StopNo":51906,"Name":"EB NW MARINE DR FS TOLMIE ST","BayNo":"N","City":"VANCOUVER","OnStreet":"NW MARINE DR","AtStreet":"TOLMIE ST","Latitude":49.274742,"Longitude":-123.211352,"WheelchairAccess":0,"Distance":1349,"Routes":""},{"StopNo":50593,"Name":"WB W 4 AVE AT 4100 BLOCK","BayNo":"N","City":"VANCOUVER","OnStreet":"W 4 AVE","AtStreet":"4100 BLOCK","Latitude":49.268917,"Longitude":-123.197838,"WheelchairAccess":1,"Distance":1349,"Routes":"004"},{"StopNo":50350,"Name":"EB W 4 AVE AT 4100 BLOCK","BayNo":"N","City":"VANCOUVER","OnStreet":"W 4 AVE","AtStreet":"4100 BLOCK","Latitude":49.268681,"Longitude":-123.197617,"WheelchairAccess":1,"Distance":1350,"Routes":"004, 084"},{"StopNo":51937,"Name":"WB NW MARINE DR FS SASAMAT ST","BayNo":"N","City":"VANCOUVER","OnStreet":"NW MARINE DR","AtStreet":"SASAMAT ST","Latitude":49.274502,"Longitude":-123.209135,"WheelchairAccess":0,"Distance":1354,"Routes":""},{"StopNo":51938,"Name":"WB NW MARINE DR FS TOLMIE ST","BayNo":"N","City":"VANCOUVER","OnStreet":"NW MARINE DR","AtStreet":"TOLMIE ST","Latitude":49.275093,"Longitude":-123.212054,"WheelchairAccess":0,"Distance":1382,"Routes":""},{"StopNo":51935,"Name":"NB NW MARINE DR FS BELMONT AVE","BayNo":"N","City":"VANCOUVER","OnStreet":"NW MARINE DR","AtStreet":"BELMONT AVE","Latitude":49.274065,"Longitude":-123.205593,"WheelchairAccess":0,"Distance":1396,"Routes":""},{"StopNo":50572,"Name":"WB W 10 AVE FS CROWN ST","BayNo":"N","City":"VANCOUVER","OnStreet":"W 10 AVE","AtStreet":"CROWN ST","Latitude":49.263683,"Longitude":-123.194466,"WheelchairAccess":1,"Distance":1409,"Routes":"014, N17"},{"StopNo":59943,"Name":"NB ACADIA RD NS ORTONA AV ","BayNo":"N","City":"VANCOUVER","OnStreet":"ACADIA RD","AtStreet":"ORTONA AVE","Latitude":49.261450,"Longitude":-123.234140,"WheelchairAccess":1,"Distance":1481,"Routes":""},{"StopNo":50281,"Name":"EB W 10 AVE FS CROWN ST","BayNo":"N","City":"VANCOUVER","OnStreet":"W 10 AVE","AtStreet":"CROWN ST","Latitude":49.263527,"Longitude":-123.193420,"WheelchairAccess":1,"Distance":1484,"Routes":"014, N17"},{"StopNo":59939,"Name":"WB HAMPTON PL AT BUS ACCESS","BayNo":"N","City":"VANCOUVER","OnStreet":"HAMPTON PL","AtStreet":"BUS ACCESS RD","Latitude":49.258950,"Longitude":-123.233890,"WheelchairAccess":1,"Distance":1515,"Routes":""},{"StopNo":61143,"Name":"SPANISH BANKS LOOP","BayNo":"N","City":"VANCOUVER","OnStreet":"BUS STOP","AtStreet":"SPANISH BANKS LOOP","Latitude":49.276328,"Longitude":-123.215494,"WheelchairAccess":1,"Distance":1518,"Routes":""},{"StopNo":59944,"Name":"EB OSOYOOS CRES FS ACADIA PARK LANE","BayNo":"N","City":"VANCOUVER","OnStreet":"OSOYOOS CRES","AtStreet":"ACADIA PARK LANE","Latitude":49.259710,"Longitude":-123.235030,"WheelchairAccess":1,"Distance":1575,"Routes":""},{"StopNo":50270,"Name":"EB UNIVERSITY BLVD AT 5300 BLOCK","BayNo":"N","City":"VANCOUVER","OnStreet":"UNIVERSITY BLVD","AtStreet":"5300 BLOCK","Latitude":49.265327,"Longitude":-123.235214,"WheelchairAccess":0,"Distance":1579,"Routes":"004, 014, N17"},{"StopNo":50592,"Name":"WB W 4 AVE AT 4000 BLOCK","BayNo":"N","City":"VANCOUVER","OnStreet":"W 4 AVE","AtStreet":"4000 BLOCK","Latitude":49.268845,"Longitude":-123.194069,"WheelchairAccess":1,"Distance":1587,"Routes":"004"},{"StopNo":51491,"Name":"EB W 16 AVE FS CROWN ST","BayNo":"N","City":"VANCOUVER","OnStreet":"W 16 AVE","AtStreet":"CROWN ST","Latitude":49.257915,"Longitude":-123.193062,"WheelchairAccess":1,"Distance":1599,"Routes":"025, 033"},{"StopNo":50603,"Name":"WB UNIVERSITY BLVD AT 5300 BLOCK","BayNo":"N","City":"VANCOUVER","OnStreet":"UNIVERSITY BLVD","AtStreet":"5300 BLOCK","Latitude":49.265816,"Longitude":-123.235542,"WheelchairAccess":1,"Distance":1613,"Routes":"004, 014, N17"},{"StopNo":50571,"Name":"WB W 10 AVE FS WALLACE ST","BayNo":"N","City":"VANCOUVER","OnStreet":"W 10 AVE","AtStreet":"WALLACE ST","Latitude":49.263645,"Longitude":-123.191414,"WheelchairAccess":0,"Distance":1630,"Routes":"014, N17"},{"StopNo":59298,"Name":"EB W 4 AVE FS DIEPPE LANE","BayNo":"N","City":"VANCOUVER","OnStreet":"W 4 AVE","AtStreet":"DIEPPE LANE","Latitude":49.268578,"Longitude":-123.193153,"WheelchairAccess":1,"Distance":1635,"Routes":"004"},{"StopNo":61043,"Name":"WB W 16 AVE NS WESBROOK MALL","BayNo":"N","City":"VANCOUVER","OnStreet":"W 16 AVE","AtStreet":"WESBROOK MALL","Latitude":49.256287,"Longitude":-123.234955,"WheelchairAccess":1,"Distance":1692,"Routes":"025, 033"},{"StopNo":51593,"Name":"WB W 16 AVE FS WALLACE ST","BayNo":"N","City":"VANCOUVER","OnStreet":"W 16 AVE","AtStreet":"WALLACE ST","Latitude":49.258163,"Longitude":-123.191536,"WheelchairAccess":1,"Distance":1695,"Routes":"025, 033"},{"StopNo":51484,"Name":"EB W 16 AVE FS WESBROOK MALL","BayNo":"N","City":"VANCOUVER","OnStreet":"W 16 AVE","AtStreet":"WESBROOK MALL","Latitude":49.256016,"Longitude":-123.235153,"WheelchairAccess":1,"Distance":1718,"Routes":"025, 033"},{"StopNo":61044,"Name":"NB WESBROOK MALL NS W 16 AVE","BayNo":"N","City":"VANCOUVER","OnStreet":"WESBROOK MALL","AtStreet":"W 16 AVE","Latitude":49.255390,"Longitude":-123.235825,"WheelchairAccess":1,"Distance":1792,"Routes":"068"},{"StopNo":61580,"Name":"NB WESBROOK MALL FS BIRNEY AVE","BayNo":"N","City":"VANCOUVER","OnStreet":"WESBROOK MALL","AtStreet":"BIRNEY AVE","Latitude":49.254486,"Longitude":-123.235191,"WheelchairAccess":1,"Distance":1801,"Routes":"049"},{"StopNo":61579,"Name":"SB WESBROOK MALL NS BIRNEY AVE","BayNo":"N","City":"VANCOUVER","OnStreet":"WESBROOK MALL","AtStreet":"BIRNEY AVE","Latitude":49.254063,"Longitude":-123.234978,"WheelchairAccess":1,"Distance":1812,"Routes":"049, 068"}]