{
   "html_attributions" : [],
   "next_page_token" : "CvQD6gEAAMIStoVAxDoeu_rvcjENWmVSPiNLzBRaOQt3x_lmz5xvej-QXKrzX5-3BsuUbsIQpN78c010N8uoEIqkh_EsP3oDu_S92SLzT7rQst8hhdXSWxysxIB0olLnQ-_eWwdawECmCMjU-nY0HjZ2BcENPyvskf0YuLbOepPYu1-kgP2F648JEBI5QhPyMhehuBynRMYxMKLjGpM_JDa7tLKrjWJguF8Crqwfz5RHOujfZ1R-NcRttdkE98v0KNgoS_rtbWN0aXr9FO32tlXiKZI0yMFCv0FadqqdmoB59H9S_kgkylTr2_EwxfnJgMoH4vYogHq-nx_ph_AFbdsYN9e9l6MoJ78pt5gBv31PS1IvS_CdxFRXOrTH6p7dQnLs6O_qSg7KsNeliwMqdP2sNf8tm-eYBfEcD804q4lmJl0_wpHgjcd6TKGfnTA1b5_ORVrM-hvXNH8X0H8Oqaq6Zl_Qmsdat_0X5_j5JgjEzBjZiffWf271pbhg0yULo5r9XwXDNoJO-jLmVP_MhUCSuZH_5I5t6QyjvUIJDADqI1wmsi9Hw52JZ5TNxZnrFhaGeqI2R2pKsXem0wYYxO3f6FLft_IAJYjVEdA0OyeA9JPXM_zlARUqCNIXD2dQ16Cej--Ms8OUjHaA882qPwtUwxbscEgSEITGayVk2WAESH95hQmpDBIaFDgOcTzzwlohj6spPU1bCszpxQdG",
   "results" : [
      {
         "geometry" : {
            "location" : {
               "lat" : 43.756009,
               "lng" : -79.60159399999999
            },
            "viewport" : {
               "northeast" : {
                  "lat" : 43.7573579802915,
                  "lng" : -79.60024501970848
               },
               "southwest" : {
                  "lat" : 43.7546600197085,
                  "lng" : -79.6029429802915
               }
            }
         },
         "icon" : "https://maps.gstatic.com/mapfiles/place_api/icons/bus-71.png",
         "id" : "a25ae076cdd2a91141b46a0afba33b2727feabe1",
         "name" : "Martin Grove Rd / Brunello GT",
         "place_id" : "ChIJ5WMEON46K4gRabgGecK1HF8",
         "rating" : 5,
         "reference" : "CmRRAAAAeF9dvHISJOXom0UT3fYwHzzLbpW_4YIiL1BFWbOLlp0ojGPe895qrS4fbb6snrxCzheHuMxkwWzu5cUM9em2cxLhu4UWnDnJx1gjKsrGOPUj-ML-X8F8BrFrcZIV92eQEhAmnHXbDuRkuGNZblVp2iDCGhTNp1gghyHFNtVifLahc2ISL1Txxg",
         "scope" : "GOOGLE",
         "types" : [
            "bus_station",
            "transit_station",
            "point_of_interest",
            "establishment"
         ],
         "vicinity" : "Canada"
      },
      {
         "geometry" : {
            "location" : {
               "lat" : 43.755976,
               "lng" : -79.60150299999999
            },
            "viewport" : {
               "northeast" : {
                  "lat" : 43.75732498029151,
                  "lng" : -79.6001540197085
               },
               "southwest" : {
                  "lat" : 43.75462701970851,
                  "lng" : -79.6028519802915
               }
            }
         },
         "icon" : "https://maps.gstatic.com/mapfiles/place_api/icons/bus-71.png",
         "id" : "c87e4f7ac2570e33ba1f0486c525ed9067e93095",
         "name" : "Martin Grove Rd at Brunello Gate",
         "place_id" : "ChIJy9W8ON46K4gRfP7nO9IMWbM",
         "reference" : "CmRSAAAAr30fxYUkHa5XzmeE6FdKRx-MU1erZVD1GQk6Oaf8ITfUl_RNJX1fEIBmbDaJhmHBuc7rkeBAIpO6IpIr-i0_67b8b_Dol4W41aQCn_xoK-yu0JakvA39QRWnvX7-hJq6EhCKl-NjHEQayMx1ZZyUyiNCGhS_fqaxJSl4Nqc8c2eFZG0oA-5D_A",
         "scope" : "GOOGLE",
         "types" : [
            "bus_station",
            "transit_station",
            "point_of_interest",
            "establishment"
         ],
         "vicinity" : "Canada"
      },
      {
         "geometry" : {
            "location" : {
               "lat" : 43.757677,
               "lng" : -79.60351
            },
            "viewport" : {
               "northeast" : {
                  "lat" : 43.7590259802915,
                  "lng" : -79.60216101970849
               },
               "southwest" : {
                  "lat" : 43.7563280197085,
                  "lng" : -79.6048589802915
               }
            }
         },
         "icon" : "https://maps.gstatic.com/mapfiles/place_api/icons/bus-71.png",
         "id" : "b3351e2083c33922d099bd2fdc0a7ce62a0ea3b6",
         "name" : "Steeles Ave West at Martin Grove Rd",
         "photos" : [
            {
               "height" : 3024,
               "html_attributions" : [
                  "\u003ca href=\"https://maps.google.com/maps/contrib/100076959601235141870/photos\"\u003ePrasad Mapatuna\u003c/a\u003e"
               ],
               "photo_reference" : "CmRaAAAAsotV6AlK3LPi0NAcu5VIcTIn_1gtchcxJUjNVrf2p47W_Gmf2JQ9E_zPL87Pt0HkAqCrh9WLqZ6ka6AyFEARp28wWQypEnqdZPlrZSCz_LI-eH-2JB0LIppbkFE0YlEYEhBNrUIVqEg-FU8BbORYh9BGGhTY_OyIQPW1sj3yUjpp34emzXblkw",
               "width" : 4032
            }
         ],
         "place_id" : "ChIJsVZTCd86K4gRDQHaExBoBHo",
         "reference" : "CmRRAAAA-rvelqP96dxIfpbL_j206vKOttK5zsUm727TbuYSjMOnZEnmrRM2QYIvFKjEvQmVNJAqflpk8zS7DECAHNsNvrSLxprPh4glbnF513ZHuPl2KNAPNah4w3BqpSd2E3eBEhB-fdXQLEDHMJCqUWazamuMGhRpWp7EcEK5VEGzGOsJOgA06JMZuw",
         "scope" : "GOOGLE",
         "types" : [
            "bus_station",
            "transit_station",
            "point_of_interest",
            "establishment"
         ],
         "vicinity" : "Canada"
      },
      {
         "geometry" : {
            "location" : {
               "lat" : 43.758022,
               "lng" : -79.603239
            },
            "viewport" : {
               "northeast" : {
                  "lat" : 43.75937098029149,
                  "lng" : -79.60189001970851
               },
               "southwest" : {
                  "lat" : 43.7566730197085,
                  "lng" : -79.60458798029151
               }
            }
         },
         "icon" : "https://maps.gstatic.com/mapfiles/place_api/icons/bus-71.png",
         "id" : "e10ef1b67b927cba788a354214c87357e6a64614",
         "name" : "Steeles Ave West at Martin Grove Rd",
         "place_id" : "ChIJ9y4TEN86K4gR-dXzcUfyX14",
         "reference" : "CmRRAAAA8BoviubgZjNgMv5KG_2RHJAIOf0rGZ467V9QqB9nGRw9010Ao2-c4WEyLN6iTPL6bvbwKFRuXFpUoO9hd3JN7qxor8D9objj-eFTnzTpUaPO_QWz6fBTuxi-L57NZLbfEhAVSmOO0mUyLtcj6Gg_bKtfGhTwkjRwwLYX_Ur7PueTpPTAOE68CA",
         "scope" : "GOOGLE",
         "types" : [
            "bus_station",
            "transit_station",
            "point_of_interest",
            "establishment"
         ],
         "vicinity" : "Canada"
      },
      {
         "geometry" : {
            "location" : {
               "lat" : 43.75769500000001,
               "lng" : -79.60441
            },
            "viewport" : {
               "northeast" : {
                  "lat" : 43.7590439802915,
                  "lng" : -79.60306101970851
               },
               "southwest" : {
                  "lat" : 43.7563460197085,
                  "lng" : -79.60575898029151
               }
            }
         },
         "icon" : "https://maps.gstatic.com/mapfiles/place_api/icons/bus-71.png",
         "id" : "bf374ca5dd30217fedec5c1a8ec4868935d26187",
         "name" : "Steeles Ave West at Martin Grove Rd West Side",
         "place_id" : "ChIJL4Hfdt86K4gRYZqu9sIGWsc",
         "reference" : "CmRSAAAAKvlWEQBzBs0Fkjqh1jnm8veY_YMRxB0MvVmkh2ncnU6GZNHYlxsI3CAZjZ49XYTYJbuWNRW_6-5oGvEWp1vXx4SBuCwVQ4HsG8nm-YhNiT1V2ABmjXV7msjyVN2dugV0EhAqB029dWJ8xSzukf3zEYc6GhQbrKWNYF4JD6GmOAGIWm54EQSTlQ",
         "scope" : "GOOGLE",
         "types" : [
            "bus_station",
            "transit_station",
            "point_of_interest",
            "establishment"
         ],
         "vicinity" : "Canada"
      },
      {
         "geometry" : {
            "location" : {
               "lat" : 43.7580314,
               "lng" : -79.603764
            },
            "viewport" : {
               "northeast" : {
                  "lat" : 43.7593803802915,
                  "lng" : -79.60241501970849
               },
               "southwest" : {
                  "lat" : 43.7566824197085,
                  "lng" : -79.60511298029149
               }
            }
         },
         "icon" : "https://maps.gstatic.com/mapfiles/place_api/icons/bus-71.png",
         "id" : "0657830cccb2274c95062bdd0299daa72d849062",
         "name" : "Martin Grove Rd / Steeles Av",
         "place_id" : "ChIJ0TuQVt86K4gR00G35gxT7oM",
         "reference" : "CmRSAAAAgKoG1uaf3vem_cR6udM59xYhaXnzBBE7RGjVbikLIHV8OAFQKX1C1csTxgB0tBp7nq3YWNHDM3SF2DIjQ_KuhUCfJzqDX5CzcB9x0mdmtyLqqA_fpnCSLNY4G9DtJF1jEhB8jY3SphMyX1i8pel6E0HaGhSk9GmAV1NG54ZcDGUE1JLozYPXAw",
         "scope" : "GOOGLE",
         "types" : [
            "bus_station",
            "transit_station",
            "point_of_interest",
            "establishment"
         ],
         "vicinity" : "Canada"
      },
      {
         "geometry" : {
            "location" : {
               "lat" : 43.75805599999999,
               "lng" : -79.603776
            },
            "viewport" : {
               "northeast" : {
                  "lat" : 43.75940498029149,
                  "lng" : -79.60242701970849
               },
               "southwest" : {
                  "lat" : 43.75670701970849,
                  "lng" : -79.60512498029149
               }
            }
         },
         "icon" : "https://maps.gstatic.com/mapfiles/place_api/icons/bus-71.png",
         "id" : "5911392879c3d7b1fbae38273dcba442152d8ddd",
         "name" : "Martin Grove Rd / Steeles Av",
         "place_id" : "ChIJLQSUEt86K4gRfis9UyC_qDY",
         "reference" : "CmRRAAAAs8-l2wAiGqv-6HKb64_NIexn9EaY_tk4rSHHwGjPjlrONpadw7CaoLk5r-0NDycp9gywZyweuB2aqshxz6bVbNtglUl_Ti1AQSUc8zYh6bBKbor1wec6uIvPKd-z1YEXEhDsI4ub0HcDjjJuOEGwbXZTGhStFRKWB9RgTYdqBHHjqI8a-rc2yg",
         "scope" : "GOOGLE",
         "types" : [
            "bus_station",
            "transit_station",
            "point_of_interest",
            "establishment"
         ],
         "vicinity" : "Canada"
      },
      {
         "geometry" : {
            "location" : {
               "lat" : 43.758523,
               "lng" : -79.60384499999999
            },
            "viewport" : {
               "northeast" : {
                  "lat" : 43.7598719802915,
                  "lng" : -79.6024960197085
               },
               "southwest" : {
                  "lat" : 43.7571740197085,
                  "lng" : -79.6051939802915
               }
            }
         },
         "icon" : "https://maps.gstatic.com/mapfiles/place_api/icons/bus-71.png",
         "id" : "7e2d4ea64b66146469aae215c1ee568b2f52dbea",
         "name" : "Martin Grove Rd / Steeles Av",
         "place_id" : "ChIJRWY0Fd86K4gRBpSCyvJCFoI",
         "reference" : "CmRSAAAA-R0HQFB3SEQsRJsEhVbQdiTIbOWDoSc7ybr2DGaEYNKRngHIdISa4hMbQoL-0RcTxzNwqc-WaOzZxiGxrOYziGXCALOTP0D_WrlO9ZgJ1df-pI2DDGeRh8mWtun3S7fwEhANHTY4htX8eohcEdhBKgx7GhQoZlPURZ50UE4U-cfIuTnNw6mzfQ",
         "scope" : "GOOGLE",
         "types" : [
            "bus_station",
            "transit_station",
            "point_of_interest",
            "establishment"
         ],
         "vicinity" : "Canada"
      },
      {
         "geometry" : {
            "location" : {
               "lat" : 43.754169,
               "lng" : -79.600281
            },
            "viewport" : {
               "northeast" : {
                  "lat" : 43.75551798029149,
                  "lng" : -79.5989320197085
               },
               "southwest" : {
                  "lat" : 43.7528200197085,
                  "lng" : -79.60162998029151
               }
            }
         },
         "icon" : "https://maps.gstatic.com/mapfiles/place_api/icons/bus-71.png",
         "id" : "2f3d42da130e86236d55f2daebc82f5a09bfaae7",
         "name" : "Martin Grove Rd / Cabernet Cir",
         "place_id" : "ChIJ85LCr-A6K4gR6uPN3bHfBSs",
         "rating" : 5,
         "reference" : "CmRRAAAAaQqrGdITpixnCBI-yHLngbzvTHh_HpZtB1Jl0ZVvp-cHw7SpLFUn7nhJhFy6yzzsI3QN2JdvqqxJ4TvRtfJPJ6yQaBo7_xq0-dOiQhXhSggspBcNouMhwgGujtLqemsfEhA4KGkAlsUgP6CrIHMmkxc4GhRpDC5V3ZUoGrlCtIqeRst3UHHh4g",
         "scope" : "GOOGLE",
         "types" : [
            "bus_station",
            "transit_station",
            "point_of_interest",
            "establishment"
         ],
         "vicinity" : "Canada"
      },
      {
         "geometry" : {
            "location" : {
               "lat" : 43.75395400000001,
               "lng" : -79.599891
            },
            "viewport" : {
               "northeast" : {
                  "lat" : 43.7553029802915,
                  "lng" : -79.59854201970849
               },
               "southwest" : {
                  "lat" : 43.7526050197085,
                  "lng" : -79.60123998029151
               }
            }
         },
         "icon" : "https://maps.gstatic.com/mapfiles/place_api/icons/bus-71.png",
         "id" : "31ddc95a5500129a8445f7713e22385e871c259b",
         "name" : "Martin Grove Rd / Gihon Spring Dr",
         "place_id" : "ChIJ4YlNsuA6K4gRriSH1axEB3Y",
         "reference" : "CmRRAAAAa99rLZ2ZWibOL9uS1ohZ1uZI_Jyq2rIHthLasRTDMMyzYRmxdwRh2yHTLvaDI6_RJkjhTs3GMvlrr15nod-ee9Gp-6kqRr9DOhOokqUPW2GG4nTZtG38ECxEcRDTYDIkEhAisMOnkxfFNC2ByNmfs3okGhRKnQ4MRnXbEYSjGKB1nLEPUSYXnA",
         "scope" : "GOOGLE",
         "types" : [
            "bus_station",
            "transit_station",
            "point_of_interest",
            "establishment"
         ],
         "vicinity" : "Canada"
      },
      {
         "geometry" : {
            "location" : {
               "lat" : 43.756699,
               "lng" : -79.607878
            },
            "viewport" : {
               "northeast" : {
                  "lat" : 43.7580479802915,
                  "lng" : -79.6065290197085
               },
               "southwest" : {
                  "lat" : 43.7553500197085,
                  "lng" : -79.60922698029151
               }
            }
         },
         "icon" : "https://maps.gstatic.com/mapfiles/place_api/icons/bus-71.png",
         "id" : "54ee10fd1ebb34eefcda22bf326071e3ba7038d0",
         "name" : "Steeles Av Loop Stop # 5271",
         "photos" : [
            {
               "height" : 3024,
               "html_attributions" : [
                  "\u003ca href=\"https://maps.google.com/maps/contrib/100076959601235141870/photos\"\u003ePrasad Mapatuna\u003c/a\u003e"
               ],
               "photo_reference" : "CmRaAAAANCfKgpgW7nTbYZBYpSZdHRrlYTmAx5e2fgtvvPt_JL1z_mEgFCYavPmN9uXiFRvUZ1BPfnvA_SCePFcfspVvbKpkIgVGVMjNeLn7KuvuOI1xxWNxKeWl-LPyaBQQOmuEEhB0tRRShArLsY_Z9bBXy-MXGhTApWuqWzRxOXlxY9h-zWCA01BHyw",
               "width" : 4032
            }
         ],
         "place_id" : "ChIJnytbSiA7K4gRGamWQ9go3zA",
         "rating" : 5,
         "reference" : "CmRRAAAAgx5SwgIJ36ZH7xMJaxg0GvGb5htWSSG-Pe_17s5yhs5gpKZblQlIn3-r1p_T17BsdzFpOfwmg06GXKLyKjXImcAIddClatEqsFjg3-5aBnLB7hLhImW52WaujwkAZyjFEhD4UbtK42gGxBk6UKGSf8wmGhTEJdG46WRCDVjjA3qOjWXn2D6OOQ",
         "scope" : "GOOGLE",
         "types" : [
            "bus_station",
            "transit_station",
            "point_of_interest",
            "establishment"
         ],
         "vicinity" : "Canada"
      },
      {
         "geometry" : {
            "location" : {
               "lat" : 43.756538,
               "lng" : -79.608215
            },
            "viewport" : {
               "northeast" : {
                  "lat" : 43.7578869802915,
                  "lng" : -79.60686601970849
               },
               "southwest" : {
                  "lat" : 43.7551890197085,
                  "lng" : -79.60956398029151
               }
            }
         },
         "icon" : "https://maps.gstatic.com/mapfiles/place_api/icons/bus-71.png",
         "id" : "daf5b2152ac7dc7e589c133d955d36b1da861513",
         "name" : "Steeles Loop-W. of Martin Grove",
         "place_id" : "ChIJEy_syiE7K4gRJdyVlJe-HEs",
         "rating" : 5,
         "reference" : "CmRRAAAAw6Ogi-Hi0AGuet-LnxPhM3yPdtwUk6cbw-sFvFoyl6ls3jDygeYgabk6gRRYKa6RQpm0E4b-xRUCWiThq5B7EN3ymz9zgyzBcksh6U0pfP9eQoZxu-cBUaa2JaygYer6EhBr0EAwOX1LdMZOd5FHWIvAGhRNMRo1_8PVc9QPbPc2qzbgyLv7uw",
         "scope" : "GOOGLE",
         "types" : [
            "bus_station",
            "transit_station",
            "point_of_interest",
            "establishment"
         ],
         "vicinity" : "Canada"
      },
      {
         "geometry" : {
            "location" : {
               "lat" : 43.75658,
               "lng" : -79.60854399999999
            },
            "viewport" : {
               "northeast" : {
                  "lat" : 43.7579289802915,
                  "lng" : -79.60719501970848
               },
               "southwest" : {
                  "lat" : 43.7552310197085,
                  "lng" : -79.60989298029149
               }
            }
         },
         "icon" : "https://maps.gstatic.com/mapfiles/place_api/icons/bus-71.png",
         "id" : "812510dd40d40dd6a261d38230cdacca15718899",
         "name" : "6793-6823 Steeles Ave West",
         "place_id" : "ChIJ3aK_ySE7K4gRpwerIvvH4_k",
         "reference" : "CmRSAAAAc2vlXHXMCp5VIkJSajjr1hhXsTXkQO9DlmeOI3dHbrkzGcEwkhVyJsepJZStey8iLhVvynEl8E6kWxIrtdVgWECOVe02SdVQM65J2UC3OUx0AH_7WbnzJ15BkcEyXQC1EhDONLzgpGAEGLXI7BQNdojaGhS0rJo8K-J2fLRHFff5bpWi8HDyyg",
         "scope" : "GOOGLE",
         "types" : [
            "bus_station",
            "transit_station",
            "point_of_interest",
            "establishment"
         ],
         "vicinity" : "Canada"
      },
      {
         "geometry" : {
            "location" : {
               "lat" : 43.75674799999999,
               "lng" : -79.60861199999999
            },
            "viewport" : {
               "northeast" : {
                  "lat" : 43.7580969802915,
                  "lng" : -79.60726301970848
               },
               "southwest" : {
                  "lat" : 43.7553990197085,
                  "lng" : -79.6099609802915
               }
            }
         },
         "icon" : "https://maps.gstatic.com/mapfiles/place_api/icons/bus-71.png",
         "id" : "8ceb6743345dd3a43c3731fa935e929268fb8109",
         "name" : "Opposite 6793-6823 Steeles Ave West",
         "place_id" : "ChIJn1VKtiE7K4gR3LD9pu3khNU",
         "reference" : "CmRSAAAAPkSkY5I9gzWDynQKaCoVT9ach6qF0PPQ788WUhBFPgQJB1z4mFbJJDkryr8hmmgArmYlouals-2ORTtQ-D9P2rEQgxqjkzVcxEE6PhqLaGerAAAb765IlzFszhPyG8i1EhBfJQWW9SGwnd6V7qYqvTvsGhSV1Yt8qSKbsxGyIBjIH0AbJbE9Og",
         "scope" : "GOOGLE",
         "types" : [
            "bus_station",
            "transit_station",
            "point_of_interest",
            "establishment"
         ],
         "vicinity" : "Canada"
      },
      {
         "geometry" : {
            "location" : {
               "lat" : 43.752416,
               "lng" : -79.59946699999999
            },
            "viewport" : {
               "northeast" : {
                  "lat" : 43.7537649802915,
                  "lng" : -79.59811801970848
               },
               "southwest" : {
                  "lat" : 43.7510670197085,
                  "lng" : -79.6008159802915
               }
            }
         },
         "icon" : "https://maps.gstatic.com/mapfiles/place_api/icons/bus-71.png",
         "id" : "554c8f8685e270c42a7ea723a07399cf186a4a25",
         "name" : "Martin Grove Rd at Royalcrest Rd",
         "place_id" : "ChIJbxFTKuc6K4gRD7dacghXrC8",
         "reference" : "CmRRAAAAZol5awzkQpPduI5nsjBoKt5v_d2sQiQZSePNi71ufNA-GohUWAe8W9CnvGbGwFWajrbRN6HoTQvqVug8cS7nKWjaOv4edM5MReNIJA5d0bfr17B9YF2nJewQO5Qz7e2hEhCSoYMf86-plt9lKuygY6MZGhT_Zx4xAR_eqT5JixgdPhFIYiN-hw",
         "scope" : "GOOGLE",
         "types" : [
            "bus_station",
            "transit_station",
            "point_of_interest",
            "establishment"
         ],
         "vicinity" : "Canada"
      },
      {
         "geometry" : {
            "location" : {
               "lat" : 43.75221,
               "lng" : -79.59992799999999
            },
            "viewport" : {
               "northeast" : {
                  "lat" : 43.7535589802915,
                  "lng" : -79.59857901970848
               },
               "southwest" : {
                  "lat" : 43.7508610197085,
                  "lng" : -79.6012769802915
               }
            }
         },
         "icon" : "https://maps.gstatic.com/mapfiles/place_api/icons/bus-71.png",
         "id" : "409ce68cb73303f44f191c1b3493a6e45ef94cc4",
         "name" : "Royalcrest Rd at Martin Grove Rd West Side",
         "place_id" : "ChIJq7hHKuE6K4gRHku1zo21rU8",
         "reference" : "CmRRAAAApluxRH063Ju1io1-okIGlsTncWKcSIceWvONuwDX8vmHxDn4U0bRrfwPtuZjFT9uXqgUCamXfZuNqZCO3IYDycFqe_G2koii85_h7yU-p43o6g1SzzC_BVAXW85ozVEqEhA091bfsCP7l2aO8xsEYPxTGhS3YI4z7ozUwm-duMZYJhF43gCAbg",
         "scope" : "GOOGLE",
         "types" : [
            "bus_station",
            "transit_station",
            "point_of_interest",
            "establishment"
         ],
         "vicinity" : "Canada"
      },
      {
         "geometry" : {
            "location" : {
               "lat" : 43.75216,
               "lng" : -79.599643
            },
            "viewport" : {
               "northeast" : {
                  "lat" : 43.75350898029151,
                  "lng" : -79.59829401970849
               },
               "southwest" : {
                  "lat" : 43.75081101970851,
                  "lng" : -79.60099198029151
               }
            }
         },
         "icon" : "https://maps.gstatic.com/mapfiles/place_api/icons/bus-71.png",
         "id" : "bf3c9e3c6e373bcb66ebb971cff1e133889dfbe4",
         "name" : "Royalcrest Rd at Martin Grove Rd",
         "place_id" : "ChIJZTQp1eY6K4gRXSVnnW7_MQ8",
         "reference" : "CmRRAAAA8UIJ96Hh8fIntyRNaTgsJsCcf7zcnrWJjIbIFZj8Q3BfAqZ1FuhWYwwqy5lxDgUYk41gZY1guQp7eZYmt_7N5LX9NLNA9ZXxYpjhvkm7xZowzmFcNez5L4A5yx5LFDz2EhDgFhnfdssexqEe9enF5rFeGhRA1D2RP98Y_Y5PNyEGufbTwgLI4g",
         "scope" : "GOOGLE",
         "types" : [
            "bus_station",
            "transit_station",
            "point_of_interest",
            "establishment"
         ],
         "vicinity" : "Canada"
      },
      {
         "geometry" : {
            "location" : {
               "lat" : 43.75229499999999,
               "lng" : -79.599282
            },
            "viewport" : {
               "northeast" : {
                  "lat" : 43.75364398029149,
                  "lng" : -79.59793301970851
               },
               "southwest" : {
                  "lat" : 43.75094601970849,
                  "lng" : -79.60063098029151
               }
            }
         },
         "icon" : "https://maps.gstatic.com/mapfiles/place_api/icons/bus-71.png",
         "id" : "962afc0fb751d689f3f2d48822a63c8744e801a2",
         "name" : "Martin Grove Rd. at Royalcrest Rd",
         "place_id" : "ChIJNwvwKec6K4gRpd7fEbNwAfQ",
         "reference" : "CmRSAAAARCGnjdTmK285ixxT9Va_GElVqWUf-wX0sYMV3cz2f7mJaAwFQoPEDVj62KACCxCkavGnMovHrsvCPVVU2Cm4Mz3eyApvHIrKh8BLueKmWbagH55T4I6X-5mqKwg9IREpEhAAblpqI61kz1uM2o29NEfsGhRrM5quj6g-6Xh9mlx-grb_yUyl3Q",
         "scope" : "GOOGLE",
         "types" : [
            "bus_station",
            "transit_station",
            "point_of_interest",
            "establishment"
         ],
         "vicinity" : "Canada"
      },
      {
         "geometry" : {
            "location" : {
               "lat" : 43.759103,
               "lng" : -79.597144
            },
            "viewport" : {
               "northeast" : {
                  "lat" : 43.7604519802915,
                  "lng" : -79.5957950197085
               },
               "southwest" : {
                  "lat" : 43.7577540197085,
                  "lng" : -79.59849298029151
               }
            }
         },
         "icon" : "https://maps.gstatic.com/mapfiles/place_api/icons/bus-71.png",
         "id" : "9a9e5c8809661b309d5002a8da1b731904ca2bde",
         "name" : "Steeles Ave West at Gihon Spring Dr",
         "place_id" : "ChIJ1yBBf9w6K4gRFISLIFZE2wE",
         "reference" : "CmRRAAAAym8ZL7gOgVJ6FOwUW_EsBhPH4ZNFSSY380fxHFpb6g5WvECORGQu5_UvbSkSYha5o-09z1A4eMqWfuAuCOxfaT-73fqBWKUQ2R1aysZsT0LxefTT7GCH6PqRmmy4iT4YEhCTzV67-SKHar8N5v3eIJADGhRlbdXrpcU9tA13SE22Yv4fr3ey6w",
         "scope" : "GOOGLE",
         "types" : [
            "bus_station",
            "transit_station",
            "point_of_interest",
            "establishment"
         ],
         "vicinity" : "Canada"
      },
      {
         "geometry" : {
            "location" : {
               "lat" : 43.752236,
               "lng" : -79.599099
            },
            "viewport" : {
               "northeast" : {
                  "lat" : 43.7535849802915,
                  "lng" : -79.59775001970849
               },
               "southwest" : {
                  "lat" : 43.7508870197085,
                  "lng" : -79.60044798029151
               }
            }
         },
         "icon" : "https://maps.gstatic.com/mapfiles/place_api/icons/bus-71.png",
         "id" : "4e67df97b3a1caac091320c2b985cc3a46d86748",
         "name" : "Martin Grove Rd at Royalcrest Rd",
         "place_id" : "ChIJYRjY1-Y6K4gRl6cuO5irJGA",
         "reference" : "CmRRAAAAeFswG50MUEWLcsG4jBaV0ZBTrtNHIsPEO0bSCp-5SkpC-NlG1F2Q76V54q3ZpOH2XCybYCZwOXK8A7kfQ3K77EHm1wqOOa2luZ8m5WAEeNYquYeHgocnMcTej65h9CpdEhAHP8fTIOhr2MyuqZkOFnyVGhRkTw1p5U1__7H6xu5Jnpis2mqXDA",
         "scope" : "GOOGLE",
         "types" : [
            "bus_station",
            "transit_station",
            "point_of_interest",
            "establishment"
         ],
         "vicinity" : "Canada"
      }
   ],
   "status" : "OK"
}
