[{"StopNo":59759,"Name":"WB W 2 AVE FS ONTARIO ST","BayNo":"N","City":"VANCOUVER","OnStreet":"W 2 AVE","AtStreet":"ONTARIO ST","Latitude":49.269360,"Longitude":-123.105040,"WheelchairAccess":1,"Distance":85,"Routes":""},{"StopNo":59760,"Name":"EB E 2 AVE FS ONTARIO ST","BayNo":"N","City":"VANCOUVER","OnStreet":"E 2 AVE","AtStreet":"ONTARIO ST","Latitude":49.269127,"Longitude":-123.104156,"WheelchairAccess":1,"Distance":95,"Routes":"084"},{"StopNo":61954,"Name":"WB W 2 AVE FS MANITOBA ST","BayNo":"N","City":"VANCOUVER","OnStreet":"W 2 AVE","AtStreet":"MANITOBA ST","Latitude":49.269375,"Longitude":-123.106995,"WheelchairAccess":1,"Distance":204,"Routes":"084"},{"StopNo":59761,"Name":"WB E 2 AVE FS MAIN ST","BayNo":"N","City":"VANCOUVER","OnStreet":"E 2 AVE","AtStreet":"MAIN ST","Latitude":49.269283,"Longitude":-123.101219,"WheelchairAccess":1,"Distance":239,"Routes":"084"},{"StopNo":61694,"Name":"SB MAIN ST FS E 1 AV","BayNo":"N","City":"VANCOUVER","OnStreet":"MAIN ST","AtStreet":"E 1 AV","Latitude":49.269830,"Longitude":-123.100840,"WheelchairAccess":1,"Distance":254,"Routes":""},{"StopNo":50234,"Name":"SB MAIN ST FS SWITCHMEN ST","BayNo":"N","City":"VANCOUVER","OnStreet":"MAIN ST","AtStreet":"SWITCHMEN ST","Latitude":49.270622,"Longitude":-123.100822,"WheelchairAccess":1,"Distance":265,"Routes":"003, 008, 019, N19, N8"},{"StopNo":50179,"Name":"NB MAIN ST FS E 2 AVE","BayNo":"N","City":"VANCOUVER","OnStreet":"MAIN ST","AtStreet":"E 2 AVE","Latitude":49.269455,"Longitude":-123.100502,"WheelchairAccess":1,"Distance":284,"Routes":"003, 008, 019, N19, N8"},{"StopNo":59580,"Name":"SB MAIN ST FS E 2 AVE","BayNo":"N","City":"VANCOUVER","OnStreet":"MAIN ST","AtStreet":"E 2 AVE","Latitude":49.268688,"Longitude":-123.100898,"WheelchairAccess":1,"Distance":287,"Routes":""},{"StopNo":50180,"Name":"NB MAIN ST FS INDUSTRIAL AVE","BayNo":"N","City":"VANCOUVER","OnStreet":"MAIN ST","AtStreet":"INDUSTRIAL AVE","Latitude":49.270802,"Longitude":-123.100433,"WheelchairAccess":1,"Distance":298,"Routes":"003, 008, 019, N19, N8"},{"StopNo":50235,"Name":"SB MAIN ST FS E 3 AVE","BayNo":"N","City":"VANCOUVER","OnStreet":"MAIN ST","AtStreet":"E 3 AVE","Latitude":49.267998,"Longitude":-123.100945,"WheelchairAccess":1,"Distance":330,"Routes":"003, 008, 019, N19, N8"},{"StopNo":59762,"Name":"EB E 2 AVE FS MAIN ST","BayNo":"N","City":"VANCOUVER","OnStreet":"E 2 AVE","AtStreet":"MAIN ST","Latitude":49.268684,"Longitude":-123.100067,"WheelchairAccess":1,"Distance":341,"Routes":"084"},{"StopNo":59758,"Name":"EB W 2 AVE NS COLUMBIA ST","BayNo":"N","City":"VANCOUVER","OnStreet":"W 2 AVE","AtStreet":"COLUMBIA ST","Latitude":49.269028,"Longitude":-123.109734,"WheelchairAccess":1,"Distance":406,"Routes":"084"},{"StopNo":59757,"Name":"WB W 2 AVE FS COLUMBIA ST","BayNo":"N","City":"VANCOUVER","OnStreet":"W 2 AVE","AtStreet":"COLUMBIA ST","Latitude":49.269190,"Longitude":-123.109900,"WheelchairAccess":1,"Distance":413,"Routes":""},{"StopNo":59925,"Name":"NB QUEBEC ST FS TERMINAL AVE","BayNo":"N","City":"VANCOUVER","OnStreet":"QUEBEC ST","AtStreet":"TERMINAL AVE","Latitude":49.273357,"Longitude":-123.101524,"WheelchairAccess":1,"Distance":428,"Routes":"023"},{"StopNo":50178,"Name":"NB MAIN ST FS E 5 AVE","BayNo":"N","City":"VANCOUVER","OnStreet":"MAIN ST","AtStreet":"E 5 AVE","Latitude":49.266720,"Longitude":-123.100662,"WheelchairAccess":1,"Distance":449,"Routes":"003, 008, 019, N19, N8"},{"StopNo":57968,"Name":"MAIN STREET-SCIENCE WORLD STATION PLATFORM 2","BayNo":"N","City":"VANCOUVER","OnStreet":"MAIN STREET-SCIENCE WORLD STATION","AtStreet":"PLATFORM 2","Latitude":49.273098,"Longitude":-123.100395,"WheelchairAccess":0,"Distance":450,"Routes":"992"},{"StopNo":50233,"Name":"MAIN STREET-SCIENCE WORLD STN BAY 1","BayNo":"1","City":"VANCOUVER","OnStreet":"MAIN STREET-SCIENCE WORLD STN","AtStreet":"BAY 1","Latitude":49.273071,"Longitude":-123.100189,"WheelchairAccess":1,"Distance":457,"Routes":"003, 008, 019, N19, N8"},{"StopNo":57999,"Name":"MAIN STREET-SCIENCE WORLD STATION PLATFORM 1","BayNo":"N","City":"VANCOUVER","OnStreet":"MAIN STREET-SCIENCE WORLD STATION","AtStreet":"PLATFORM 1","Latitude":49.273170,"Longitude":-123.100349,"WheelchairAccess":0,"Distance":458,"Routes":"992"},{"StopNo":51275,"Name":"EB TERMINAL AVE FS WESTERN ST","BayNo":"N","City":"VANCOUVER","OnStreet":"TERMINAL AVE","AtStreet":"WESTERN ST","Latitude":49.272476,"Longitude":-123.098892,"WheelchairAccess":0,"Distance":483,"Routes":"022"},{"StopNo":58510,"Name":"SB MAIN ST FS E 5 AVE-","BayNo":"N","City":"VANCOUVER","OnStreet":"MAIN ST","AtStreet":"E 5 AVE","Latitude":49.266106,"Longitude":-123.100975,"WheelchairAccess":1,"Distance":494,"Routes":"008, 019, N19, N8"},{"StopNo":50181,"Name":"MAIN STREET-SCIENCE WORLD STN BAY 2","BayNo":"2","City":"VANCOUVER","OnStreet":"MAIN STREET-SCIENCE WORLD STN","AtStreet":"BAY 2","Latitude":49.273396,"Longitude":-123.099831,"WheelchairAccess":1,"Distance":502,"Routes":"003, 008, 019, 022, N19, N8"},{"StopNo":50236,"Name":"SB MAIN ST FS E 5 AVE--","BayNo":"N","City":"VANCOUVER","OnStreet":"MAIN ST","AtStreet":"E 5 AVE","Latitude":49.265850,"Longitude":-123.100990,"WheelchairAccess":1,"Distance":519,"Routes":"003"},{"StopNo":59929,"Name":"MAIN STREET-SCIENCE WORLD STN BAY 3","BayNo":"3","City":"VANCOUVER","OnStreet":"MAIN STREET-SCIENCE WORLD STN","AtStreet":"BAY 3","Latitude":49.273163,"Longitude":-123.098686,"WheelchairAccess":1,"Distance":542,"Routes":"023"},{"StopNo":50177,"Name":"NB MAIN ST NS E 6 AVE","BayNo":"N","City":"VANCOUVER","OnStreet":"MAIN ST","AtStreet":"E 6 AVE","Latitude":49.265339,"Longitude":-123.100685,"WheelchairAccess":1,"Distance":579,"Routes":"003, 008, 019, N19, N8"},{"StopNo":59926,"Name":"EB NATIONAL AVE FS QUEBEC ST","BayNo":"N","City":"VANCOUVER","OnStreet":"NATIONAL AVE","AtStreet":"QUEBEC ST","Latitude":49.274872,"Longitude":-123.101463,"WheelchairAccess":1,"Distance":583,"Routes":"023"},{"StopNo":50232,"Name":"SB MAIN ST FS NATIONAL AVE","BayNo":"N","City":"VANCOUVER","OnStreet":"MAIN ST","AtStreet":"NATIONAL AVE","Latitude":49.274506,"Longitude":-123.100143,"WheelchairAccess":1,"Distance":589,"Routes":"003, 008, 019, 022, N19, N8"},{"StopNo":61985,"Name":"WB W 2 AVE FS CROWE ST","BayNo":"N","City":"VANCOUVER","OnStreet":"W 2 AVE","AtStreet":"CROWE ST","Latitude":49.268177,"Longitude":-123.111984,"WheelchairAccess":1,"Distance":590,"Routes":"084"},{"StopNo":60351,"Name":"SB STATION ST FS NATIONAL AVE","BayNo":"N","City":"VANCOUVER","OnStreet":"STATION ST","AtStreet":"NATIONAL AVE","Latitude":49.273853,"Longitude":-123.098650,"WheelchairAccess":1,"Distance":597,"Routes":""},{"StopNo":59927,"Name":"NB QUEBEC ST FS NATIONAL AVE","BayNo":"N","City":"VANCOUVER","OnStreet":"QUEBEC ST","AtStreet":"NATIONAL AVE","Latitude":49.275246,"Longitude":-123.101807,"WheelchairAccess":1,"Distance":614,"Routes":"023"},{"StopNo":58280,"Name":"WB TERMINAL AVE AT 300 BLOCK","BayNo":"N","City":"VANCOUVER","OnStreet":"TERMINAL AVE","AtStreet":"300 BLOCK","Latitude":49.272362,"Longitude":-123.096642,"WheelchairAccess":1,"Distance":618,"Routes":"022"},{"StopNo":59928,"Name":"EB NATIONAL AVE FS MAIN ST","BayNo":"N","City":"VANCOUVER","OnStreet":"NATIONAL AVE","AtStreet":"MAIN ST","Latitude":49.274845,"Longitude":-123.099442,"WheelchairAccess":1,"Distance":648,"Routes":"023"},{"StopNo":50182,"Name":"NB MAIN ST FS NATIONAL AVE","BayNo":"N","City":"VANCOUVER","OnStreet":"MAIN ST","AtStreet":"NATIONAL AVE","Latitude":49.275322,"Longitude":-123.099747,"WheelchairAccess":1,"Distance":681,"Routes":"003, 008, 019, 022, N19, N8"},{"StopNo":59763,"Name":"EB GREAT NORTHERN WAY FS BRUNSWICK ST ","BayNo":"N","City":"VANCOUVER","OnStreet":"GREAT NORTHERN WAY","AtStreet":"BRUNSWICK ST","Latitude":49.266747,"Longitude":-123.095825,"WheelchairAccess":1,"Distance":714,"Routes":"084"},{"StopNo":50237,"Name":"SB MAIN ST NS E 8 AVE","BayNo":"N","City":"VANCOUVER","OnStreet":"MAIN ST","AtStreet":"E 8 AVE","Latitude":49.263880,"Longitude":-123.101090,"WheelchairAccess":1,"Distance":717,"Routes":""},{"StopNo":50771,"Name":"EB KINGSWAY FS MAIN ST ","BayNo":"N","City":"VANCOUVER","OnStreet":"KINGSWAY","AtStreet":"MAIN ST","Latitude":49.263824,"Longitude":-123.100517,"WheelchairAccess":1,"Distance":738,"Routes":"008, 019, N19, N8"},{"StopNo":59764,"Name":"WB GREAT NORTHERN NS PRINCE EDWARD ","BayNo":"N","City":"VANCOUVER","OnStreet":"GREAT NORTHERN WAY","AtStreet":"PRINCE EDWARD ST","Latitude":49.266890,"Longitude":-123.095260,"WheelchairAccess":1,"Distance":742,"Routes":""},{"StopNo":50920,"Name":"WB W BROADWAY FS ONTARIO ST","BayNo":"N","City":"VANCOUVER","OnStreet":"W BROADWAY","AtStreet":"ONTARIO ST","Latitude":49.263100,"Longitude":-123.105293,"WheelchairAccess":1,"Distance":768,"Routes":"009, N9"},{"StopNo":51276,"Name":"EB TERMINAL AVE NS THORNTON ST","BayNo":"N","City":"VANCOUVER","OnStreet":"TERMINAL AVE","AtStreet":"THORNTON ST","Latitude":49.271618,"Longitude":-123.093948,"WheelchairAccess":1,"Distance":775,"Routes":"022"},{"StopNo":61684,"Name":"WB GREAT NORTHERN WAY NS THORNTON ST","BayNo":"N","City":"VANCOUVER","OnStreet":"GREAT NORTHERN WAY","AtStreet":"THORNTON ST","Latitude":49.266911,"Longitude":-123.094727,"WheelchairAccess":1,"Distance":776,"Routes":"084"},{"StopNo":58500,"Name":"WB E BROADWAY FS MAIN ST--","BayNo":"N","City":"VANCOUVER","OnStreet":"E BROADWAY","AtStreet":"MAIN ST","Latitude":49.263058,"Longitude":-123.102676,"WheelchairAccess":1,"Distance":778,"Routes":"099"},{"StopNo":50878,"Name":"EB E BROADWAY FS ONTARIO ST","BayNo":"N","City":"VANCOUVER","OnStreet":"E BROADWAY","AtStreet":"ONTARIO ST","Latitude":49.262913,"Longitude":-123.104469,"WheelchairAccess":1,"Distance":785,"Routes":"009, N9"},{"StopNo":50176,"Name":"NB MAIN ST FS E BROADWAY","BayNo":"N","City":"VANCOUVER","OnStreet":"MAIN ST","AtStreet":"E BROADWAY","Latitude":49.263233,"Longitude":-123.100792,"WheelchairAccess":1,"Distance":792,"Routes":"003"},{"StopNo":50881,"Name":"WB E BROADWAY FS MAIN ST-","BayNo":"N","City":"VANCOUVER","OnStreet":"E BROADWAY","AtStreet":"MAIN ST","Latitude":49.263020,"Longitude":-123.101631,"WheelchairAccess":1,"Distance":798,"Routes":"009, N9"},{"StopNo":60517,"Name":"SB MAIN ST NS E BROADWAY","BayNo":"N","City":"VANCOUVER","OnStreet":"MAIN ST","AtStreet":"E BROADWAY","Latitude":49.263081,"Longitude":-123.101143,"WheelchairAccess":-1,"Distance":801,"Routes":"003"},{"StopNo":59726,"Name":"EB W BROADWAY NS MANITOBA ST","BayNo":"N","City":"VANCOUVER","OnStreet":"W BROADWAY","AtStreet":"MANITOBA ST","Latitude":49.262970,"Longitude":-123.107330,"WheelchairAccess":1,"Distance":809,"Routes":""},{"StopNo":58145,"Name":"WB KINGSWAY FS E BROADWAY","BayNo":"N","City":"VANCOUVER","OnStreet":"KINGSWAY","AtStreet":"E BROADWAY","Latitude":49.263294,"Longitude":-123.099678,"WheelchairAccess":1,"Distance":816,"Routes":"008, 019, N19, N8"},{"StopNo":50879,"Name":"EB E BROADWAY NS MAIN ST","BayNo":"N","City":"VANCOUVER","OnStreet":"E BROADWAY","AtStreet":"MAIN ST","Latitude":49.262830,"Longitude":-123.101340,"WheelchairAccess":1,"Distance":824,"Routes":""},{"StopNo":51354,"Name":"WB TERMINAL AVE NS THORNTON ST","BayNo":"N","City":"VANCOUVER","OnStreet":"TERMINAL AVE","AtStreet":"THORNTON ST","Latitude":49.271778,"Longitude":-123.093109,"WheelchairAccess":1,"Distance":839,"Routes":"022"},{"StopNo":60006,"Name":"EB W BROADWAY FS COLUMBIA ST","BayNo":"N","City":"VANCOUVER","OnStreet":"W BROADWAY","AtStreet":"COLUMBIA ST","Latitude":49.263020,"Longitude":-123.109047,"WheelchairAccess":1,"Distance":845,"Routes":"009, N9"},{"StopNo":52101,"Name":"EB E BROADWAY FS MAIN ST","BayNo":"N","City":"VANCOUVER","OnStreet":"E BROADWAY","AtStreet":"MAIN ST","Latitude":49.262802,"Longitude":-123.100418,"WheelchairAccess":1,"Distance":847,"Routes":"099"},{"StopNo":50921,"Name":"WB W BROADWAY FS COLUMBIA ST","BayNo":"N","City":"VANCOUVER","OnStreet":"W BROADWAY","AtStreet":"COLUMBIA ST","Latitude":49.263210,"Longitude":-123.109871,"WheelchairAccess":1,"Distance":853,"Routes":"009, N9"},{"StopNo":50238,"Name":"SB MAIN ST FS E BROADWAY","BayNo":"N","City":"VANCOUVER","OnStreet":"MAIN ST","AtStreet":"E BROADWAY","Latitude":49.262540,"Longitude":-123.101140,"WheelchairAccess":1,"Distance":859,"Routes":""},{"StopNo":59919,"Name":"NB PAT QUINN WAY FS PACIFIC BLVD","BayNo":"N","City":"VANCOUVER","OnStreet":"PAT QUINN WAY","AtStreet":"PACIFIC BLVD","Latitude":49.277431,"Longitude":-123.107544,"WheelchairAccess":1,"Distance":861,"Routes":"023"},{"StopNo":61039,"Name":"OLYMPIC VILLAGE STN BAY 2","BayNo":"2","City":"VANCOUVER","OnStreet":"OLYMPIC VILLAGE STN","AtStreet":"BAY 2","Latitude":49.266426,"Longitude":-123.114937,"WheelchairAccess":1,"Distance":865,"Routes":"084"},{"StopNo":50880,"Name":"EB E BROADWAY NS KINGSWAY","BayNo":"N","City":"VANCOUVER","OnStreet":"E BROADWAY","AtStreet":"KINGSWAY ST","Latitude":49.262779,"Longitude":-123.099815,"WheelchairAccess":1,"Distance":865,"Routes":"009, N9"},{"StopNo":59918,"Name":"EB PACIFIC BLVD FS MARINASIDE CRES","BayNo":"N","City":"VANCOUVER","OnStreet":"PACIFIC BLVD","AtStreet":"MARINASIDE CRES","Latitude":49.274212,"Longitude":-123.114449,"WheelchairAccess":1,"Distance":872,"Routes":"023"},{"StopNo":50850,"Name":"WB E BROADWAY NS SCOTIA ST","BayNo":"N","City":"VANCOUVER","OnStreet":"E BROADWAY","AtStreet":"SCOTIA ST","Latitude":49.262924,"Longitude":-123.098694,"WheelchairAccess":1,"Distance":884,"Routes":"008, 009, N8, N9"},{"StopNo":61368,"Name":"OLYMPIC VILLAGE STATION PLATFORM 1","BayNo":"N","City":"VANCOUVER","OnStreet":"OLYMPIC VILLAGE STATION","AtStreet":"PLATFORM 1","Latitude":49.266609,"Longitude":-123.115440,"WheelchairAccess":0,"Distance":888,"Routes":"980"},{"StopNo":50876,"Name":"EB W BROADWAY FS ALBERTA ST","BayNo":"N","City":"VANCOUVER","OnStreet":"W BROADWAY","AtStreet":"ALBERTA ST","Latitude":49.263050,"Longitude":-123.110550,"WheelchairAccess":1,"Distance":892,"Routes":""},{"StopNo":61367,"Name":"OLYMPIC VILLAGE STATION PLATFORM 2","BayNo":"N","City":"VANCOUVER","OnStreet":"OLYMPIC VILLAGE STATION","AtStreet":"PLATFORM 2","Latitude":49.266590,"Longitude":-123.115494,"WheelchairAccess":0,"Distance":893,"Routes":"980"},{"StopNo":51134,"Name":"EB KINGSWAY FS E BROADWAY","BayNo":"N","City":"VANCOUVER","OnStreet":"KINGSWAY","AtStreet":"E BROADWAY","Latitude":49.262550,"Longitude":-123.099411,"WheelchairAccess":1,"Distance":900,"Routes":"019, N19"},{"StopNo":50772,"Name":"EB E BROADWAY FS KINGSWAY","BayNo":"N","City":"VANCOUVER","OnStreet":"E BROADWAY","AtStreet":"KINGSWAY","Latitude":49.262718,"Longitude":-123.098053,"WheelchairAccess":1,"Distance":927,"Routes":"008, 009, N8, N9"},{"StopNo":61040,"Name":"OLYMPIC VILLAGE STN BAY 1","BayNo":"1","City":"VANCOUVER","OnStreet":"OLYMPIC VILLAGE STN","AtStreet":"BAY 1","Latitude":49.266247,"Longitude":-123.115944,"WheelchairAccess":1,"Distance":939,"Routes":"015, 050, 084"},{"StopNo":61924,"Name":"SB MAIN ST FS E GEORGIA ST","BayNo":"N","City":"VANCOUVER","OnStreet":"MAIN ST","AtStreet":"E GEORGIA ST","Latitude":49.277980,"Longitude":-123.099990,"WheelchairAccess":1,"Distance":944,"Routes":""},{"StopNo":58953,"Name":"WB E 10 AVE FS KINGSWAY","BayNo":"N","City":"VANCOUVER","OnStreet":"E 10 AVE","AtStreet":"KINGSWAY","Latitude":49.262032,"Longitude":-123.099602,"WheelchairAccess":0,"Distance":948,"Routes":""},{"StopNo":50483,"Name":"NB CAMBIE ST NS W 7 AVE","BayNo":"N","City":"VANCOUVER","OnStreet":"CAMBIE ST","AtStreet":"W 7 AVE","Latitude":49.264648,"Longitude":-123.114624,"WheelchairAccess":1,"Distance":953,"Routes":"015, 017, N15"},{"StopNo":61254,"Name":"OLYMPIC VILLAGE STN BAY 3","BayNo":"3","City":"VANCOUVER","OnStreet":"OLYMPIC VILLAGE STN","AtStreet":"BAY 3","Latitude":49.265938,"Longitude":-123.116051,"WheelchairAccess":1,"Distance":961,"Routes":"015, 050"},{"StopNo":59992,"Name":"NB PAT QUINN WAY NS EXPO BLVD","BayNo":"N","City":"VANCOUVER","OnStreet":"PAT QUINN WAY","AtStreet":"EXPO BLVD","Latitude":49.278393,"Longitude":-123.107521,"WheelchairAccess":1,"Distance":964,"Routes":"023"},{"StopNo":50484,"Name":"NB SMITHE ST NS EXPO BLVD","BayNo":"N","City":"VANCOUVER","OnStreet":"SMITHE ST","AtStreet":"EXPO BLVD","Latitude":49.275660,"Longitude":-123.114570,"WheelchairAccess":1,"Distance":975,"Routes":""},{"StopNo":50849,"Name":"WB E BROADWAY FS PRINCE EDWARD ST","BayNo":"N","City":"VANCOUVER","OnStreet":"E BROADWAY","AtStreet":"PRINCE EDWARD ST","Latitude":49.262836,"Longitude":-123.096512,"WheelchairAccess":1,"Distance":976,"Routes":"008, 009, N8, N9"},{"StopNo":51274,"Name":"SB GORE AVE FS UNION ST","BayNo":"N","City":"VANCOUVER","OnStreet":"GORE AVE","AtStreet":"UNION ST","Latitude":49.277359,"Longitude":-123.097023,"WheelchairAccess":0,"Distance":978,"Routes":"022"},{"StopNo":50412,"Name":"SB CAMBIE ST FS W 7 AVE","BayNo":"N","City":"VANCOUVER","OnStreet":"CAMBIE ST","AtStreet":"W 7 AVE","Latitude":49.264565,"Longitude":-123.114998,"WheelchairAccess":1,"Distance":980,"Routes":"015, 017, N15"},{"StopNo":50922,"Name":"BROADWAY-CITY HALL STN BAY 5","BayNo":"5","City":"VANCOUVER","OnStreet":"BROADWAY-CITY HALL STN","AtStreet":"BAY 5","Latitude":49.263294,"Longitude":-123.113274,"WheelchairAccess":1,"Distance":986,"Routes":"009, N9"},{"StopNo":51278,"Name":"EB PRIOR ST FS DUNLEVY AVE","BayNo":"N","City":"VANCOUVER","OnStreet":"PRIOR ST","AtStreet":"DUNLEVY AVE","Latitude":49.276623,"Longitude":-123.095192,"WheelchairAccess":0,"Distance":993,"Routes":"022"},{"StopNo":52100,"Name":"BROADWAY-CITY HALL STN BAY 6","BayNo":"6","City":"VANCOUVER","OnStreet":"BROADWAY-CITY HALL STN","AtStreet":"BAY 6","Latitude":49.263084,"Longitude":-123.113350,"WheelchairAccess":1,"Distance":1007,"Routes":"009"},{"StopNo":60014,"Name":"WB EXPO BLVD FS NELSON ST","BayNo":"N","City":"VANCOUVER","OnStreet":"EXPO BLVD","AtStreet":"NELSON ST","Latitude":49.274765,"Longitude":-123.116234,"WheelchairAccess":1,"Distance":1014,"Routes":"023"},{"StopNo":50482,"Name":"NB CAMBIE ST NS W 8 AVE","BayNo":"N","City":"VANCOUVER","OnStreet":"CAMBIE ST","AtStreet":"W 8 AVE","Latitude":49.263805,"Longitude":-123.114639,"WheelchairAccess":1,"Distance":1015,"Routes":"017, N15"},{"StopNo":60375,"Name":"WB GREAT NORTHERN WAY FS CAROLINA ST","BayNo":"N","City":"VANCOUVER","OnStreet":"GREAT NORTHERN WAY","AtStreet":"CAROLINA STREET","Latitude":49.266869,"Longitude":-123.091179,"WheelchairAccess":1,"Distance":1015,"Routes":"084"},{"StopNo":59991,"Name":"WB EXPO BLVD FS ABBOTT ST","BayNo":"N","City":"VANCOUVER","OnStreet":"EXPO BLVD","AtStreet":"ABBOTT ST","Latitude":49.278790,"Longitude":-123.108017,"WheelchairAccess":1,"Distance":1016,"Routes":"023"},{"StopNo":59924,"Name":"SB QUEBEC ST FS KEEFER ST","BayNo":"N","City":"VANCOUVER","OnStreet":"QUEBEC ST","AtStreet":"KEEFER ST","Latitude":49.279007,"Longitude":-123.102219,"WheelchairAccess":0,"Distance":1016,"Routes":"023"},{"StopNo":61810,"Name":"NB SMITHE ST FS EXPO BLVD","BayNo":"N","City":"VANCOUVER","OnStreet":"SMITHE ST","AtStreet":"EXPO BLVD","Latitude":49.276112,"Longitude":-123.114937,"WheelchairAccess":1,"Distance":1028,"Routes":"017, N15"},{"StopNo":51133,"Name":"WB KEEFER ST FS COLUMBIA ST","BayNo":"N","City":"VANCOUVER","OnStreet":"KEEFER ST","AtStreet":"COLUMBIA ST","Latitude":49.279266,"Longitude":-123.102943,"WheelchairAccess":0,"Distance":1038,"Routes":"023"},{"StopNo":58051,"Name":"EB KEEFER PL FS TAYLOR ST--","BayNo":"N","City":"VANCOUVER","OnStreet":"KEEFER PL","AtStreet":"TAYLOR ST","Latitude":49.279293,"Longitude":-123.105515,"WheelchairAccess":1,"Distance":1040,"Routes":"050"},{"StopNo":58169,"Name":"EB KEEFER PL FS TAYLOR ST-","BayNo":"N","City":"VANCOUVER","OnStreet":"KEEFER PL","AtStreet":"TAYLOR ST","Latitude":49.279327,"Longitude":-123.105759,"WheelchairAccess":1,"Distance":1045,"Routes":"023"},{"StopNo":50875,"Name":"BROADWAY-CITY HALL STN BAY 1","BayNo":"1","City":"VANCOUVER","OnStreet":"BROADWAY-CITY HALL STN","AtStreet":"BAY 1","Latitude":49.263107,"Longitude":-123.114281,"WheelchairAccess":1,"Distance":1051,"Routes":"099, N9"},{"StopNo":50773,"Name":"EB E BROADWAY FS PRINCE EDWARD ST","BayNo":"N","City":"VANCOUVER","OnStreet":"E BROADWAY","AtStreet":"PRINCE EDWARD ST","Latitude":49.262455,"Longitude":-123.095528,"WheelchairAccess":1,"Distance":1052,"Routes":"008, 009, N8, N9"},{"StopNo":51364,"Name":"WB PRIOR ST FS JACKSON AVE","BayNo":"N","City":"VANCOUVER","OnStreet":"PRIOR ST","AtStreet":"JACKSON AVE","Latitude":49.276726,"Longitude":-123.094154,"WheelchairAccess":1,"Distance":1053,"Routes":"022"},{"StopNo":50184,"Name":"NB MAIN ST FS E GEORGIA ST","BayNo":"N","City":"VANCOUVER","OnStreet":"MAIN ST","AtStreet":"E GEORGIA ST","Latitude":49.278969,"Longitude":-123.099609,"WheelchairAccess":1,"Distance":1057,"Routes":"003, 008, 019, 022, N19, N8"},{"StopNo":50230,"Name":"SB MAIN ST FS KEEFER ST ","BayNo":"N","City":"VANCOUVER","OnStreet":"MAIN ST","AtStreet":"KEEFER ST","Latitude":49.279034,"Longitude":-123.099915,"WheelchairAccess":1,"Distance":1057,"Routes":"003, 008, 019, 022, N19, N8"},{"StopNo":60391,"Name":"EB GREAT NORTHERN WAY FS CAROLINA ST","BayNo":"N","City":"VANCOUVER","OnStreet":"GREAT NORTHERN WAY","AtStreet":"CAROLINA ST","Latitude":49.266678,"Longitude":-123.090561,"WheelchairAccess":1,"Distance":1064,"Routes":"084"},{"StopNo":61370,"Name":"BROADWAY-CITY HALL STATION PLATFORM 1","BayNo":"N","City":"VANCOUVER","OnStreet":"BROADWAY-CITY HALL STATION","AtStreet":"PLATFORM 1","Latitude":49.263138,"Longitude":-123.114693,"WheelchairAccess":0,"Distance":1069,"Routes":"980"},{"StopNo":59916,"Name":"EB PACIFIC BLVD NS BOATHOUSE MEWS","BayNo":"N","City":"VANCOUVER","OnStreet":"PACIFIC BLVD","AtStreet":"BOATHOUSE MEWS","Latitude":49.274212,"Longitude":-123.117630,"WheelchairAccess":1,"Distance":1074,"Routes":"023"},{"StopNo":61369,"Name":"BROADWAY-CITY HALL STATION PLATFORM 2","BayNo":"N","City":"VANCOUVER","OnStreet":"BROADWAY-CITY HALL STATION","AtStreet":"PLATFORM 2","Latitude":49.263123,"Longitude":-123.114815,"WheelchairAccess":0,"Distance":1076,"Routes":"980"},{"StopNo":59923,"Name":"WB KEEFER PL FS TAYLOR ST ","BayNo":"N","City":"VANCOUVER","OnStreet":"KEEFER PL","AtStreet":"TAYLOR ST","Latitude":49.279579,"Longitude":-123.106438,"WheelchairAccess":1,"Distance":1079,"Routes":"023"},{"StopNo":50174,"Name":"NB MAIN ST FS E 12 AVE","BayNo":"N","City":"VANCOUVER","OnStreet":"MAIN ST","AtStreet":"E 12 AVE","Latitude":49.260529,"Longitude":-123.100891,"WheelchairAccess":1,"Distance":1080,"Routes":"003"},{"StopNo":57879,"Name":"WB GREAT NORTHERN WAY FS FRASER ST","BayNo":"N","City":"VANCOUVER","OnStreet":"GREAT NORTHERN WAY","AtStreet":"FRASER ST","Latitude":49.266860,"Longitude":-123.090210,"WheelchairAccess":1,"Distance":1082,"Routes":""},{"StopNo":57967,"Name":"STADIUM-CHINATOWN STATION PLATFORM 2","BayNo":"N","City":"VANCOUVER","OnStreet":"STADIUM-CHINATOWN STATION","AtStreet":"PLATFORM 2","Latitude":49.279179,"Longitude":-123.109215,"WheelchairAccess":0,"Distance":1083,"Routes":"992"},{"StopNo":59755,"Name":"WB W 6 AVE FS ASH ST","BayNo":"N","City":"VANCOUVER","OnStreet":"W 6 AVE","AtStreet":"ASH ST","Latitude":49.266014,"Longitude":-123.117966,"WheelchairAccess":1,"Distance":1083,"Routes":"050, 084"},{"StopNo":58000,"Name":"STADIUM-CHINATOWN STATION PLATFORM 1","BayNo":"N","City":"VANCOUVER","OnStreet":"STADIUM-CHINATOWN STATION","AtStreet":"PLATFORM 1","Latitude":49.279270,"Longitude":-123.109108,"WheelchairAccess":0,"Distance":1090,"Routes":"992"},{"StopNo":61027,"Name":"BROADWAY-CITY HALL STN BAY 2","BayNo":"2","City":"VANCOUVER","OnStreet":"BROADWAY-CITY HALL STN","AtStreet":"BAY 2","Latitude":49.262760,"Longitude":-123.114655,"WheelchairAccess":1,"Distance":1097,"Routes":"015, 017, N15"},{"StopNo":58501,"Name":"BROADWAY-CITY HALL STN BAY 4","BayNo":"4","City":"VANCOUVER","OnStreet":"BROADWAY-CITY HALL STN","AtStreet":"BAY 4","Latitude":49.263336,"Longitude":-123.115715,"WheelchairAccess":1,"Distance":1108,"Routes":"099, N9"},{"StopNo":50413,"Name":"BROADWAY-CITY HALL STN BAY 3","BayNo":"3","City":"VANCOUVER","OnStreet":"BROADWAY-CITY HALL STN","AtStreet":"BAY 3","Latitude":49.262829,"Longitude":-123.115052,"WheelchairAccess":1,"Distance":1112,"Routes":""},{"StopNo":50848,"Name":"WB E BROADWAY FS SAINT GEORGE ST","BayNo":"N","City":"VANCOUVER","OnStreet":"E BROADWAY","AtStreet":"SAINT GEORGE ST","Latitude":49.262592,"Longitude":-123.093956,"WheelchairAccess":1,"Distance":1114,"Routes":"008, 009, N8, N9"},{"StopNo":51366,"Name":"NB GORE AVE FS E GEORGIA ST","BayNo":"N","City":"VANCOUVER","OnStreet":"GORE AVE","AtStreet":"E GEORGIA ST","Latitude":49.278839,"Longitude":-123.097008,"WheelchairAccess":0,"Distance":1120,"Routes":"022"},{"StopNo":51273,"Name":"SB GORE AVE FS KEEFER ST","BayNo":"N","City":"VANCOUVER","OnStreet":"GORE AVE","AtStreet":"KEEFER ST","Latitude":49.279106,"Longitude":-123.097252,"WheelchairAccess":1,"Distance":1138,"Routes":"022"},{"StopNo":50240,"Name":"SB MAIN ST FS E 12 AVE","BayNo":"N","City":"VANCOUVER","OnStreet":"MAIN ST","AtStreet":"E 12 AVE","Latitude":49.259888,"Longitude":-123.101273,"WheelchairAccess":1,"Distance":1143,"Routes":"003"},{"StopNo":58269,"Name":"WB W BROADWAY NS ASH ST","BayNo":"N","City":"VANCOUVER","OnStreet":"W BROADWAY","AtStreet":"ASH ST","Latitude":49.263348,"Longitude":-123.116425,"WheelchairAccess":1,"Distance":1146,"Routes":"009"},{"StopNo":50021,"Name":"EB E PENDER ST FS CARRALL ST","BayNo":"N","City":"VANCOUVER","OnStreet":"E PENDER ST","AtStreet":"CARRALL ST","Latitude":49.280396,"Longitude":-123.103798,"WheelchairAccess":1,"Distance":1160,"Routes":"019, 022, N19"},{"StopNo":50411,"Name":"EB NELSON ST FS CAMBIE ST","BayNo":"N","City":"VANCOUVER","OnStreet":"NELSON ST","AtStreet":"CAMBIE ST","Latitude":49.275791,"Longitude":-123.117737,"WheelchairAccess":1,"Distance":1168,"Routes":"017, N15"},{"StopNo":50485,"Name":"WB SMITHE ST NS CAMBIE ST","BayNo":"N","City":"VANCOUVER","OnStreet":"SMITHE ST","AtStreet":"CAMBIE ST","Latitude":49.277050,"Longitude":-123.116260,"WheelchairAccess":1,"Distance":1169,"Routes":""},{"StopNo":60307,"Name":"BROADWAY-CITY HALL STN BAY 3 ","BayNo":"3","City":"VANCOUVER","OnStreet":"BROADWAY-CITY HALL STN","AtStreet":"BAY 3","Latitude":49.261997,"Longitude":-123.115112,"WheelchairAccess":1,"Distance":1182,"Routes":"015, 017, N15"},{"StopNo":60104,"Name":"NB CAMBIE ST FS ROBSON ST","BayNo":"N","City":"VANCOUVER","OnStreet":"CAMBIE ST","AtStreet":"ROBSON ST","Latitude":49.278324,"Longitude":-123.114670,"WheelchairAccess":1,"Distance":1193,"Routes":"006"},{"StopNo":50520,"Name":"EB E PENDER ST NS MAIN ST","BayNo":"N","City":"VANCOUVER","OnStreet":"E PENDER ST","AtStreet":"MAIN ST","Latitude":49.280331,"Longitude":-123.100044,"WheelchairAccess":1,"Distance":1193,"Routes":"019, N19"},{"StopNo":50091,"Name":"WB W PENDER ST FS CARRALL ST","BayNo":"N","City":"VANCOUVER","OnStreet":"W PENDER ST","AtStreet":"CARRALL ST","Latitude":49.280708,"Longitude":-123.104996,"WheelchairAccess":1,"Distance":1195,"Routes":"004, 007, 019, 022, 209, 210, 211, 214, N19"},{"StopNo":50689,"Name":"WB E PENDER ST FS MAIN ST-","BayNo":"N","City":"VANCOUVER","OnStreet":"E PENDER ST","AtStreet":"MAIN ST","Latitude":49.280464,"Longitude":-123.100685,"WheelchairAccess":1,"Distance":1196,"Routes":"004, 007, 019, 022, 209, 210, 211, 214"},{"StopNo":60103,"Name":"NB CAMBIE ST FS NELSON ST","BayNo":"N","City":"VANCOUVER","OnStreet":"CAMBIE ST","AtStreet":"NELSON ST","Latitude":49.276260,"Longitude":-123.117760,"WheelchairAccess":1,"Distance":1199,"Routes":"006"},{"StopNo":61073,"Name":"SB CAMBIE ST FS ROBSON ST","BayNo":"N","City":"VANCOUVER","OnStreet":"CAMBIE ST","AtStreet":"ROBSON ST","Latitude":49.278000,"Longitude":-123.115402,"WheelchairAccess":1,"Distance":1200,"Routes":"006, 017, N15"},{"StopNo":51279,"Name":"EB PRIOR ST FS PRINCESS AVE","BayNo":"N","City":"VANCOUVER","OnStreet":"PRIOR ST","AtStreet":"PRINCESS AVE","Latitude":49.276550,"Longitude":-123.091209,"WheelchairAccess":0,"Distance":1201,"Routes":"022"},{"StopNo":50774,"Name":"EB E BROADWAY FS SAINT GEORGE ST","BayNo":"N","City":"VANCOUVER","OnStreet":"E BROADWAY","AtStreet":"SAINT GEORGE ST","Latitude":49.262402,"Longitude":-123.092514,"WheelchairAccess":1,"Distance":1202,"Routes":"008, 009, N8, N9"},{"StopNo":61518,"Name":"WB E PENDER ST FS MAIN ST--","BayNo":"N","City":"VANCOUVER","OnStreet":"E PENDER ST","AtStreet":"MAIN ST","Latitude":49.280460,"Longitude":-123.100266,"WheelchairAccess":1,"Distance":1203,"Routes":"007, 019, 022, 209, N19"},{"StopNo":60356,"Name":"LARWILL PARK LAYOVER ONLY--","BayNo":"N","City":"VANCOUVER","OnStreet":"LARWILL PARK","AtStreet":"LAYOVER ONLY","Latitude":49.279812,"Longitude":-123.111267,"WheelchairAccess":-1,"Distance":1204,"Routes":"250, 253, 254"},{"StopNo":60049,"Name":"SB CAMBIE ST NS NELSON ST","BayNo":"N","City":"VANCOUVER","OnStreet":"CAMBIE ST","AtStreet":"NELSON ST","Latitude":49.276601,"Longitude":-123.117499,"WheelchairAccess":1,"Distance":1206,"Routes":""},{"StopNo":51135,"Name":"EB KINGSWAY NS E 12 AVE","BayNo":"N","City":"VANCOUVER","OnStreet":"KINGSWAY","AtStreet":"E 12 AVE","Latitude":49.260193,"Longitude":-123.097099,"WheelchairAccess":1,"Distance":1208,"Routes":"019, N19"},{"StopNo":51272,"Name":"EB E PENDER ST FS MAIN ST","BayNo":"N","City":"VANCOUVER","OnStreet":"E PENDER ST","AtStreet":"MAIN ST","Latitude":49.280323,"Longitude":-123.099243,"WheelchairAccess":1,"Distance":1209,"Routes":"022"},{"StopNo":50022,"Name":"NB COLUMBIA ST FS E PENDER ST","BayNo":"N","City":"VANCOUVER","OnStreet":"COLUMBIA ST","AtStreet":"E PENDER ST","Latitude":49.280773,"Longitude":-123.102196,"WheelchairAccess":1,"Distance":1211,"Routes":"050"},{"StopNo":58054,"Name":"HEATHER SQUARE BAY 2","BayNo":"2","City":"VANCOUVER","OnStreet":"HEATHER SQUARE","AtStreet":"BAY 2","Latitude":49.266296,"Longitude":-123.120132,"WheelchairAccess":1,"Distance":1217,"Routes":"050"},{"StopNo":52057,"Name":"HEATHER SQUARE BAY 1","BayNo":"1","City":"VANCOUVER","OnStreet":"HEATHER SQUARE","AtStreet":"BAY 1","Latitude":49.266190,"Longitude":-123.120110,"WheelchairAccess":1,"Distance":1219,"Routes":"050"},{"StopNo":60102,"Name":"SB CAMBIE ST FS NELSON ST","BayNo":"N","City":"VANCOUVER","OnStreet":"CAMBIE ST","AtStreet":"NELSON ST","Latitude":49.275955,"Longitude":-123.118439,"WheelchairAccess":1,"Distance":1220,"Routes":"006"},{"StopNo":58235,"Name":"SB ABBOTT ST FS W PENDER ST","BayNo":"N","City":"VANCOUVER","OnStreet":"ABBOTT ST","AtStreet":"W PENDER ST","Latitude":49.280739,"Longitude":-123.107727,"WheelchairAccess":1,"Distance":1222,"Routes":"050"},{"StopNo":51199,"Name":"WB KINGSWAY FS E 12 AVE","BayNo":"N","City":"VANCOUVER","OnStreet":"KINGSWAY","AtStreet":"E 12 AVE","Latitude":49.260170,"Longitude":-123.096664,"WheelchairAccess":1,"Distance":1224,"Routes":"019, N19"},{"StopNo":50082,"Name":"SB CAMBIE ST FS W GEORGIA ST","BayNo":"N","City":"VANCOUVER","OnStreet":"CAMBIE ST","AtStreet":"W GEORGIA ST","Latitude":49.279171,"Longitude":-123.113632,"WheelchairAccess":1,"Distance":1225,"Routes":"006, 017, N15"},{"StopNo":59914,"Name":"WB PACIFIC BLVD FS CAMBIE ST","BayNo":"N","City":"VANCOUVER","OnStreet":"PACIFIC BLVD","AtStreet":"CAMBIE ST","Latitude":49.274605,"Longitude":-123.119682,"WheelchairAccess":1,"Distance":1227,"Routes":"023"},{"StopNo":58529,"Name":"EB W PENDER ST FS ABBOTT ST","BayNo":"N","City":"VANCOUVER","OnStreet":"W PENDER ST","AtStreet":"ABBOTT ST","Latitude":49.280891,"Longitude":-123.106979,"WheelchairAccess":1,"Distance":1229,"Routes":"019, 022, N19"},{"StopNo":60355,"Name":"LARWILL PARK LAYOVER ONLY-","BayNo":"N","City":"VANCOUVER","OnStreet":"LARWILL PARK","AtStreet":"LAYOVER ONLY","Latitude":49.279991,"Longitude":-123.111633,"WheelchairAccess":-1,"Distance":1233,"Routes":"240, 241, 246, 247"},{"StopNo":59550,"Name":"NB CAMBIE ST FS W GEORGIA ST","BayNo":"1","City":"VANCOUVER","OnStreet":"CAMBIE ST","AtStreet":"W GEORGIA ST","Latitude":49.279637,"Longitude":-123.112669,"WheelchairAccess":1,"Distance":1233,"Routes":""},{"StopNo":59754,"Name":"EB W 6 AVE NS HEATHER ST","BayNo":"N","City":"VANCOUVER","OnStreet":"W 6 AVE","AtStreet":"HEATHER ST","Latitude":49.265831,"Longitude":-123.120148,"WheelchairAccess":1,"Distance":1236,"Routes":"084"},{"StopNo":60301,"Name":"NB CAMBIE ST NS DUNSMUIR ST","BayNo":"N","City":"VANCOUVER","OnStreet":"CAMBIE ST","AtStreet":"DUNSMUIR ST","Latitude":49.279760,"Longitude":-123.112480,"WheelchairAccess":0,"Distance":1238,"Routes":""},{"StopNo":50924,"Name":"WB W BROADWAY FS ASH ST","BayNo":"N","City":"VANCOUVER","OnStreet":"W BROADWAY","AtStreet":"ASH ST","Latitude":49.263359,"Longitude":-123.118095,"WheelchairAccess":1,"Distance":1240,"Routes":"009, N9"},{"StopNo":60342,"Name":"SB CAMBIE ST NS W GEORGIA ST","BayNo":"N","City":"VANCOUVER","OnStreet":"CAMBIE ST","AtStreet":"W GEORGIA ST","Latitude":49.279676,"Longitude":-123.112876,"WheelchairAccess":1,"Distance":1244,"Routes":""},{"StopNo":50229,"Name":"SB MAIN ST FS E HASTINGS ST","BayNo":"N","City":"VANCOUVER","OnStreet":"MAIN ST","AtStreet":"E HASTINGS ST","Latitude":49.280811,"Longitude":-123.099815,"WheelchairAccess":1,"Distance":1249,"Routes":"003, 004, 007, 008, N8"},{"StopNo":51353,"Name":"WB TERMINAL AVE NS BEGG ST","BayNo":"N","City":"VANCOUVER","OnStreet":"TERMINAL AVE","AtStreet":"BEGG ST","Latitude":49.270771,"Longitude":-123.087151,"WheelchairAccess":1,"Distance":1250,"Routes":"022"},{"StopNo":51277,"Name":"EB TERMINAL AVE FS BEGG ST","BayNo":"N","City":"VANCOUVER","OnStreet":"TERMINAL AVE","AtStreet":"BEGG ST","Latitude":49.270462,"Longitude":-123.087036,"WheelchairAccess":1,"Distance":1256,"Routes":"022"},{"StopNo":51367,"Name":"WB E PENDER ST FS GORE AVE","BayNo":"N","City":"VANCOUVER","OnStreet":"E PENDER ST","AtStreet":"GORE AVE","Latitude":49.280426,"Longitude":-123.097710,"WheelchairAccess":1,"Distance":1258,"Routes":"022"},{"StopNo":60302,"Name":"NB CAMBIE ST NS DUNSMUIR ST","BayNo":"2","City":"VANCOUVER","OnStreet":"CAMBIE ST","AtStreet":"DUNSMUIR ST","Latitude":49.280190,"Longitude":-123.111855,"WheelchairAccess":1,"Distance":1260,"Routes":"005, 006"},{"StopNo":50933,"Name":"EB E HASTINGS ST FS CARRALL ST","BayNo":"N","City":"VANCOUVER","OnStreet":"E HASTINGS ST","AtStreet":"CARRALL ST","Latitude":49.281322,"Longitude":-123.103441,"WheelchairAccess":1,"Distance":1264,"Routes":""},{"StopNo":51363,"Name":"WB PRIOR ST FS HEATLEY AVE","BayNo":"N","City":"VANCOUVER","OnStreet":"PRIOR ST","AtStreet":"HEATLEY AVE","Latitude":49.276649,"Longitude":-123.090210,"WheelchairAccess":1,"Distance":1265,"Routes":"022"},{"StopNo":59582,"Name":"NB MAIN ST FS E 14 AVE","BayNo":"N","City":"VANCOUVER","OnStreet":"MAIN ST","AtStreet":"E 14 AVE","Latitude":49.258781,"Longitude":-123.100990,"WheelchairAccess":1,"Distance":1268,"Routes":"003"},{"StopNo":59244,"Name":"SB GORE AVE NS E PENDER ST","BayNo":"N","City":"VANCOUVER","OnStreet":"GORE AVE","AtStreet":"E PENDER ST","Latitude":49.280520,"Longitude":-123.097480,"WheelchairAccess":1,"Distance":1274,"Routes":""},{"StopNo":50481,"Name":"NB CAMBIE ST FS W 12 AVE","BayNo":"N","City":"VANCOUVER","OnStreet":"CAMBIE ST","AtStreet":"W 12 AVE","Latitude":49.260757,"Longitude":-123.114830,"WheelchairAccess":1,"Distance":1277,"Routes":"015, 017, N15"},{"StopNo":52905,"Name":"EB W HASTINGS ST NS CARRALL ST","BayNo":"N","City":"VANCOUVER","OnStreet":"W HASTINGS ST","AtStreet":"CARRALL ST","Latitude":49.281467,"Longitude":-123.104797,"WheelchairAccess":1,"Distance":1278,"Routes":"014, 016, 020, N20, N35"},{"StopNo":50016,"Name":"YALETOWN-ROUNDHOUSE STN BAY 4","BayNo":"4","City":"VANCOUVER","OnStreet":"YALETOWN-ROUNDHOUSE STN","AtStreet":"BAY 4","Latitude":49.274036,"Longitude":-123.120842,"WheelchairAccess":1,"Distance":1280,"Routes":"023"},{"StopNo":50093,"Name":"WB W PENDER ST FS ABBOTT ST","BayNo":"N","City":"VANCOUVER","OnStreet":"W PENDER ST","AtStreet":"ABBOTT ST","Latitude":49.281288,"Longitude":-123.108215,"WheelchairAccess":1,"Distance":1289,"Routes":"004, 007, 019, 022, 209, 210, 211, 214, N19"},{"StopNo":59287,"Name":"NB GORE AVE FS E PENDER ST","BayNo":"N","City":"VANCOUVER","OnStreet":"GORE AVE","AtStreet":"E PENDER ST","Latitude":49.280640,"Longitude":-123.097280,"WheelchairAccess":1,"Distance":1292,"Routes":""},{"StopNo":60369,"Name":"WB W GEORGIA ST NS HAMILTON ST","BayNo":"N","City":"VANCOUVER","OnStreet":"W GEORGIA ST","AtStreet":"HAMILTON ST","Latitude":49.279827,"Longitude":-123.113800,"WheelchairAccess":1,"Distance":1293,"Routes":"240, 241, 246, 247, 250, 253, 254, N24"},{"StopNo":50081,"Name":"SB CAMBIE ST NS DUNSMUIR ST","BayNo":"N","City":"VANCOUVER","OnStreet":"CAMBIE ST","AtStreet":"DUNSMUIR ST","Latitude":49.280815,"Longitude":-123.111160,"WheelchairAccess":1,"Distance":1303,"Routes":"005, 006, N15, N24"},{"StopNo":50185,"Name":"WB E HASTINGS ST FS MAIN ST","BayNo":"N","City":"VANCOUVER","OnStreet":"E HASTINGS ST","AtStreet":"MAIN ST","Latitude":49.281456,"Longitude":-123.100777,"WheelchairAccess":1,"Distance":1303,"Routes":"003, 008, N20, N35, N8"},{"StopNo":50934,"Name":"EB E HASTINGS ST FS MAIN ST-","BayNo":"N","City":"VANCOUVER","OnStreet":"E HASTINGS ST","AtStreet":"MAIN ST","Latitude":49.281223,"Longitude":-123.099037,"WheelchairAccess":1,"Distance":1309,"Routes":"014, 016, 020, N20, N35"},{"StopNo":50186,"Name":"WB W HASTINGS ST FS CARRALL ST","BayNo":"N","City":"VANCOUVER","OnStreet":"W HASTINGS ST","AtStreet":"CARRALL ST","Latitude":49.281734,"Longitude":-123.105370,"WheelchairAccess":1,"Distance":1310,"Routes":"003, 008, 014, 016, 020, N20, N35, N8"},{"StopNo":59765,"Name":"WB GREAT NORTHERN WAY FS FOLEY ST","BayNo":"N","City":"VANCOUVER","OnStreet":"GREAT NORTHERN WAY","AtStreet":"FOLEY ST","Latitude":49.266403,"Longitude":-123.087135,"WheelchairAccess":1,"Distance":1310,"Routes":"084"},{"StopNo":50874,"Name":"EB W BROADWAY FS HEATHER ST","BayNo":"N","City":"VANCOUVER","OnStreet":"W BROADWAY","AtStreet":"HEATHER ST","Latitude":49.263206,"Longitude":-123.119255,"WheelchairAccess":1,"Distance":1318,"Routes":"009, N9"},{"StopNo":58613,"Name":"WB E BROADWAY FS FRASER ST ","BayNo":"N","City":"VANCOUVER","OnStreet":"E BROADWAY","AtStreet":"FRASER ST","Latitude":49.262592,"Longitude":-123.090088,"WheelchairAccess":1,"Distance":1320,"Routes":"008, 009, 099, N8, N9"},{"StopNo":53391,"Name":"WB E HASTINGS ST NS MAIN ST","BayNo":"N","City":"VANCOUVER","OnStreet":"E HASTINGS ST","AtStreet":"MAIN ST","Latitude":49.281425,"Longitude":-123.099365,"WheelchairAccess":1,"Distance":1323,"Routes":"014, 016, 020, R5"},{"StopNo":59468,"Name":"EB W HASTINGS FS ABBOTT ST","BayNo":"N","City":"VANCOUVER","OnStreet":"W HASTINGS","AtStreet":"ABBOTT ST","Latitude":49.281788,"Longitude":-123.106728,"WheelchairAccess":1,"Distance":1325,"Routes":"014, 016, 020, N20, N35"},{"StopNo":52713,"Name":"EB E HASTINGS ST FS MAIN ST--","BayNo":"N","City":"VANCOUVER","OnStreet":"E HASTINGS ST","AtStreet":"MAIN ST","Latitude":49.281219,"Longitude":-123.098305,"WheelchairAccess":1,"Distance":1325,"Routes":"R5"},{"StopNo":59558,"Name":"WB DUNSMUIR ST FS CAMBIE ST","BayNo":"N","City":"VANCOUVER","OnStreet":"DUNSMUIR ST","AtStreet":"CAMBIE ST","Latitude":49.280838,"Longitude":-123.112007,"WheelchairAccess":1,"Distance":1330,"Routes":"257"},{"StopNo":60418,"Name":"WB W 12 AVE FS CAMBIE ST","BayNo":"60418","City":"VANCOUVER","OnStreet":"W 12TH AVE","AtStreet":"CAMBIE ST","Latitude":49.260483,"Longitude":-123.115593,"WheelchairAccess":1,"Distance":1335,"Routes":"017"},{"StopNo":50622,"Name":"WB ROBSON ST FS HAMILTON ST","BayNo":"N","City":"VANCOUVER","OnStreet":"ROBSON ST","AtStreet":"HAMILTON ST","Latitude":49.279144,"Longitude":-123.116257,"WheelchairAccess":1,"Distance":1337,"Routes":"017, N15"},{"StopNo":61870,"Name":"SB HAMILTON ST NS W GEORGIA ST","BayNo":"N","City":"VANCOUVER","OnStreet":"HAMILTON ST","AtStreet":"W GEORGIA ST","Latitude":49.280275,"Longitude":-123.113845,"WheelchairAccess":1,"Distance":1337,"Routes":""},{"StopNo":59513,"Name":"EB W GEORGIA ST NS HAMILTON ST","BayNo":"N","City":"VANCOUVER","OnStreet":"W GEORGIA ST","AtStreet":"HAMILTON ST","Latitude":49.280019,"Longitude":-123.114489,"WheelchairAccess":1,"Distance":1338,"Routes":""},{"StopNo":50241,"Name":"SB MAIN ST FS E 14 AVE","BayNo":"N","City":"VANCOUVER","OnStreet":"MAIN ST","AtStreet":"E 14 AVE","Latitude":49.258083,"Longitude":-123.101303,"WheelchairAccess":1,"Distance":1340,"Routes":"003"},{"StopNo":50414,"Name":"SB CAMBIE ST FS W 12 AVE","BayNo":"N","City":"VANCOUVER","OnStreet":"CAMBIE ST","AtStreet":"W 12 AVE","Latitude":49.260113,"Longitude":-123.115143,"WheelchairAccess":1,"Distance":1348,"Routes":"015, N15"},{"StopNo":53392,"Name":"WB W HASTINGS ST NS ABBOTT ST","BayNo":"N","City":"VANCOUVER","OnStreet":"W HASTINGS ST","AtStreet":"ABBOTT ST","Latitude":49.282005,"Longitude":-123.106842,"WheelchairAccess":1,"Distance":1350,"Routes":"R5"},{"StopNo":61408,"Name":"WB DAVIE ST FS PACIFIC BLVD","BayNo":"N","City":"VANCOUVER","OnStreet":"DAVIE ST","AtStreet":"PACIFIC BLVD","Latitude":49.274330,"Longitude":-123.121710,"WheelchairAccess":1,"Distance":1350,"Routes":""},{"StopNo":50085,"Name":"YALETOWN-ROUNDHOUSE STN BAY 3","BayNo":"3","City":"VANCOUVER","OnStreet":"YALETOWN-ROUNDHOUSE STN","AtStreet":"BAY 3","Latitude":49.274063,"Longitude":-123.121895,"WheelchairAccess":1,"Distance":1353,"Routes":"023"},{"StopNo":61871,"Name":"SB HAMILTON ST FS DUNSMUIR ST","BayNo":"N","City":"VANCOUVER","OnStreet":"HAMILTON ST","AtStreet":"DUNSMUIR ST","Latitude":49.280661,"Longitude":-123.113264,"WheelchairAccess":1,"Distance":1353,"Routes":""},{"StopNo":50932,"Name":"EB W HASTINGS ST NS ABBOTT ST","BayNo":"N","City":"VANCOUVER","OnStreet":"W HASTINGS ST","AtStreet":"ABBOTT ST","Latitude":49.281980,"Longitude":-123.107590,"WheelchairAccess":1,"Distance":1356,"Routes":""},{"StopNo":61366,"Name":"YALETOWN-ROUNDHOUSE STATION PLATFORM 1","BayNo":"N","City":"VANCOUVER","OnStreet":"YALETOWN-ROUNDHOUSE STATION","AtStreet":"PLATFORM 1","Latitude":49.274357,"Longitude":-123.121803,"WheelchairAccess":0,"Distance":1358,"Routes":"980"},{"StopNo":61365,"Name":"YALETOWN-ROUNDHOUSE STATION PLATFORM 2","BayNo":"N","City":"VANCOUVER","OnStreet":"YALETOWN-ROUNDHOUSE STATION","AtStreet":"PLATFORM 2","Latitude":49.274357,"Longitude":-123.121841,"WheelchairAccess":0,"Distance":1360,"Routes":"980"},{"StopNo":50935,"Name":"EB E HASTINGS ST FS GORE AVE","BayNo":"N","City":"VANCOUVER","OnStreet":"E HASTINGS ST","AtStreet":"GORE AVE","Latitude":49.281208,"Longitude":-123.096764,"WheelchairAccess":1,"Distance":1365,"Routes":"014, 016, 020, N20, N35"},{"StopNo":50925,"Name":"WB W BROADWAY FS HEATHER ST","BayNo":"N","City":"VANCOUVER","OnStreet":"W BROADWAY","AtStreet":"HEATHER ST","Latitude":49.263401,"Longitude":-123.120224,"WheelchairAccess":1,"Distance":1365,"Routes":"009, N9"},{"StopNo":61215,"Name":"YALETOWN-ROUNDHOUSE STN BAY 2","BayNo":"2","City":"VANCOUVER","OnStreet":"YALETOWN-ROUNDHOUSE STN","AtStreet":"BAY 2","Latitude":49.274323,"Longitude":-123.122009,"WheelchairAccess":1,"Distance":1370,"Routes":"006"},{"StopNo":60348,"Name":"EB W GEORGIA ST FS HOMER ST","BayNo":"N","City":"VANCOUVER","OnStreet":"W GEORGIA ST","AtStreet":"HOMER ST","Latitude":49.280235,"Longitude":-123.114838,"WheelchairAccess":1,"Distance":1372,"Routes":"240, 241, 246, 247, 250, 253, 254"},{"StopNo":52099,"Name":"EB W BROADWAY NS HEATHER ST","BayNo":"N","City":"VANCOUVER","OnStreet":"W BROADWAY","AtStreet":"HEATHER ST","Latitude":49.263210,"Longitude":-123.120171,"WheelchairAccess":1,"Distance":1373,"Routes":"099"},{"StopNo":50227,"Name":"EB E CORDOVA ST FS CARRALL ST","BayNo":"N","City":"VANCOUVER","OnStreet":"E CORDOVA ST","AtStreet":"CARRALL ST","Latitude":49.282323,"Longitude":-123.103816,"WheelchairAccess":1,"Distance":1374,"Routes":""},{"StopNo":60248,"Name":"EB E BROADWAY NS FRASER ST","BayNo":"N","City":"VANCOUVER","OnStreet":"E BROADWAY","AtStreet":"FRASER ST","Latitude":49.262367,"Longitude":-123.089394,"WheelchairAccess":1,"Distance":1375,"Routes":"009, 099, N9"},{"StopNo":51136,"Name":"EB KINGSWAY FS E 13 AVE","BayNo":"N","City":"VANCOUVER","OnStreet":"KINGSWAY","AtStreet":"E 13 AVE","Latitude":49.258949,"Longitude":-123.095428,"WheelchairAccess":1,"Distance":1386,"Routes":"019, N19"},{"StopNo":60492,"Name":"EB CORDOVA ST NS CARRALL ST","BayNo":"N","City":"VANCOUVER","OnStreet":"W CORDOVA ST","AtStreet":"CARRALL ST","Latitude":49.282440,"Longitude":-123.104630,"WheelchairAccess":1,"Distance":1386,"Routes":""},{"StopNo":50187,"Name":"WB W HASTINGS ST FS ABBOTT ST","BayNo":"N","City":"VANCOUVER","OnStreet":"W HASTINGS ST","AtStreet":"ABBOTT ST","Latitude":49.282223,"Longitude":-123.108040,"WheelchairAccess":1,"Distance":1388,"Routes":"003, 008, 014, 016, 020, N20, N35, N8"},{"StopNo":60346,"Name":"WB W GEORGIA ST NS HOMER ST","BayNo":"N","City":"VANCOUVER","OnStreet":"W GEORGIA ST","AtStreet":"HOMER ST","Latitude":49.280458,"Longitude":-123.114778,"WheelchairAccess":1,"Distance":1390,"Routes":""},{"StopNo":50080,"Name":"EB W PENDER ST FS HAMILTON ST","BayNo":"N","City":"VANCOUVER","OnStreet":"W PENDER ST","AtStreet":"HAMILTON ST","Latitude":49.281799,"Longitude":-123.110619,"WheelchairAccess":1,"Distance":1392,"Routes":"005, 017, 019, 022, N15, N19, N24"},{"StopNo":59766,"Name":"EB GREAT NORTHERN WAY FS FOLEY ST","BayNo":"N","City":"VANCOUVER","OnStreet":"GREAT NORTHERN WAY","AtStreet":"FOLEY ST","Latitude":49.266022,"Longitude":-123.086121,"WheelchairAccess":1,"Distance":1393,"Routes":"084"},{"StopNo":50228,"Name":"EB E CORDOVA ST NS MAIN ST","BayNo":"N","City":"VANCOUVER","OnStreet":"E CORDOVA ST","AtStreet":"MAIN ST","Latitude":49.282234,"Longitude":-123.100006,"WheelchairAccess":1,"Distance":1399,"Routes":"003, 008, N8"},{"StopNo":52712,"Name":"EB W HASTINGS ST NS ABBOTT ST","BayNo":"N","City":"VANCOUVER","OnStreet":"W HASTINGS ST","AtStreet":"ABBOTT ST","Latitude":49.282215,"Longitude":-123.108833,"WheelchairAccess":1,"Distance":1400,"Routes":"R5"},{"StopNo":51362,"Name":"WB PRIOR ST FS HAWKS AVE","BayNo":"N","City":"VANCOUVER","OnStreet":"PRIOR ST","AtStreet":"HAWKS AVE","Latitude":49.276611,"Longitude":-123.087837,"WheelchairAccess":1,"Distance":1406,"Routes":"022"},{"StopNo":50775,"Name":"SB FRASER ST FS E BROADWAY","BayNo":"N","City":"VANCOUVER","OnStreet":"FRASER ST","AtStreet":"E BROADWAY","Latitude":49.262020,"Longitude":-123.089233,"WheelchairAccess":1,"Distance":1408,"Routes":"008, N8"},{"StopNo":50507,"Name":"WB E HASTINGS ST FS DUNLEVY AVE","BayNo":"N","City":"VANCOUVER","OnStreet":"E HASTINGS ST","AtStreet":"DUNLEVY AVE","Latitude":49.281357,"Longitude":-123.095848,"WheelchairAccess":1,"Distance":1408,"Routes":"014, 016, 020, N20, N35"},{"StopNo":51280,"Name":"EB PRIOR ST NS HAWKS AVE","BayNo":"N","City":"VANCOUVER","OnStreet":"PRIOR ST","AtStreet":"HAWKS AVE","Latitude":49.276482,"Longitude":-123.087662,"WheelchairAccess":1,"Distance":1410,"Routes":"022"},{"StopNo":50425,"Name":"EB E CORDOVA ST FS MAIN ST","BayNo":"N","City":"VANCOUVER","OnStreet":"E CORDOVA ST","AtStreet":"MAIN ST","Latitude":49.282204,"Longitude":-123.098946,"WheelchairAccess":1,"Distance":1415,"Routes":"004, 007, 209, 210, 211, 214"},{"StopNo":50015,"Name":"EB PACIFIC BLVD FS DRAKE ST","BayNo":"N","City":"VANCOUVER","OnStreet":"PACIFIC BLVD","AtStreet":"DRAKE ST","Latitude":49.273430,"Longitude":-123.123138,"WheelchairAccess":1,"Distance":1417,"Routes":"023"},{"StopNo":50410,"Name":"SB CAMBIE ST FS W HASTINGS ST","BayNo":"N","City":"VANCOUVER","OnStreet":"CAMBIE ST","AtStreet":"W HASTINGS ST","Latitude":49.282211,"Longitude":-123.109802,"WheelchairAccess":1,"Distance":1417,"Routes":"004, 019, 050"},{"StopNo":58125,"Name":"EB W CORDOVA ST FS ABBOTT ST","BayNo":"N","City":"VANCOUVER","OnStreet":"W CORDOVA ST","AtStreet":"ABBOTT ST","Latitude":49.282715,"Longitude":-123.106056,"WheelchairAccess":1,"Distance":1422,"Routes":"003, 004, 007, 008, 209, 210, 211, 214, N8"},{"StopNo":54606,"Name":"NB HOMER ST FS W GEORGIA ST","BayNo":"N","City":"VANCOUVER","OnStreet":"HOMER ST","AtStreet":"W GEORGIA ST","Latitude":49.280858,"Longitude":-123.114696,"WheelchairAccess":1,"Distance":1425,"Routes":""},{"StopNo":50023,"Name":"YALETOWN-ROUNDHOUSE STN BAY 1","BayNo":"1","City":"VANCOUVER","OnStreet":"YALETOWN-ROUNDHOUSE STN","AtStreet":"BAY 1","Latitude":49.274868,"Longitude":-123.122536,"WheelchairAccess":1,"Distance":1428,"Routes":"006"},{"StopNo":50846,"Name":"NB FRASER ST FS E 10 AVE","BayNo":"N","City":"VANCOUVER","OnStreet":"FRASER ST","AtStreet":"E 10 AVE","Latitude":49.261837,"Longitude":-123.089027,"WheelchairAccess":1,"Distance":1433,"Routes":"008, N8"},{"StopNo":58614,"Name":"EB E BROADWAY FS FRASER ST ","BayNo":"N","City":"VANCOUVER","OnStreet":"E BROADWAY ST","AtStreet":"FRASER ST","Latitude":49.262360,"Longitude":-123.088390,"WheelchairAccess":1,"Distance":1434,"Routes":""},{"StopNo":58267,"Name":"NB HOMER ST NS DUNSMUIR ST","BayNo":"N","City":"VANCOUVER","OnStreet":"HOMER ST","AtStreet":"DUNSMUIR ST","Latitude":49.281337,"Longitude":-123.113897,"WheelchairAccess":1,"Distance":1441,"Routes":""},{"StopNo":50873,"Name":"EB W BROADWAY FS WILLOW  ST","BayNo":"N","City":"VANCOUVER","OnStreet":"W BROADWAY","AtStreet":"WILLOW ST","Latitude":49.263229,"Longitude":-123.121292,"WheelchairAccess":1,"Distance":1441,"Routes":"009, N9"},{"StopNo":50480,"Name":"NB CAMBIE ST FS W 14 AVE","BayNo":"N","City":"VANCOUVER","OnStreet":"CAMBIE ST","AtStreet":"W 14 AVE","Latitude":49.258987,"Longitude":-123.114891,"WheelchairAccess":1,"Distance":1442,"Routes":"015, N15"},{"StopNo":58266,"Name":"EB W GEORGIA ST NS HOMER ST--","BayNo":"N","City":"VANCOUVER","OnStreet":"W GEORGIA ST","AtStreet":"HOMER ST","Latitude":49.280700,"Longitude":-123.115550,"WheelchairAccess":1,"Distance":1444,"Routes":""},{"StopNo":61074,"Name":"SB MAIN ST FS POWELL ST ","BayNo":"N","City":"VANCOUVER","OnStreet":"MAIN ST","AtStreet":"POWELL ST","Latitude":49.282700,"Longitude":-123.099731,"WheelchairAccess":1,"Distance":1454,"Routes":"004, 007, 209, 210, 211, 214"},{"StopNo":50037,"Name":"EB W CORDOVA ST NS ABBOTT ST","BayNo":"N","City":"VANCOUVER","OnStreet":"W CORDOVA ST","AtStreet":"ABBOTT ST","Latitude":49.282943,"Longitude":-123.107243,"WheelchairAccess":1,"Distance":1457,"Routes":""},{"StopNo":50919,"Name":"WB E BROADWAY FS PRINCE ALBERT ST","BayNo":"N","City":"VANCOUVER","OnStreet":"E BROADWAY","AtStreet":"PRINCE ALBERT ST","Latitude":49.262581,"Longitude":-123.087646,"WheelchairAccess":1,"Distance":1464,"Routes":"009, N9"},{"StopNo":59581,"Name":"NB MAIN ST FS E 16 AVE","BayNo":"N","City":"VANCOUVER","OnStreet":"MAIN ST","AtStreet":"E 16 AVE","Latitude":49.256943,"Longitude":-123.101067,"WheelchairAccess":1,"Distance":1468,"Routes":"003"},{"StopNo":50506,"Name":"WB E HASTINGS ST FS JACKSON AVE","BayNo":"N","City":"VANCOUVER","OnStreet":"E HASTINGS ST","AtStreet":"JACKSON AVE","Latitude":49.281322,"Longitude":-123.093903,"WheelchairAccess":1,"Distance":1471,"Routes":"014, 016, 020, N20, N35"},{"StopNo":50094,"Name":"WB W PENDER ST FS HAMILTON ST","BayNo":"N","City":"VANCOUVER","OnStreet":"W PENDER ST","AtStreet":"HAMILTON ST","Latitude":49.282471,"Longitude":-123.111366,"WheelchairAccess":1,"Distance":1480,"Routes":"004, 005, 007, 019, 022, 209, 210, 211, 214, N19"},{"StopNo":50038,"Name":"WB POWELL ST FS COLUMBIA ST","BayNo":"N","City":"VANCOUVER","OnStreet":"POWELL ST","AtStreet":"COLUMBIA ST","Latitude":49.283283,"Longitude":-123.102898,"WheelchairAccess":1,"Distance":1484,"Routes":"050"},{"StopNo":50936,"Name":"EB E HASTINGS ST FS JACKSON AVE","BayNo":"N","City":"VANCOUVER","OnStreet":"E HASTINGS ST","AtStreet":"JACKSON AVE","Latitude":49.281113,"Longitude":-123.092957,"WheelchairAccess":1,"Distance":1488,"Routes":"014, 016, 020, N20, N35"},{"StopNo":54473,"Name":"EB W GEORGIA ST FS RICHARDS ST","BayNo":"N","City":"VANCOUVER","OnStreet":"W GEORGIA ST","AtStreet":"RICHARDS ST","Latitude":49.280994,"Longitude":-123.116005,"WheelchairAccess":1,"Distance":1489,"Routes":"240, 241, 246, 247"},{"StopNo":50086,"Name":"WB PACIFIC BLVD FS DRAKE ST","BayNo":"N","City":"VANCOUVER","OnStreet":"PACIFIC BLVD","AtStreet":"DRAKE ST","Latitude":49.273418,"Longitude":-123.124214,"WheelchairAccess":1,"Distance":1492,"Routes":"023"},{"StopNo":50926,"Name":"WB W BROADWAY FS WILLOW ST-","BayNo":"N","City":"VANCOUVER","OnStreet":"W BROADWAY","AtStreet":"WILLOW ST","Latitude":49.263432,"Longitude":-123.122314,"WheelchairAccess":1,"Distance":1494,"Routes":"009, N9"},{"StopNo":61918,"Name":"SB RICHARDS ST NS ROBSON ST","BayNo":"N","City":"VANCOUVER","OnStreet":"RICHARDS ST","AtStreet":"ROBSON ST","Latitude":49.280299,"Longitude":-123.117674,"WheelchairAccess":1,"Distance":1502,"Routes":""},{"StopNo":61149,"Name":"SB CAMBIE ST FS W 14 AVE","BayNo":"N","City":"VANCOUVER","OnStreet":"CAMBIE ST","AtStreet":"W 14 AVE","Latitude":49.258461,"Longitude":-123.115196,"WheelchairAccess":1,"Distance":1503,"Routes":"015, N15"},{"StopNo":54444,"Name":"WB W GEORGIA ST NS RICHARDS ST","BayNo":"N","City":"VANCOUVER","OnStreet":"W GEORGIA ST","AtStreet":"RICHARDS ST","Latitude":49.281200,"Longitude":-123.115936,"WheelchairAccess":1,"Distance":1505,"Routes":"240, 241, 246, 247, N24"},{"StopNo":50517,"Name":"WB POWELL ST FS MAIN ST","BayNo":"N","City":"VANCOUVER","OnStreet":"POWELL ST","AtStreet":"MAIN ST","Latitude":49.283270,"Longitude":-123.100110,"WheelchairAccess":1,"Distance":1510,"Routes":""},{"StopNo":50426,"Name":"EB E CORDOVA ST FS DUNLEVY AVE","BayNo":"N","City":"VANCOUVER","OnStreet":"E CORDOVA ST","AtStreet":"DUNLEVY AVE","Latitude":49.282135,"Longitude":-123.094849,"WheelchairAccess":1,"Distance":1517,"Routes":"004, 007, 209"},{"StopNo":50188,"Name":"WB W HASTINGS ST FS HAMILTON ST","BayNo":"N","City":"VANCOUVER","OnStreet":"W HASTINGS ST","AtStreet":"HAMILTON ST","Latitude":49.283089,"Longitude":-123.110298,"WheelchairAccess":1,"Distance":1521,"Routes":"003, 008, 014, 016, 020, N20, N35, N8"},{"StopNo":50931,"Name":"EB W HASTINGS ST FS HOMER ST","BayNo":"N","City":"VANCOUVER","OnStreet":"W HASTINGS ST","AtStreet":"HOMER ST","Latitude":49.283054,"Longitude":-123.110542,"WheelchairAccess":1,"Distance":1523,"Routes":"014, 016, 020, N20, N35"},{"StopNo":51198,"Name":"WB KINGSWAY FS SAINT GEORGE ST","BayNo":"N","City":"VANCOUVER","OnStreet":"KINGSWAY","AtStreet":"SAINT GEORGE ST","Latitude":49.258171,"Longitude":-123.093582,"WheelchairAccess":1,"Distance":1527,"Routes":"019, N19"},{"StopNo":50191,"Name":"SB RICHARDS ST NS W GEORGIA ST","BayNo":"N","City":"VANCOUVER","OnStreet":"RICHARDS ST","AtStreet":"W GEORGIA ST","Latitude":49.281400,"Longitude":-123.116030,"WheelchairAccess":1,"Distance":1528,"Routes":""},{"StopNo":58502,"Name":"WB W BROADWAY FS WILLOW ST--","BayNo":"N","City":"VANCOUVER","OnStreet":"W BROADWAY","AtStreet":"WILLOW ST","Latitude":49.263435,"Longitude":-123.122864,"WheelchairAccess":1,"Distance":1528,"Routes":"099"},{"StopNo":50776,"Name":"SB FRASER ST FS E 11 AVE","BayNo":"N","City":"VANCOUVER","OnStreet":"FRASER ST","AtStreet":"E 11 AVE","Latitude":49.260319,"Longitude":-123.089272,"WheelchairAccess":1,"Distance":1532,"Routes":"008, N8"},{"StopNo":50407,"Name":"NB HOMER ST FS W PENDER ST","BayNo":"N","City":"VANCOUVER","OnStreet":"HOMER ST","AtStreet":"W PENDER ST","Latitude":49.282982,"Longitude":-123.111443,"WheelchairAccess":1,"Distance":1536,"Routes":"014, 209, 210, 211, 214"},{"StopNo":50192,"Name":"WB ROBSON ST FS RICHARDS ST","BayNo":"N","City":"VANCOUVER","OnStreet":"ROBSON ST","AtStreet":"RICHARDS ST","Latitude":49.280410,"Longitude":-123.118230,"WheelchairAccess":1,"Distance":1537,"Routes":""},{"StopNo":50516,"Name":"WB POWELL ST FS GORE AVE","BayNo":"N","City":"VANCOUVER","OnStreet":"POWELL ST","AtStreet":"GORE AVE","Latitude":49.283222,"Longitude":-123.098137,"WheelchairAccess":1,"Distance":1540,"Routes":"004, 007, 209"},{"StopNo":50242,"Name":"SB MAIN ST FS E 16 AVE","BayNo":"N","City":"VANCOUVER","OnStreet":"MAIN ST","AtStreet":"E 16 AVE","Latitude":49.256252,"Longitude":-123.101387,"WheelchairAccess":1,"Distance":1541,"Routes":"003"},{"StopNo":50505,"Name":"WB E HASTINGS ST FS PRINCESS AVE","BayNo":"N","City":"VANCOUVER","OnStreet":"E HASTINGS ST","AtStreet":"PRINCESS AVE","Latitude":49.281281,"Longitude":-123.092018,"WheelchairAccess":1,"Distance":1542,"Routes":"014, 016, 020, N20, N35"},{"StopNo":50190,"Name":"SB RICHARDS ST FS DUNSMUIR ST","BayNo":"N","City":"VANCOUVER","OnStreet":"RICHARDS ST","AtStreet":"DUNSMUIR ST","Latitude":49.281914,"Longitude":-123.115265,"WheelchairAccess":1,"Distance":1546,"Routes":"020"},{"StopNo":50079,"Name":"EB W PENDER ST FS RICHARDS ST","BayNo":"N","City":"VANCOUVER","OnStreet":"W PENDER ST","AtStreet":"RICHARDS ST","Latitude":49.282963,"Longitude":-123.112358,"WheelchairAccess":1,"Distance":1557,"Routes":""},{"StopNo":50845,"Name":"NB FRASER ST FS E 12 AVE","BayNo":"N","City":"VANCOUVER","OnStreet":"FRASER ST","AtStreet":"E 12 AVE","Latitude":49.260078,"Longitude":-123.089058,"WheelchairAccess":1,"Distance":1562,"Routes":"008, N8"},{"StopNo":60417,"Name":"WB W 12 AVE FS HEATHER ST","BayNo":"60417","City":"VANCOUVER","OnStreet":"W 12TH AVE","AtStreet":"HEATHER ST","Latitude":49.260555,"Longitude":-123.120407,"WheelchairAccess":1,"Distance":1567,"Routes":"017"},{"StopNo":59397,"Name":"EB DAVIE ST FS RICHARDS ST","BayNo":"N","City":"VANCOUVER","OnStreet":"DAVIE ST","AtStreet":"RICHARDS ST","Latitude":49.275700,"Longitude":-123.124080,"WheelchairAccess":1,"Distance":1568,"Routes":""},{"StopNo":50937,"Name":"EB E HASTINGS ST FS PRINCESS AVE","BayNo":"N","City":"VANCOUVER","OnStreet":"E HASTINGS ST","AtStreet":"PRINCESS AVE","Latitude":49.281082,"Longitude":-123.090973,"WheelchairAccess":1,"Distance":1570,"Routes":"014, 016, 020, N20, N35"},{"StopNo":60503,"Name":"EB W GEORGIA ST FS SEYMOUR ST","BayNo":"N","City":"VANCOUVER","OnStreet":"W GEORGIA ST","AtStreet":"SEYMOUR ST","Latitude":49.281514,"Longitude":-123.116813,"WheelchairAccess":1,"Distance":1570,"Routes":""},{"StopNo":60416,"Name":"EB W 12 AVE NS HEATHER ST","BayNo":"60416","City":"VANCOUVER","OnStreet":"W 12TH AVE","AtStreet":"HEATHER ST","Latitude":49.260395,"Longitude":-123.120308,"WheelchairAccess":1,"Distance":1574,"Routes":"017"},{"StopNo":50014,"Name":"EB PACIFIC BLVD FS HOMER ST","BayNo":"N","City":"VANCOUVER","OnStreet":"PACIFIC BLVD","AtStreet":"HOMER ST","Latitude":49.272930,"Longitude":-123.125549,"WheelchairAccess":1,"Distance":1574,"Routes":"023"},{"StopNo":50036,"Name":"EB W CORDOVA ST FS HOMER ST","BayNo":"N","City":"VANCOUVER","OnStreet":"W CORDOVA ST","AtStreet":"HOMER ST","Latitude":49.283764,"Longitude":-123.109650,"WheelchairAccess":1,"Distance":1581,"Routes":"003, 004, 007, 008, 050, 209, 210, 211, 214, N8"},{"StopNo":51007,"Name":"NB SEYMOUR ST NS ROBSON ST","BayNo":"N","City":"VANCOUVER","OnStreet":"SEYMOUR ST","AtStreet":"ROBSON ST","Latitude":49.280483,"Longitude":-123.119071,"WheelchairAccess":1,"Distance":1584,"Routes":""},{"StopNo":59525,"Name":"WB WATER ST FS ABBOTT ST","BayNo":"N","City":"VANCOUVER","OnStreet":"WATER ST","AtStreet":"ABBOTT ST","Latitude":49.284111,"Longitude":-123.107361,"WheelchairAccess":1,"Distance":1587,"Routes":"050"},{"StopNo":50872,"Name":"EB W BROADWAY FS LAUREL ST","BayNo":"N","City":"VANCOUVER","OnStreet":"W BROADWAY","AtStreet":"LAUREL ST","Latitude":49.263268,"Longitude":-123.123650,"WheelchairAccess":1,"Distance":1588,"Routes":"009, N9"},{"StopNo":61032,"Name":"WB W GEORGIA ST NS SEYMOUR ST","BayNo":"N","City":"VANCOUVER","OnStreet":"W GEORGIA ST","AtStreet":"SEYMOUR ST","Latitude":49.281740,"Longitude":-123.116757,"WheelchairAccess":1,"Distance":1589,"Routes":""},{"StopNo":60277,"Name":"NB SEYMOUR ST FS ROBSON ST","BayNo":"N","City":"VANCOUVER","OnStreet":"SEYMOUR ST","AtStreet":"ROBSON ST","Latitude":49.280884,"Longitude":-123.118484,"WheelchairAccess":1,"Distance":1589,"Routes":"N17"},{"StopNo":51006,"Name":"NB SEYMOUR ST FS NELSON ST","BayNo":"N","City":"VANCOUVER","OnStreet":"SEYMOUR ST","AtStreet":"NELSON ST","Latitude":49.278835,"Longitude":-123.121582,"WheelchairAccess":1,"Distance":1593,"Routes":"N10, N17, N9"},{"StopNo":58065,"Name":"NB SEYMOUR ST NS W GEORGIA ST ","BayNo":"N","City":"VANCOUVER","OnStreet":"SEYMOUR ST","AtStreet":"W GEORGIA ST","Latitude":49.281479,"Longitude":-123.117546,"WheelchairAccess":1,"Distance":1598,"Routes":"N10, N15, N19, N20, N35, N8, N9"},{"StopNo":59860,"Name":"EB DAVIE ST NS RICHARDS ST","BayNo":"N","City":"VANCOUVER","OnStreet":"DAVIE ST","AtStreet":"RICHARDS ST","Latitude":49.275963,"Longitude":-123.124481,"WheelchairAccess":1,"Distance":1606,"Routes":"006"},{"StopNo":52711,"Name":"EB W HASTINGS ST FS RICHARDS ST","BayNo":"N","City":"VANCOUVER","OnStreet":"W HASTINGS ST","AtStreet":"RICHARDS ST","Latitude":49.283670,"Longitude":-123.111510,"WheelchairAccess":1,"Distance":1609,"Routes":""},{"StopNo":51281,"Name":"EB PRIOR ST FS CAMPBELL AVE","BayNo":"N","City":"VANCOUVER","OnStreet":"PRIOR ST","AtStreet":"CAMPBELL AVE","Latitude":49.276443,"Longitude":-123.084503,"WheelchairAccess":1,"Distance":1609,"Routes":"022"},{"StopNo":50617,"Name":"EB ROBSON ST NS SEYMOUR ST","BayNo":"N","City":"VANCOUVER","OnStreet":"ROBSON ST","AtStreet":"SEYMOUR ST","Latitude":49.280820,"Longitude":-123.119136,"WheelchairAccess":1,"Distance":1615,"Routes":""},{"StopNo":50479,"Name":"NB CAMBIE ST FS W 16 AVE","BayNo":"N","City":"VANCOUVER","OnStreet":"CAMBIE ST","AtStreet":"W 16 AVE","Latitude":49.257156,"Longitude":-123.114906,"WheelchairAccess":1,"Distance":1619,"Routes":"015, N15"},{"StopNo":50024,"Name":"WB DAVIE ST FS RICHARDS ST","BayNo":"N","City":"VANCOUVER","OnStreet":"DAVIE ST","AtStreet":"RICHARDS ST","Latitude":49.276180,"Longitude":-123.124557,"WheelchairAccess":1,"Distance":1621,"Routes":"006"},{"StopNo":50427,"Name":"EB E CORDOVA ST NS PRINCESS AVE","BayNo":"N","City":"VANCOUVER","OnStreet":"E CORDOVA ST","AtStreet":"PRINCESS AVE","Latitude":49.282070,"Longitude":-123.091705,"WheelchairAccess":1,"Distance":1627,"Routes":"004, 007, 209"},{"StopNo":50962,"Name":"WB W HASTINGS ST FS HOMER ST","BayNo":"N","City":"VANCOUVER","OnStreet":"W HASTINGS ST","AtStreet":"HOMER ST","Latitude":49.283920,"Longitude":-123.111570,"WheelchairAccess":1,"Distance":1637,"Routes":""},{"StopNo":61519,"Name":"NB SEYMOUR ST NS DUNSMUIR ST","BayNo":"N","City":"VANCOUVER","OnStreet":"SEYMOUR ST","AtStreet":"DUNSMUIR ST","Latitude":49.282784,"Longitude":-123.115593,"WheelchairAccess":1,"Distance":1642,"Routes":"N10, N15, N17, N19, N20, N24, N35, N8, N9"},{"StopNo":51137,"Name":"EB KINGSWAY NS CAROLINA ST","BayNo":"N","City":"VANCOUVER","OnStreet":"KINGSWAY","AtStreet":"CAROLINA ST","Latitude":49.257420,"Longitude":-123.092369,"WheelchairAccess":1,"Distance":1644,"Routes":"019, N19"},{"StopNo":50189,"Name":"SB RICHARDS ST FS W HASTINGS ST","BayNo":"N","City":"VANCOUVER","OnStreet":"RICHARDS ST","AtStreet":"W HASTINGS ST","Latitude":49.283794,"Longitude":-123.112419,"WheelchairAccess":1,"Distance":1645,"Routes":"005, 010, 020"},{"StopNo":54445,"Name":"WB W GEORGIA ST FS SEYMOUR ST","BayNo":"N","City":"VANCOUVER","OnStreet":"W GEORGIA ST","AtStreet":"SEYMOUR ST","Latitude":49.282139,"Longitude":-123.117371,"WheelchairAccess":1,"Distance":1650,"Routes":"257"},{"StopNo":50883,"Name":"EB E BROADWAY FS SAINT CATHERINES ST","BayNo":"N","City":"VANCOUVER","OnStreet":"E BROADWAY","AtStreet":"SAINT CATHERINES ST","Latitude":49.262352,"Longitude":-123.084747,"WheelchairAccess":1,"Distance":1655,"Routes":"009, N9"},{"StopNo":50515,"Name":"WB POWELL ST FS JACKSON AVE","BayNo":"N","City":"VANCOUVER","OnStreet":"POWELL ST","AtStreet":"JACKSON AVE","Latitude":49.283146,"Longitude":-123.093727,"WheelchairAccess":1,"Distance":1655,"Routes":"004, 007, 209"},{"StopNo":51004,"Name":"NB SEYMOUR ST FS DAVIE ST ","BayNo":"N","City":"VANCOUVER","OnStreet":"SEYMOUR ST","AtStreet":"DAVIE ST","Latitude":49.276810,"Longitude":-123.124626,"WheelchairAccess":1,"Distance":1657,"Routes":"N10, N17, N9"},{"StopNo":60196,"Name":"EB W CORDOVA ST FS RICHARDS ST","BayNo":"N","City":"VANCOUVER","OnStreet":"W CORDOVA ST","AtStreet":"RICHARDS ST","Latitude":49.284328,"Longitude":-123.110510,"WheelchairAccess":1,"Distance":1658,"Routes":""},{"StopNo":61121,"Name":"WB W 16 AVE FS CAMBIE ST","BayNo":"N","City":"VANCOUVER","OnStreet":"W 16 AVE","AtStreet":"CAMBIE ST","Latitude":49.257004,"Longitude":-123.115677,"WheelchairAccess":1,"Distance":1661,"Routes":"033"},{"StopNo":61662,"Name":"EB W GEORGIA ST FS GRANVILLE ST","BayNo":"N","City":"VANCOUVER","OnStreet":"W GEORGIA ST","AtStreet":"GRANVILLE ST","Latitude":49.282080,"Longitude":-123.117750,"WheelchairAccess":1,"Distance":1661,"Routes":""},{"StopNo":59040,"Name":"WB ROBSON ST NS GRANVILLE ST","BayNo":"N","City":"VANCOUVER","OnStreet":"ROBSON ST","AtStreet":"GRANVILLE ST","Latitude":49.281281,"Longitude":-123.119553,"WheelchairAccess":1,"Distance":1673,"Routes":"017, 020"},{"StopNo":50078,"Name":"EB W PENDER ST FS SEYMOUR ST","BayNo":"N","City":"VANCOUVER","OnStreet":"W PENDER ST","AtStreet":"SEYMOUR ST","Latitude":49.283752,"Longitude":-123.113586,"WheelchairAccess":1,"Distance":1673,"Routes":"005, 014, 017, 019, 022, 209, 210, 211, 214, N15, N19, N24"},{"StopNo":50095,"Name":"WB W PENDER ST FS RICHARDS ST","BayNo":"N","City":"VANCOUVER","OnStreet":"W PENDER ST","AtStreet":"RICHARDS ST","Latitude":49.283817,"Longitude":-123.113426,"WheelchairAccess":1,"Distance":1675,"Routes":"004, 005, 007, 010, 019, 022, 209, 210, 211, 214, N19, N22"},{"StopNo":58504,"Name":"WB W GEORGIA ST NS GRANVILLE ST","BayNo":"N","City":"VANCOUVER","OnStreet":"W GEORGIA ST","AtStreet":"GRANVILLE ST","Latitude":49.282318,"Longitude":-123.117661,"WheelchairAccess":1,"Distance":1679,"Routes":"250, 253, 254"},{"StopNo":50777,"Name":"SB FRASER ST FS E 13 AVE","BayNo":"N","City":"VANCOUVER","OnStreet":"FRASER ST","AtStreet":"E 13 AVE","Latitude":49.258480,"Longitude":-123.089287,"WheelchairAccess":1,"Distance":1681,"Routes":"008, N8"},{"StopNo":57966,"Name":"GRANVILLE STATION PLATFORM 2","BayNo":"N","City":"VANCOUVER","OnStreet":"GRANVILLE STATION","AtStreet":"PLATFORM 2","Latitude":49.283134,"Longitude":-123.115746,"WheelchairAccess":0,"Distance":1681,"Routes":"992"},{"StopNo":58144,"Name":"NB GRANVILLE ST FS SMITHE ST","BayNo":"N","City":"VANCOUVER","OnStreet":"GRANVILLE ST","AtStreet":"SMITHE ST","Latitude":49.280785,"Longitude":-123.120537,"WheelchairAccess":1,"Distance":1681,"Routes":"004, 007, 010, 014, 016, 050"},{"StopNo":59835,"Name":"NB MAIN ST FS E 18 AVE","BayNo":"N","City":"VANCOUVER","OnStreet":"MAIN ST","AtStreet":"E 18 AVE","Latitude":49.255005,"Longitude":-123.100983,"WheelchairAccess":1,"Distance":1682,"Routes":"003"},{"StopNo":58001,"Name":"GRANVILLE STATION PLATFORM 1","BayNo":"N","City":"VANCOUVER","OnStreet":"GRANVILLE STATION","AtStreet":"PLATFORM 1","Latitude":49.283192,"Longitude":-123.115677,"WheelchairAccess":0,"Distance":1684,"Routes":"992"},{"StopNo":50639,"Name":"SB RICHARDS ST FS W CORDOVA ST","BayNo":"N","City":"VANCOUVER","OnStreet":"RICHARDS ST","AtStreet":"W CORDOVA ST","Latitude":49.284400,"Longitude":-123.111471,"WheelchairAccess":1,"Distance":1686,"Routes":""},{"StopNo":50222,"Name":"NB GRANVILLE ST FS NELSON ST","BayNo":"N","City":"VANCOUVER","OnStreet":"GRANVILLE ST","AtStreet":"NELSON ST","Latitude":49.279629,"Longitude":-123.122292,"WheelchairAccess":1,"Distance":1688,"Routes":"004, 007, 010, 014, 016, 050"},{"StopNo":50415,"Name":"SB CAMBIE ST FS W 16 AVE","BayNo":"N","City":"VANCOUVER","OnStreet":"CAMBIE ST","AtStreet":"W 16 AVE","Latitude":49.256554,"Longitude":-123.115250,"WheelchairAccess":1,"Distance":1689,"Routes":"015, 033, N15"},{"StopNo":58326,"Name":"SB GRANVILLE ST FS ROBSON ST","BayNo":"N","City":"VANCOUVER","OnStreet":"GRANVILLE ST","AtStreet":"SMITHE ST","Latitude":49.280961,"Longitude":-123.120573,"WheelchairAccess":1,"Distance":1697,"Routes":""},{"StopNo":61292,"Name":"SB GRANVILLE ST NS ROBSON ST","BayNo":"N","City":"VANCOUVER","OnStreet":"GRANVILLE ST","AtStreet":"ROBSON ST","Latitude":49.281719,"Longitude":-123.119370,"WheelchairAccess":1,"Distance":1702,"Routes":"004, 007, 010, 014, 016, 050"},{"StopNo":50930,"Name":"EB W HASTINGS ST FS SEYMOUR ST","BayNo":"N","City":"VANCOUVER","OnStreet":"W HASTINGS ST","AtStreet":"SEYMOUR ST","Latitude":49.284332,"Longitude":-123.112549,"WheelchairAccess":1,"Distance":1704,"Routes":"014, 016, 020, N20, N35"},{"StopNo":61293,"Name":"NB GRANVILLE ST NS W GEORGIA ST","BayNo":"N","City":"VANCOUVER","OnStreet":"GRANVILLE ST","AtStreet":"W GEORGIA ST","Latitude":49.282318,"Longitude":-123.118294,"WheelchairAccess":1,"Distance":1706,"Routes":"004, 007, 010, 014, 016, 017, 020, 050"},{"StopNo":50844,"Name":"NB FRASER ST FS E 14 AVE","BayNo":"N","City":"VANCOUVER","OnStreet":"FRASER ST","AtStreet":"E 14 AVE","Latitude":49.258293,"Longitude":-123.089096,"WheelchairAccess":1,"Distance":1706,"Routes":"008, N8"},{"StopNo":50918,"Name":"WB E BROADWAY FS WINDSOR ST","BayNo":"N","City":"VANCOUVER","OnStreet":"E BROADWAY","AtStreet":"WINDSOR ST","Latitude":49.262531,"Longitude":-123.083725,"WheelchairAccess":1,"Distance":1709,"Routes":"009, N9"},{"StopNo":50532,"Name":"SB GRANVILLE ST NS NELSON ST","BayNo":"","City":"VANCOUVER","OnStreet":"GRANVILLE ST","AtStreet":"NELSON ST","Latitude":49.279411,"Longitude":-123.122948,"WheelchairAccess":1,"Distance":1710,"Routes":"004, 007, 010, 014, 016, 050"},{"StopNo":50852,"Name":"WB W HASTINGS ST FS RICHARDS ST","BayNo":"N","City":"VANCOUVER","OnStreet":"W HASTINGS ST","AtStreet":"RICHARDS ST","Latitude":49.284439,"Longitude":-123.112381,"WheelchairAccess":1,"Distance":1711,"Routes":"003, 008, 014, 016, N20"},{"StopNo":61364,"Name":"VANCOUVER CITY CENTRE STATION PLATFORM 1","BayNo":"N","City":"VANCOUVER","OnStreet":"VANCOUVER CITY CENTRE STATION","AtStreet":"PLATFORM 1","Latitude":49.282410,"Longitude":-123.118324,"WheelchairAccess":0,"Distance":1715,"Routes":"980"},{"StopNo":51361,"Name":"WB VENABLES ST FS RAYMUR AVE","BayNo":"N","City":"VANCOUVER","OnStreet":"VENABLES ST","AtStreet":"RAYMUR AVE","Latitude":49.276875,"Longitude":-123.083153,"WheelchairAccess":1,"Distance":1718,"Routes":"022"},{"StopNo":50533,"Name":"SB GRANVILLE ST FS NELSON ST","BayNo":"N","City":"VANCOUVER","OnStreet":"GRANVILLE ST","AtStreet":"NELSON ST","Latitude":49.278877,"Longitude":-123.123712,"WheelchairAccess":1,"Distance":1719,"Routes":""},{"StopNo":60980,"Name":"SB GRANVILLE ST NS W GEORGIA ST","BayNo":"N","City":"VANCOUVER","OnStreet":"GRANVILLE ST","AtStreet":"W GEORGIA ST","Latitude":49.282661,"Longitude":-123.117950,"WheelchairAccess":1,"Distance":1722,"Routes":"004, 007, 010, 014, 016, 050"},{"StopNo":61363,"Name":"VANCOUVER CITY CENTRE STATION PLATFORM 2","BayNo":"N","City":"VANCOUVER","OnStreet":"VANCOUVER CITY CENTRE STATION","AtStreet":"PLATFORM 2","Latitude":49.282482,"Longitude":-123.118416,"WheelchairAccess":0,"Distance":1726,"Routes":"980"},{"StopNo":59440,"Name":"EB W BROADWAY FS OAK ST ","BayNo":"N","City":"VANCOUVER","OnStreet":"W BROADWAY","AtStreet":"OAK ST","Latitude":49.263283,"Longitude":-123.125870,"WheelchairAccess":1,"Distance":1731,"Routes":"009, N9"},{"StopNo":60336,"Name":"EB E CORDOVA ST FS HEATLEY AVE","BayNo":"N","City":"VANCOUVER","OnStreet":"E CORDOVA ST","AtStreet":"HEATLEY AVE","Latitude":49.282021,"Longitude":-123.089073,"WheelchairAccess":1,"Distance":1738,"Routes":"004, 007, 209"},{"StopNo":50504,"Name":"WB E HASTINGS ST FS HAWKS AVE","BayNo":"N","City":"VANCOUVER","OnStreet":"E HASTINGS ST","AtStreet":"HAWKS AVE","Latitude":49.281200,"Longitude":-123.087669,"WheelchairAccess":1,"Distance":1738,"Routes":"014, 016, 020, N20, N35"},{"StopNo":50035,"Name":"WATERFRONT STN BAY 3","BayNo":"3","City":"VANCOUVER","OnStreet":"WATERFRONT STN","AtStreet":"BAY 3","Latitude":49.284950,"Longitude":-123.111397,"WheelchairAccess":1,"Distance":1742,"Routes":"003, 004, 007, 008, 010, 050, N8"},{"StopNo":60993,"Name":"NB GRANVILLE ST NS DUNSMUIR ST","BayNo":"N","City":"VANCOUVER","OnStreet":"GRANVILLE ST","AtStreet":"DUNSMUIR ST","Latitude":49.283463,"Longitude":-123.116547,"WheelchairAccess":1,"Distance":1742,"Routes":"004, 007, 010, 014, 016, 017, 020, 050"},{"StopNo":50220,"Name":"NB GRANVILLE ST FS DAVIE ST","BayNo":"N","City":"VANCOUVER","OnStreet":"GRANVILLE ST","AtStreet":"DAVIE ST","Latitude":49.277584,"Longitude":-123.125374,"WheelchairAccess":1,"Distance":1745,"Routes":"004, 007, 010, 014, 016, 050"},{"StopNo":50976,"Name":"EB W GEORGIA ST NS GRANVILLE ST","BayNo":"N","City":"VANCOUVER","OnStreet":"W GEORGIA ST","AtStreet":"GRANVILLE ST","Latitude":49.282639,"Longitude":-123.118530,"WheelchairAccess":1,"Distance":1745,"Routes":"240, 241, 246, 247, 250, 253, 254, 257, N22"},{"StopNo":60116,"Name":"EB DAVIE ST FS GRANVILLE ST","BayNo":"N","City":"VANCOUVER","OnStreet":"DAVIE ST","AtStreet":"GRANVILLE ST","Latitude":49.276924,"Longitude":-123.125992,"WheelchairAccess":1,"Distance":1751,"Routes":"006"},{"StopNo":58138,"Name":"EB ROBSON ST FS HOWE ST","BayNo":"N","City":"VANCOUVER","OnStreet":"ROBSON ST","AtStreet":"HOWE ST","Latitude":49.281700,"Longitude":-123.120480,"WheelchairAccess":1,"Distance":1753,"Routes":""},{"StopNo":50408,"Name":"NB SEYMOUR ST FS W HASTINGS ST","BayNo":"N","City":"VANCOUVER","OnStreet":"SEYMOUR ST","AtStreet":"W HASTINGS ST","Latitude":49.284810,"Longitude":-123.112535,"WheelchairAccess":1,"Distance":1754,"Routes":""},{"StopNo":58307,"Name":"SB MAIN ST FS E 18 AVE","BayNo":"N","City":"VANCOUVER","OnStreet":"MAIN ST","AtStreet":"E 18 AVE","Latitude":49.254337,"Longitude":-123.100960,"WheelchairAccess":1,"Distance":1756,"Routes":"003"},{"StopNo":61031,"Name":"WB W GEORGIA ST FS GRANVILLE ST","BayNo":"N","City":"VANCOUVER","OnStreet":"W GEORGIA ST","AtStreet":"GRANVILLE ST","Latitude":49.282879,"Longitude":-123.118524,"WheelchairAccess":1,"Distance":1766,"Routes":""},{"StopNo":51197,"Name":"WB KINGSWAY FS FRASER ST","BayNo":"N","City":"VANCOUVER","OnStreet":"KINGSWAY","AtStreet":"FRASER ST","Latitude":49.257027,"Longitude":-123.090225,"WheelchairAccess":1,"Distance":1767,"Routes":"019, N19"},{"StopNo":60414,"Name":"EB W 12 AVE FS LAUREL ST","BayNo":"60414","City":"VANCOUVER","OnStreet":"W 12TH AVE","AtStreet":"LAUREL ST","Latitude":49.260471,"Longitude":-123.123917,"WheelchairAccess":1,"Distance":1771,"Routes":"017"},{"StopNo":60165,"Name":"NB SEYMOUR ST NS W CORDOVA ST","BayNo":"N","City":"VANCOUVER","OnStreet":"SEYMOUR ST","AtStreet":"W CORDOVA ST","Latitude":49.285130,"Longitude":-123.112020,"WheelchairAccess":1,"Distance":1775,"Routes":""},{"StopNo":50938,"Name":"EB E HASTINGS ST FS HAWKS AVE","BayNo":"N","City":"VANCOUVER","OnStreet":"E HASTINGS ST","AtStreet":"HAWKS AVE","Latitude":49.281006,"Longitude":-123.086655,"WheelchairAccess":1,"Distance":1775,"Routes":"014, 016, 020, N20, N35"},{"StopNo":60227,"Name":"WB VENABLES ST NS RAYMUR AVE","BayNo":"","City":"VANCOUVER","OnStreet":"VENABLES ST","AtStreet":"RAYMUR AVE","Latitude":49.276883,"Longitude":-123.082278,"WheelchairAccess":1,"Distance":1775,"Routes":""},{"StopNo":50526,"Name":"SB GRANVILLE ST FS W PENDER ST","BayNo":"N","City":"VANCOUVER","OnStreet":"GRANVILLE ST","AtStreet":"W PENDER ST","Latitude":49.284039,"Longitude":-123.115936,"WheelchairAccess":1,"Distance":1776,"Routes":"004, 007, 010, 014, 016, 050"},{"StopNo":50096,"Name":"WB W PENDER ST NS GRANVILLE ST","BayNo":"N","City":"VANCOUVER","OnStreet":"W PENDER ST","AtStreet":"GRANVILLE ST","Latitude":49.284576,"Longitude":-123.114594,"WheelchairAccess":1,"Distance":1786,"Routes":"005, 007, 019, 022, 209, 210, 211, 214, N19, N22, N24"},{"StopNo":58313,"Name":"NB GRANVILLE ST NS W PENDER ST","BayNo":"N","City":"VANCOUVER","OnStreet":"GRANVILLE ST","AtStreet":"W PENDER ST","Latitude":49.284492,"Longitude":-123.114990,"WheelchairAccess":1,"Distance":1790,"Routes":"004, 007, 010, 014, 016, 017, 020, 050"},{"StopNo":50514,"Name":"WB POWELL ST FS HEATLEY AVE","BayNo":"N","City":"VANCOUVER","OnStreet":"POWELL ST","AtStreet":"HEATLEY AVE","Latitude":49.283077,"Longitude":-123.089943,"WheelchairAccess":1,"Distance":1792,"Routes":"004, 007, 209"},{"StopNo":50330,"Name":"SB OAK ST FS W BROADWAY","BayNo":"N","City":"VANCOUVER","OnStreet":"OAK ST","AtStreet":"W BROADWAY","Latitude":49.263054,"Longitude":-123.126731,"WheelchairAccess":1,"Distance":1798,"Routes":""},{"StopNo":50409,"Name":"EB W CORDOVA ST NS SEYMOUR ST","BayNo":"N","City":"VANCOUVER","OnStreet":"W CORDOVA ST","AtStreet":"SEYMOUR ST","Latitude":49.285360,"Longitude":-123.112110,"WheelchairAccess":1,"Distance":1801,"Routes":""},{"StopNo":54831,"Name":"SB HOWE ST FS ROBSON ST","BayNo":"N","City":"VANCOUVER","OnStreet":"HOWE ST","AtStreet":"ROBSON ST","Latitude":49.281830,"Longitude":-123.121239,"WheelchairAccess":1,"Distance":1801,"Routes":"N10, N17, N9"},{"StopNo":59412,"Name":"NB OAK ST FS W 10 AVE","BayNo":"N","City":"VANCOUVER","OnStreet":"OAK ST","AtStreet":"W 10 AVE","Latitude":49.262652,"Longitude":-123.126500,"WheelchairAccess":0,"Distance":1803,"Routes":""},{"StopNo":60415,"Name":"WB W 12 AVE FS LAUREL ST","BayNo":"60415","City":"VANCOUVER","OnStreet":"W 12TH AVE","AtStreet":"LAUREL ST","Latitude":49.260620,"Longitude":-123.124664,"WheelchairAccess":1,"Distance":1805,"Routes":"017"},{"StopNo":50025,"Name":"WB DAVIE ST FS GRANVILLE ST","BayNo":"N","City":"VANCOUVER","OnStreet":"DAVIE ST","AtStreet":"GRANVILLE ST","Latitude":49.277435,"Longitude":-123.126511,"WheelchairAccess":1,"Distance":1810,"Routes":"006"},{"StopNo":54830,"Name":"SB HOWE ST FS W GEORGIA ST","BayNo":"N","City":"VANCOUVER","OnStreet":"HOWE ST","AtStreet":"W GEORGIA ST","Latitude":49.282906,"Longitude":-123.119598,"WheelchairAccess":1,"Distance":1815,"Routes":"N10, N15, N17, N19, N20, N35, N8, N9"},{"StopNo":54832,"Name":"SB HOWE ST FS NELSON ST","BayNo":"N","City":"VANCOUVER","OnStreet":"HOWE ST","AtStreet":"NELSON ST","Latitude":49.279697,"Longitude":-123.124451,"WheelchairAccess":1,"Distance":1816,"Routes":"N10, N17, N9"},{"StopNo":58204,"Name":"EB W PENDER ST NS GRANVILLE ST--","BayNo":"N","City":"VANCOUVER","OnStreet":"W PENDER ST","AtStreet":"GRANVILLE ST","Latitude":49.284740,"Longitude":-123.115170,"WheelchairAccess":1,"Distance":1820,"Routes":""},{"StopNo":50478,"Name":"NB CAMBIE ST FS W 18 AVE","BayNo":"N","City":"VANCOUVER","OnStreet":"CAMBIE ST","AtStreet":"W 18 AVE","Latitude":49.255123,"Longitude":-123.115021,"WheelchairAccess":1,"Distance":1824,"Routes":"015, 033, N15"},{"StopNo":50040,"Name":"WATERFRONT STN BAY 2","BayNo":"2","City":"VANCOUVER","OnStreet":"WATERFRONT STN","AtStreet":"BAY 2","Latitude":49.285603,"Longitude":-123.111984,"WheelchairAccess":1,"Distance":1824,"Routes":"050"},{"StopNo":50978,"Name":"WB W HASTINGS ST NS GRANVILLE ST","BayNo":"N","City":"VANCOUVER","OnStreet":"W HASTINGS ST","AtStreet":"GRANVILLE ST","Latitude":49.285240,"Longitude":-123.113586,"WheelchairAccess":1,"Distance":1825,"Routes":"R5"},{"StopNo":60266,"Name":"NB OAK ST NS W 10 AVE","BayNo":"N","City":"VANCOUVER","OnStreet":"OAK ST","AtStreet":"W 10 AVE","Latitude":49.262225,"Longitude":-123.126530,"WheelchairAccess":1,"Distance":1826,"Routes":""},{"StopNo":50077,"Name":"EB W PENDER ST NS GRANVILLE ST","BayNo":"N","City":"VANCOUVER","OnStreet":"W PENDER ST","AtStreet":"GRANVILLE ST","Latitude":49.284790,"Longitude":-123.115234,"WheelchairAccess":1,"Distance":1827,"Routes":"005, 019, 022, 209, 210, 211, 214, N24"},{"StopNo":61925,"Name":"WATERFRONT STATION ALL LINES","BayNo":"N","City":"VANCOUVER","OnStreet":"SKYTRAIN","AtStreet":"WATERFRONT STATION","Latitude":49.285687,"Longitude":-123.111773,"WheelchairAccess":1,"Distance":1829,"Routes":""},{"StopNo":61394,"Name":"WATERFRONT STATION CANADA LINE","BayNo":"N","City":"VANCOUVER","OnStreet":"WATERFRONT STATION","AtStreet":"CANADA LINE","Latitude":49.285210,"Longitude":-123.114021,"WheelchairAccess":0,"Distance":1834,"Routes":"980"},{"StopNo":61393,"Name":"WATERFRONT STATION CANADA LINE PLATFORM 2","BayNo":"N","City":"VANCOUVER","OnStreet":"WATERFRONT STATION CANADA LINE","AtStreet":"PLATFORM 2","Latitude":49.285244,"Longitude":-123.114075,"WheelchairAccess":0,"Distance":1839,"Routes":"980"},{"StopNo":60267,"Name":"SB OAK ST FS W 10 AVE","BayNo":"N","City":"VANCOUVER","OnStreet":"OAK ST","AtStreet":"W 10 AVE","Latitude":49.262196,"Longitude":-123.126721,"WheelchairAccess":1,"Distance":1840,"Routes":""},{"StopNo":57964,"Name":"WATERFRONT STATION PLATFORM 2","BayNo":"N","City":"VANCOUVER","OnStreet":"WATERFRONT STATION","AtStreet":"PLATFORM 2","Latitude":49.285908,"Longitude":-123.111580,"WheelchairAccess":0,"Distance":1848,"Routes":"992"},{"StopNo":58321,"Name":"SB HOWE ST FS DUNSMUIR ST BAY 4","BayNo":"4","City":"VANCOUVER","OnStreet":"HOWE ST","AtStreet":"DUNSMUIR ST","Latitude":49.284054,"Longitude":-123.117882,"WheelchairAccess":1,"Distance":1849,"Routes":"007"},{"StopNo":61122,"Name":"WB W 16 AVE FS HEATHER ST","BayNo":"N","City":"VANCOUVER","OnStreet":"W 16 AVE","AtStreet":"HEATHER ST","Latitude":49.257061,"Longitude":-123.120453,"WheelchairAccess":1,"Distance":1852,"Routes":"033"},{"StopNo":58003,"Name":"WATERFRONT STATION PLATFORM 1","BayNo":"N","City":"VANCOUVER","OnStreet":"WATERFRONT STATION","AtStreet":"PLATFORM 1","Latitude":49.285961,"Longitude":-123.111519,"WheelchairAccess":0,"Distance":1852,"Routes":"992"},{"StopNo":50034,"Name":"NB GRANVILLE ST FS W HASTINGS ST","BayNo":"N","City":"VANCOUVER","OnStreet":"GRANVILLE ST","AtStreet":"W HASTINGS ST","Latitude":49.285553,"Longitude":-123.113350,"WheelchairAccess":1,"Distance":1852,"Routes":"004, 007, 010, 050"},{"StopNo":61933,"Name":"EB CORDOVA DIVERSION FS HAWKS AVE","BayNo":"N","City":"VANCOUVER","OnStreet":"CORDOVA DIVERSION","AtStreet":"HAWKS AVE","Latitude":49.282051,"Longitude":-123.086716,"WheelchairAccess":1,"Distance":1854,"Routes":"004, 007, 209"},{"StopNo":61692,"Name":"WB W CORDOVA ST NS GRANVILLE ST-","BayNo":"N","City":"VANCOUVER","OnStreet":"W CORDOVA ST","AtStreet":"GRANVILLE ST","Latitude":49.285820,"Longitude":-123.112380,"WheelchairAccess":1,"Distance":1856,"Routes":""},{"StopNo":50778,"Name":"SB FRASER ST FS E 16 AVE","BayNo":"N","City":"VANCOUVER","OnStreet":"FRASER ST","AtStreet":"E 16 AVE","Latitude":49.256111,"Longitude":-123.090057,"WheelchairAccess":1,"Distance":1857,"Routes":"008, N8"},{"StopNo":57960,"Name":"WATERFRONT STN SEABUS NORTHBOUND","BayNo":"N","City":"VANCOUVER","OnStreet":"SEABUS STATION","AtStreet":"WATERFRONT STN","Latitude":49.286064,"Longitude":-123.111305,"WheelchairAccess":0,"Distance":1859,"Routes":"998"},{"StopNo":50503,"Name":"WB E HASTINGS ST FS CAMPBELL AVE","BayNo":"N","City":"VANCOUVER","OnStreet":"E HASTINGS ST","AtStreet":"CAMPBELL AVE","Latitude":49.281155,"Longitude":-123.085251,"WheelchairAccess":1,"Distance":1861,"Routes":"014, 016, 020, N20, N35"},{"StopNo":57944,"Name":"WATERFRONT STATION WEST COAST EXPRESS","BayNo":"N","City":"VANCOUVER","OnStreet":"WEST COAST EXPRESS","AtStreet":"WATERFRONT STATION","Latitude":49.286053,"Longitude":-123.111580,"WheelchairAccess":0,"Distance":1864,"Routes":"WCE"},{"StopNo":51374,"Name":"EB W HASTINGS ST NS GRANVILLE ST","BayNo":"N","City":"VANCOUVER","OnStreet":"W HASTINGS ST","AtStreet":"GRANVILLE ST","Latitude":49.285446,"Longitude":-123.114250,"WheelchairAccess":1,"Distance":1865,"Routes":"R5"},{"StopNo":58202,"Name":"WATERFRONT STN BAY 1","BayNo":"1","City":"VANCOUVER","OnStreet":"WATERFRONT STN","AtStreet":"BAY 1","Latitude":49.285898,"Longitude":-123.112474,"WheelchairAccess":1,"Distance":1867,"Routes":""},{"StopNo":61917,"Name":"WB W PENDER ST NS HOWE ST BAY 1","BayNo":"1","City":"VANCOUVER","OnStreet":"W PENDER ST","AtStreet":"HOWE ST","Latitude":49.285130,"Longitude":-123.115433,"WheelchairAccess":1,"Distance":1868,"Routes":"N22, N35, N8"},{"StopNo":59832,"Name":"SB HOWE ST NS DUNSMUIR ST BAY 3","BayNo":"3","City":"VANCOUVER","OnStreet":"HOWE ST","AtStreet":"DUNSMUIR ST","Latitude":49.284576,"Longitude":-123.117065,"WheelchairAccess":1,"Distance":1868,"Routes":"N15, N19, N20, N24"},{"StopNo":57963,"Name":"WATERFRONT STN SEABUS SOUTHBOUND","BayNo":"N","City":"VANCOUVER","OnStreet":"SEABUS STATION","AtStreet":"WATERFRONT STN","Latitude":49.286137,"Longitude":-123.111404,"WheelchairAccess":0,"Distance":1869,"Routes":"998"},{"StopNo":57959,"Name":"WATERFRONT STN WEST UNLOAD ONLY","BayNo":"N","City":"VANCOUVER","OnStreet":"WEST COAST EXPRESS","AtStreet":"WATERFRONT STN","Latitude":49.286118,"Longitude":-123.111511,"WheelchairAccess":0,"Distance":1869,"Routes":"WCE"},{"StopNo":50416,"Name":"SB CAMBIE ST FS W 18 AVE","BayNo":"N","City":"VANCOUVER","OnStreet":"CAMBIE ST","AtStreet":"W 18 AVE","Latitude":49.254673,"Longitude":-123.115280,"WheelchairAccess":1,"Distance":1878,"Routes":"015, 033, N15"},{"StopNo":54828,"Name":"SB HOWE ST FS W PENDER ST UNLOADING","BayNo":"N","City":"VANCOUVER","OnStreet":"HOWE ST","AtStreet":"W PENDER ST","Latitude":49.284790,"Longitude":-123.116768,"WheelchairAccess":1,"Distance":1878,"Routes":"209, 210, 211, 214"},{"StopNo":59836,"Name":"NB MAIN ST FS E 20 AVE","BayNo":"N","City":"VANCOUVER","OnStreet":"MAIN ST","AtStreet":"E 20 AVE","Latitude":49.253227,"Longitude":-123.100761,"WheelchairAccess":1,"Distance":1880,"Routes":"003"},{"StopNo":59831,"Name":"SB HOWE ST FS W PENDER ST BAY 2","BayNo":"2","City":"VANCOUVER","OnStreet":"HOWE ST","AtStreet":"W PENDER ST","Latitude":49.285049,"Longitude":-123.116341,"WheelchairAccess":1,"Distance":1889,"Routes":""},{"StopNo":51138,"Name":"EB KINGSWAY FS FRASER ST","BayNo":"N","City":"VANCOUVER","OnStreet":"KINGSWAY","AtStreet":"FRASER ST","Latitude":49.256214,"Longitude":-123.089020,"WheelchairAccess":1,"Distance":1891,"Routes":"019, N19"},{"StopNo":50513,"Name":"WB POWELL ST FS HAWKS AVE","BayNo":"N","City":"VANCOUVER","OnStreet":"POWELL ST","AtStreet":"HAWKS AVE","Latitude":49.283031,"Longitude":-123.087524,"WheelchairAccess":1,"Distance":1896,"Routes":"004, 007, 209"},{"StopNo":60413,"Name":"EB W 12 AVE FS OAK ST","BayNo":"60413","City":"VANCOUVER","OnStreet":"W 12 AVE","AtStreet":"OAK ST","Latitude":49.260483,"Longitude":-123.126038,"WheelchairAccess":1,"Distance":1896,"Routes":"017"},{"StopNo":57893,"Name":"WATERFRONT STN WEST COAST EXPRESS","BayNo":"N","City":"VANCOUVER","OnStreet":"WATERFRONT STATION","AtStreet":"WEST COAST EXPRESS","Latitude":49.286499,"Longitude":-123.111000,"WheelchairAccess":-1,"Distance":1900,"Routes":"WCE"},{"StopNo":50843,"Name":"NB FRASER ST FS E 17 AVE","BayNo":"N","City":"VANCOUVER","OnStreet":"FRASER ST","AtStreet":"E 17 AVE","Latitude":49.255775,"Longitude":-123.089737,"WheelchairAccess":1,"Distance":1901,"Routes":"008, N8"},{"StopNo":50461,"Name":"NB OAK ST FS W 12 AVE","BayNo":"N","City":"VANCOUVER","OnStreet":"OAK ST","AtStreet":"W 12 AVE","Latitude":49.260924,"Longitude":-123.126566,"WheelchairAccess":1,"Distance":1901,"Routes":""},{"StopNo":50939,"Name":"EB E HASTINGS ST FS CAMPBELL AVE","BayNo":"N","City":"VANCOUVER","OnStreet":"E HASTINGS ST","AtStreet":"CAMPBELL AVE","Latitude":49.280956,"Longitude":-123.084229,"WheelchairAccess":1,"Distance":1902,"Routes":"014, 016, 020, N20, N35"},{"StopNo":56469,"Name":"SB HOWE ST NS W PENDER ST BAY 1","BayNo":"1","City":"VANCOUVER","OnStreet":"HOWE ST","AtStreet":"W PENDER ST","Latitude":49.285450,"Longitude":-123.115710,"WheelchairAccess":1,"Distance":1908,"Routes":""},{"StopNo":61097,"Name":"EB W 16 AVE FS WILLOW ST","BayNo":"N","City":"VANCOUVER","OnStreet":"W 16 AVE","AtStreet":"WILLOW ST","Latitude":49.256969,"Longitude":-123.121574,"WheelchairAccess":1,"Distance":1912,"Routes":"033"},{"StopNo":50097,"Name":"WB W PENDER ST FS HOWE ST","BayNo":"N","City":"VANCOUVER","OnStreet":"W PENDER ST","AtStreet":"HOWE ST","Latitude":49.285522,"Longitude":-123.116058,"WheelchairAccess":1,"Distance":1927,"Routes":"005, 019, 022"},{"StopNo":50623,"Name":"WB ROBSON ST FS HORNBY ST","BayNo":"N","City":"VANCOUVER","OnStreet":"ROBSON ST","AtStreet":"HORNBY ST","Latitude":49.282920,"Longitude":-123.122050,"WheelchairAccess":1,"Distance":1930,"Routes":""},{"StopNo":50428,"Name":"EB E CORDOVA ST NS POWELL ST","BayNo":"N","City":"VANCOUVER","OnStreet":"E CORDOVA ST","AtStreet":"POWELL ST","Latitude":49.282440,"Longitude":-123.085490,"WheelchairAccess":0,"Distance":1947,"Routes":""},{"StopNo":50616,"Name":"EB ROBSON ST FS BURRARD ST","BayNo":"N","City":"VANCOUVER","OnStreet":"ROBSON ST","AtStreet":"BURRARD ST","Latitude":49.282960,"Longitude":-123.122430,"WheelchairAccess":0,"Distance":1951,"Routes":""},{"StopNo":50331,"Name":"SB OAK ST FS W 12 AVE","BayNo":"N","City":"VANCOUVER","OnStreet":"OAK ST","AtStreet":"W 12 AVE","Latitude":49.260307,"Longitude":-123.126816,"WheelchairAccess":1,"Distance":1954,"Routes":"017"},{"StopNo":58750,"Name":"EB W GEORGIA ST FS BURRARD ST--","BayNo":"N","City":"VANCOUVER","OnStreet":"W GEORGIA ST","AtStreet":"BURRARD ST","Latitude":49.284016,"Longitude":-123.120674,"WheelchairAccess":1,"Distance":1960,"Routes":"257"},{"StopNo":50244,"Name":"SB MAIN ST FS E 20 AVE","BayNo":"N","City":"VANCOUVER","OnStreet":"MAIN ST","AtStreet":"E 20 AVE","Latitude":49.252396,"Longitude":-123.101097,"WheelchairAccess":1,"Distance":1969,"Routes":"003"},{"StopNo":50975,"Name":"EB W GEORGIA ST FS BURRARD ST-","BayNo":"N","City":"VANCOUVER","OnStreet":"W GEORGIA ST","AtStreet":"BURRARD ST","Latitude":49.284130,"Longitude":-123.120872,"WheelchairAccess":1,"Distance":1979,"Routes":"240, 241, 246, 247, 250, 253, 254, N24"},{"StopNo":60269,"Name":"NB BURRARD ST FS SMITHE ST","BayNo":"N","City":"VANCOUVER","OnStreet":"BURRARD ST","AtStreet":"SMITHE ST","Latitude":49.282360,"Longitude":-123.124016,"WheelchairAccess":1,"Distance":1984,"Routes":"002, N22"},{"StopNo":50030,"Name":"NB BURRARD ST FS ROBSON ST","BayNo":"N","City":"VANCOUVER","OnStreet":"BURRARD ST","AtStreet":"ROBSON ST","Latitude":49.283592,"Longitude":-123.122139,"WheelchairAccess":1,"Distance":1990,"Routes":"002, 005, N22"},{"StopNo":50029,"Name":"NB BURRARD ST FS NELSON ST","BayNo":"N","City":"VANCOUVER","OnStreet":"BURRARD ST","AtStreet":"NELSON ST","Latitude":49.281364,"Longitude":-123.125521,"WheelchairAccess":1,"Distance":1992,"Routes":""}]