{
   "html_attributions" : [],
   "results" : [
      {
         "business_status" : "OPERATIONAL",
         "geometry" : {
            "location" : {
               "lat" : 53.5952586,
               "lng" : -113.4148063
            },
            "viewport" : {
               "northeast" : {
                  "lat" : 53.5966310802915,
                  "lng" : -113.4136582197085
               },
               "southwest" : {
                  "lat" : 53.5939331197085,
                  "lng" : -113.4163561802915
               }
            }
         },
         "icon" : "https://maps.gstatic.com/mapfiles/place_api/icons/v1/png_71/bank-71.png",
         "name" : "CIBC Branch with ATM",
         "opening_hours" : {
            "open_now" : false
         },
         "photos" : [
            {
               "height" : 3120,
               "html_attributions" : [
                  "\u003ca href=\"https://maps.google.com/maps/contrib/112302593163367644303\"\u003eNichole MacLeod\u003c/a\u003e"
               ],
               "photo_reference" : "ATtYBwJZBmwR19BymGl9jvx54Uo353kQOqZMNJ-_kxTByAwmNSBSiuHuDm5FR85Ua10R3X7TnZF6liNNiQp3EsMOiRyVBcmmNMdvzcgrScz7Zqf45cuFjUogMjhfS03DkR8hSUiEOT_QROTVsGx6MOQCSvD9-prIdF9e8Y3EdF_4yzWpBLpL",
               "width" : 4160
            }
         ],
         "place_id" : "ChIJ9xYM5Lg8oFMRjHBA_iUh41s",
         "plus_code" : {
            "compound_code" : "HHWP+43 Edmonton, AB, Canada",
            "global_code" : "9558HHWP+43"
         },
         "rating" : 1.7,
         "reference" : "ChIJ9xYM5Lg8oFMRjHBA_iUh41s",
         "scope" : "GOOGLE",
         "types" : [ "bank", "finance", "point_of_interest", "establishment" ],
         "user_ratings_total" : 82,
         "vicinity" : "13610 50 Street Northwest, Edmonton"
      },
      {
         "business_status" : "OPERATIONAL",
         "geometry" : {
            "location" : {
               "lat" : 53.5941321,
               "lng" : -113.4155861
            },
            "viewport" : {
               "northeast" : {
                  "lat" : 53.5954049302915,
                  "lng" : -113.4142897697085
               },
               "southwest" : {
                  "lat" : 53.5927069697085,
                  "lng" : -113.4169877302915
               }
            }
         },
         "icon" : "https://maps.gstatic.com/mapfiles/place_api/icons/v1/png_71/bank-71.png",
         "name" : "TD Canada Trust Branch and ATM",
         "opening_hours" : {
            "open_now" : false
         },
         "photos" : [
            {
               "height" : 3024,
               "html_attributions" : [
                  "\u003ca href=\"https://maps.google.com/maps/contrib/105933608664583953071\"\u003eLevko\u003c/a\u003e"
               ],
               "photo_reference" : "ATtYBwIbwxt5v8CxhPQlu4xEtOszFLsVVPpRC9ZIGE6HZe0icM9fB2wu7s-1wdztT4jLyjJzMDfBI96FJZzfdxcCcjE5phnNceCwA3BLoeNbTkOeLULmHgk-sxUwu74mhjhsspKS_0N3YkrnMA-pTbSfS6v0pkCs6V19OdoUMwfU0HVYe5Iy",
               "width" : 4032
            }
         ],
         "place_id" : "ChIJ0atS8bg8oFMRG8HMfzb1LHQ",
         "plus_code" : {
            "compound_code" : "HHVM+MQ Edmonton, AB, Canada",
            "global_code" : "9558HHVM+MQ"
         },
         "rating" : 2.9,
         "reference" : "ChIJ0atS8bg8oFMRG8HMfzb1LHQ",
         "scope" : "GOOGLE",
         "types" : [ "bank", "atm", "finance", "point_of_interest", "establishment" ],
         "user_ratings_total" : 74,
         "vicinity" : "13318 50 Street Northwest, Edmonton"
      },
      {
         "business_status" : "OPERATIONAL",
         "geometry" : {
            "location" : {
               "lat" : 53.5873514,
               "lng" : -113.4249264
            },
            "viewport" : {
               "northeast" : {
                  "lat" : 53.58883238029149,
                  "lng" : -113.4235784697085
               },
               "southwest" : {
                  "lat" : 53.58613441970849,
                  "lng" : -113.4262764302915
               }
            }
         },
         "icon" : "https://maps.gstatic.com/mapfiles/place_api/icons/v1/png_71/bank-71.png",
         "name" : "Leston Holdings Ltd",
         "opening_hours" : {
            "open_now" : false
         },
         "place_id" : "ChIJSdYGvcs8oFMRRAi_bZ6kBPk",
         "plus_code" : {
            "compound_code" : "HHPG+W2 Edmonton, AB, Canada",
            "global_code" : "9558HHPG+W2"
         },
         "reference" : "ChIJSdYGvcs8oFMRRAi_bZ6kBPk",
         "scope" : "GOOGLE",
         "types" : [ "bank", "finance", "point_of_interest", "establishment" ],
         "vicinity" : "5405 129 Avenue Northwest, Edmonton"
      },
      {
         "business_status" : "OPERATIONAL",
         "geometry" : {
            "location" : {
               "lat" : 53.6030104,
               "lng" : -113.4448525
            },
            "viewport" : {
               "northeast" : {
                  "lat" : 53.6044223302915,
                  "lng" : -113.4432150697085
               },
               "southwest" : {
                  "lat" : 53.6017243697085,
                  "lng" : -113.4459130302915
               }
            }
         },
         "icon" : "https://maps.gstatic.com/mapfiles/place_api/icons/v1/png_71/bank-71.png",
         "name" : "TD Canada Trust Branch and ATM",
         "opening_hours" : {
            "open_now" : false
         },
         "photos" : [
            {
               "height" : 1080,
               "html_attributions" : [
                  "\u003ca href=\"https://maps.google.com/maps/contrib/111365589568244997889\"\u003eB D\u003c/a\u003e"
               ],
               "photo_reference" : "ATtYBwILsYs1TT--dq8HGbnv-vRh8_9lIdE6Ieg5ZNOUEfORZZQRN4yJrH5uh4D4trLix22FVQXo_K9a5mAwixiqdIXpIAbdTVFJ9-cenyuoA-734tdYfAna3C5kpYVzn6xoF4oTvBXC0AE__xmu1OZAPW1llCNw36qlIRp17-m9O7ZYoMMV",
               "width" : 1920
            }
         ],
         "place_id" : "ChIJWd6KNFMjoFMRTT6nxDTmW4Q",
         "plus_code" : {
            "compound_code" : "JH34+63 Edmonton, AB, Canada",
            "global_code" : "9558JH34+63"
         },
         "rating" : 3.2,
         "reference" : "ChIJWd6KNFMjoFMRTT6nxDTmW4Q",
         "scope" : "GOOGLE",
         "types" : [ "bank", "atm", "finance", "point_of_interest", "establishment" ],
         "user_ratings_total" : 43,
         "vicinity" : "36 Londonderry Mall, Edmonton"
      },
      {
         "business_status" : "OPERATIONAL",
         "geometry" : {
            "location" : {
               "lat" : 53.5975159,
               "lng" : -113.4210965
            },
            "viewport" : {
               "northeast" : {
                  "lat" : 53.5987646802915,
                  "lng" : -113.4198895197085
               },
               "southwest" : {
                  "lat" : 53.5960667197085,
                  "lng" : -113.4225874802915
               }
            }
         },
         "icon" : "https://maps.gstatic.com/mapfiles/place_api/icons/v1/png_71/bank-71.png",
         "name" : "Rycor Holdings Ltd",
         "place_id" : "ChIJI8GlUbc8oFMRSJqUcL0MYO4",
         "plus_code" : {
            "compound_code" : "HHXH+2H Edmonton, AB, Canada",
            "global_code" : "9558HHXH+2H"
         },
         "reference" : "ChIJI8GlUbc8oFMRSJqUcL0MYO4",
         "scope" : "GOOGLE",
         "types" : [ "bank", "finance", "point_of_interest", "establishment" ],
         "vicinity" : "5480 136 Avenue Northwest, Edmonton"
      },
      {
         "business_status" : "OPERATIONAL",
         "geometry" : {
            "location" : {
               "lat" : 53.5999286,
               "lng" : -113.4216981
            },
            "viewport" : {
               "northeast" : {
                  "lat" : 53.6013465802915,
                  "lng" : -113.4205263197085
               },
               "southwest" : {
                  "lat" : 53.5986486197085,
                  "lng" : -113.4232242802915
               }
            }
         },
         "icon" : "https://maps.gstatic.com/mapfiles/place_api/icons/v1/png_71/bank-71.png",
         "name" : "ATB Financial",
         "opening_hours" : {
            "open_now" : false
         },
         "photos" : [
            {
               "height" : 608,
               "html_attributions" : [
                  "\u003ca href=\"https://maps.google.com/maps/contrib/115964528826866979969\"\u003eATB Financial\u003c/a\u003e"
               ],
               "photo_reference" : "ATtYBwL2W9Kb95tAKuBiwDQ3WWPMXsEhi5Z3a6xoMOOt9zu1vviO5ieJTazxfD2hgR5MX9R8SGlvMe1slQKiPeTs9GfCb-xuYkRTcW2UpFfKY2tD3uQBcmXo7YOyu0U1yknU-J7tWbXjBLDzkOLWVb77dVwQbb80iO3M1aGYbLFzjUAatwSk",
               "width" : 1080
            }
         ],
         "place_id" : "ChIJN4YBbLo8oFMRWeX0KuQmu84",
         "plus_code" : {
            "compound_code" : "HHXH+X8 Edmonton, AB, Canada",
            "global_code" : "9558HHXH+X8"
         },
         "rating" : 3.6,
         "reference" : "ChIJN4YBbLo8oFMRWeX0KuQmu84",
         "scope" : "GOOGLE",
         "types" : [ "bank", "atm", "finance", "point_of_interest", "establishment" ],
         "user_ratings_total" : 40,
         "vicinity" : "350 Manning Crossing Northwest, Edmonton"
      },
      {
         "business_status" : "OPERATIONAL",
         "geometry" : {
            "location" : {
               "lat" : 53.5997536,
               "lng" : -113.4249069
            },
            "viewport" : {
               "northeast" : {
                  "lat" : 53.6011025802915,
                  "lng" : -113.4235579197085
               },
               "southwest" : {
                  "lat" : 53.5984046197085,
                  "lng" : -113.4262558802915
               }
            }
         },
         "icon" : "https://maps.gstatic.com/mapfiles/place_api/icons/v1/png_71/bank-71.png",
         "name" : "RBC Royal Bank",
         "opening_hours" : {
            "open_now" : false
         },
         "photos" : [
            {
               "height" : 553,
               "html_attributions" : [
                  "\u003ca href=\"https://maps.google.com/maps/contrib/104851171257693385857\"\u003epuliken\u003c/a\u003e"
               ],
               "photo_reference" : "ATtYBwJ7bFgmEc3oICDm3Ihgf5jVMHMBK79QgYCumORXuX824C7hbvZRbTd1HOwErZMU845v8uleK_jaZNpT6Uoo5SNhABAuoVwmNMYk2DPyd_ju6yC4ZBTJjwO9WopRJKunhRqu2H3HA2HGTZ2q2Cwl4N4-sMILVTTcEEUS1VNdlqlgTRnT",
               "width" : 840
            }
         ],
         "place_id" : "ChIJF9pEaro8oFMRLwSaVBsVctE",
         "plus_code" : {
            "compound_code" : "HHXG+W2 Edmonton, AB, Canada",
            "global_code" : "9558HHXG+W2"
         },
         "rating" : 2.3,
         "reference" : "ChIJF9pEaro8oFMRLwSaVBsVctE",
         "scope" : "GOOGLE",
         "types" : [ "bank", "finance", "point_of_interest", "establishment" ],
         "user_ratings_total" : 80,
         "vicinity" : "129 Manning Crossing Northwest, Edmonton"
      },
      {
         "business_status" : "OPERATIONAL",
         "geometry" : {
            "location" : {
               "lat" : 53.5988267,
               "lng" : -113.4269548
            },
            "viewport" : {
               "northeast" : {
                  "lat" : 53.60036093029149,
                  "lng" : -113.4255205697085
               },
               "southwest" : {
                  "lat" : 53.59766296970849,
                  "lng" : -113.4282185302915
               }
            }
         },
         "icon" : "https://maps.gstatic.com/mapfiles/place_api/icons/v1/png_71/bank-71.png",
         "name" : "Cash Canada",
         "place_id" : "ChIJF7XnHbE8oFMRf0dc0_DS8ZY",
         "plus_code" : {
            "compound_code" : "HHXF+G6 Edmonton, AB, Canada",
            "global_code" : "9558HHXF+G6"
         },
         "rating" : 5,
         "reference" : "ChIJF7XnHbE8oFMRf0dc0_DS8ZY",
         "scope" : "GOOGLE",
         "types" : [ "bank", "finance", "point_of_interest", "establishment" ],
         "user_ratings_total" : 1,
         "vicinity" : "5529 137 Avenue NorthWest, Edmonton"
      },
      {
         "business_status" : "OPERATIONAL",
         "geometry" : {
            "location" : {
               "lat" : 53.5873514,
               "lng" : -113.4249264
            },
            "viewport" : {
               "northeast" : {
                  "lat" : 53.58883238029149,
                  "lng" : -113.4235784697085
               },
               "southwest" : {
                  "lat" : 53.58613441970849,
                  "lng" : -113.4262764302915
               }
            }
         },
         "icon" : "https://maps.gstatic.com/mapfiles/place_api/icons/v1/png_71/bank-71.png",
         "name" : "Rycor Holding Ltd",
         "place_id" : "ChIJSdYGvcs8oFMReV5t6t32bkE",
         "plus_code" : {
            "compound_code" : "HHPG+W2 Edmonton, AB, Canada",
            "global_code" : "9558HHPG+W2"
         },
         "reference" : "ChIJSdYGvcs8oFMReV5t6t32bkE",
         "scope" : "GOOGLE",
         "types" : [ "bank", "finance", "point_of_interest", "establishment" ],
         "vicinity" : "5405 129 Avenue Northwest, Edmonton"
      },
      {
         "business_status" : "OPERATIONAL",
         "geometry" : {
            "location" : {
               "lat" : 53.5873514,
               "lng" : -113.4249264
            },
            "viewport" : {
               "northeast" : {
                  "lat" : 53.58883238029149,
                  "lng" : -113.4235784697085
               },
               "southwest" : {
                  "lat" : 53.58613441970849,
                  "lng" : -113.4262764302915
               }
            }
         },
         "icon" : "https://maps.gstatic.com/mapfiles/place_api/icons/v1/png_71/bank-71.png",
         "name" : "Dasee Holdings Ltd",
         "place_id" : "ChIJSdYGvcs8oFMRAol39yXo5Yo",
         "plus_code" : {
            "compound_code" : "HHPG+W2 Edmonton, AB, Canada",
            "global_code" : "9558HHPG+W2"
         },
         "reference" : "ChIJSdYGvcs8oFMRAol39yXo5Yo",
         "scope" : "GOOGLE",
         "types" : [ "bank", "finance", "point_of_interest", "establishment" ],
         "vicinity" : "5405 129 Avenue Northwest, Edmonton"
      },
      {
         "business_status" : "OPERATIONAL",
         "geometry" : {
            "location" : {
               "lat" : 53.60215150000001,
               "lng" : -113.4447967
            },
            "viewport" : {
               "northeast" : {
                  "lat" : 53.6036454802915,
                  "lng" : -113.4433484697085
               },
               "southwest" : {
                  "lat" : 53.60094751970851,
                  "lng" : -113.4460464302915
               }
            }
         },
         "icon" : "https://maps.gstatic.com/mapfiles/place_api/icons/v1/png_71/bank-71.png",
         "name" : "BMO",
         "opening_hours" : {
            "open_now" : false
         },
         "place_id" : "ChIJXZWnLlMjoFMR1iyLdRYb_B4",
         "plus_code" : {
            "compound_code" : "JH24+V3 Edmonton, AB, Canada",
            "global_code" : "9558JH24+V3"
         },
         "rating" : 2.4,
         "reference" : "ChIJXZWnLlMjoFMR1iyLdRYb_B4",
         "scope" : "GOOGLE",
         "types" : [ "bank", "finance", "point_of_interest", "establishment" ],
         "user_ratings_total" : 14,
         "vicinity" : "L52 Londonderry Mall, 137th Avenue &, 66 Street Northwest, Edmonton"
      },
      {
         "business_status" : "OPERATIONAL",
         "geometry" : {
            "location" : {
               "lat" : 53.6024636,
               "lng" : -113.4449051
            },
            "viewport" : {
               "northeast" : {
                  "lat" : 53.6038012802915,
                  "lng" : -113.4432477197085
               },
               "southwest" : {
                  "lat" : 53.6011033197085,
                  "lng" : -113.4459456802915
               }
            }
         },
         "icon" : "https://maps.gstatic.com/mapfiles/place_api/icons/v1/png_71/bank-71.png",
         "name" : "RCT Holdings Inc",
         "place_id" : "ChIJyZd3LlMjoFMRQBMc6QFoBhs",
         "plus_code" : {
            "compound_code" : "JH24+X2 Edmonton, AB, Canada",
            "global_code" : "9558JH24+X2"
         },
         "reference" : "ChIJyZd3LlMjoFMRQBMc6QFoBhs",
         "scope" : "GOOGLE",
         "types" : [ "bank", "finance", "point_of_interest", "establishment" ],
         "vicinity" : "Londonderry Mall, Edmonton"
      },
      {
         "business_status" : "OPERATIONAL",
         "geometry" : {
            "location" : {
               "lat" : 53.599926,
               "lng" : -113.4249299
            },
            "viewport" : {
               "northeast" : {
                  "lat" : 53.60126948029149,
                  "lng" : -113.4234347697085
               },
               "southwest" : {
                  "lat" : 53.5985715197085,
                  "lng" : -113.4261327302915
               }
            }
         },
         "icon" : "https://maps.gstatic.com/mapfiles/place_api/icons/v1/png_71/bank-71.png",
         "name" : "RBC Royal Bank ATM",
         "place_id" : "ChIJ8y3_QxY9oFMRcMzZCdkoQ1A",
         "plus_code" : {
            "compound_code" : "HHXG+X2 Edmonton, AB, Canada",
            "global_code" : "9558HHXG+X2"
         },
         "reference" : "ChIJ8y3_QxY9oFMRcMzZCdkoQ1A",
         "scope" : "GOOGLE",
         "types" : [ "bank", "finance", "point_of_interest", "establishment" ],
         "vicinity" : "128 Manning Crossing Northwest, Edmonton"
      },
      {
         "business_status" : "OPERATIONAL",
         "geometry" : {
            "location" : {
               "lat" : 53.5982316,
               "lng" : -113.4218563
            },
            "viewport" : {
               "northeast" : {
                  "lat" : 53.5998459302915,
                  "lng" : -113.4203560197085
               },
               "southwest" : {
                  "lat" : 53.5971479697085,
                  "lng" : -113.4230539802915
               }
            }
         },
         "icon" : "https://maps.gstatic.com/mapfiles/place_api/icons/v1/png_71/bank-71.png",
         "name" : "RBC Royal Bank ATM",
         "place_id" : "ChIJpbYUDho9oFMR9hFJ0CYXcp4",
         "plus_code" : {
            "compound_code" : "HHXH+77 Edmonton, AB, Canada",
            "global_code" : "9558HHXH+77"
         },
         "rating" : 1,
         "reference" : "ChIJpbYUDho9oFMR9hFJ0CYXcp4",
         "scope" : "GOOGLE",
         "types" : [ "bank", "finance", "point_of_interest", "establishment" ],
         "user_ratings_total" : 1,
         "vicinity" : "5011 137 Avenue NorthWest, Edmonton"
      },
      {
         "business_status" : "OPERATIONAL",
         "geometry" : {
            "location" : {
               "lat" : 53.59413010000001,
               "lng" : -113.4155705
            },
            "viewport" : {
               "northeast" : {
                  "lat" : 53.59545028029151,
                  "lng" : -113.4140970697085
               },
               "southwest" : {
                  "lat" : 53.59275231970851,
                  "lng" : -113.4167950302915
               }
            }
         },
         "icon" : "https://maps.gstatic.com/mapfiles/place_api/icons/v1/png_71/bank-71.png",
         "name" : "Braden Bulmer - TD Merchant Solutions",
         "place_id" : "ChIJi9XPRbk9oFMR1zh4oBVFMSs",
         "plus_code" : {
            "compound_code" : "HHVM+MQ Edmonton, AB, Canada",
            "global_code" : "9558HHVM+MQ"
         },
         "reference" : "ChIJi9XPRbk9oFMR1zh4oBVFMSs",
         "scope" : "GOOGLE",
         "types" : [ "bank", "finance", "point_of_interest", "establishment" ],
         "vicinity" : "13318 50 Street Northwest, Edmonton"
      },
      {
         "business_status" : "OPERATIONAL",
         "geometry" : {
            "location" : {
               "lat" : 53.60639699999999,
               "lng" : -113.451695
            },
            "viewport" : {
               "northeast" : {
                  "lat" : 53.60774598029149,
                  "lng" : -113.4503460197085
               },
               "southwest" : {
                  "lat" : 53.60504801970849,
                  "lng" : -113.4530439802915
               }
            }
         },
         "icon" : "https://maps.gstatic.com/mapfiles/place_api/icons/v1/png_71/bank-71.png",
         "name" : "RBC Royal Bank ATM",
         "opening_hours" : {
            "open_now" : true
         },
         "place_id" : "ChIJb72CfbojoFMRG05GjAc4yhE",
         "plus_code" : {
            "compound_code" : "JG4X+H8 Edmonton, AB, Canada",
            "global_code" : "9558JG4X+H8"
         },
         "reference" : "ChIJb72CfbojoFMRG05GjAc4yhE",
         "scope" : "GOOGLE",
         "types" : [ "bank", "finance", "point_of_interest", "establishment" ],
         "vicinity" : "7210 144 Avenue Northwest, Edmonton"
      },
      {
         "business_status" : "OPERATIONAL",
         "geometry" : {
            "location" : {
               "lat" : 53.5985964,
               "lng" : -113.4109762
            },
            "viewport" : {
               "northeast" : {
                  "lat" : 53.5999425802915,
                  "lng" : -113.4096563197085
               },
               "southwest" : {
                  "lat" : 53.5972446197085,
                  "lng" : -113.4123542802915
               }
            }
         },
         "icon" : "https://maps.gstatic.com/mapfiles/place_api/icons/v1/png_71/bank-71.png",
         "name" : "President's Choice Financial Pavilion and ATM",
         "opening_hours" : {
            "open_now" : true
         },
         "place_id" : "ChIJ3ceGTqg9oFMRhDaVyW3SPX4",
         "plus_code" : {
            "compound_code" : "HHXQ+CJ Edmonton, AB, Canada",
            "global_code" : "9558HHXQ+CJ"
         },
         "rating" : 4.7,
         "reference" : "ChIJ3ceGTqg9oFMRhDaVyW3SPX4",
         "scope" : "GOOGLE",
         "types" : [ "bank", "atm", "finance", "point_of_interest", "establishment" ],
         "user_ratings_total" : 3,
         "vicinity" : "4950 137 Avenue NorthWest, Edmonton"
      }
   ],
   "status" : "OK"
}
