[{"number":"5540","name_mixed":"Westbrook Estates","area_sq_km":"1.165428147356647","latitude":"53.46821272972812","longitude":"-113.54445207698336","location":{"type":"Point","coordinates":[-113.54445207698336,53.46821272972812]},"location_address":"","location_city":"","location_state":"","location_zip":""}
,{"number":"5490","name_mixed":"Sweet Grass","area_sq_km":"0.9170716787495392","latitude":"53.46431590241292","longitude":"-113.52756884463375","location":{"type":"Point","coordinates":[-113.52756884463375,53.46431590241292]},"location_address":"","location_city":"","location_state":"","location_zip":""}
,{"number":"5070","name_mixed":"Blue Quill Estates","area_sq_km":"0.4425141026142711","latitude":"53.45762655689608","longitude":"-113.54019498722329","location":{"type":"Point","coordinates":[-113.54019498722329,53.45762655689608]},"location_address":"","location_city":"","location_state":"","location_zip":""}
,{"number":"5220","name_mixed":"Greenfield","area_sq_km":"1.529887225661414","latitude":"53.47107265307113","longitude":"-113.52750541737437","location":{"type":"Point","coordinates":[-113.52750541737437,53.47107265307113]},"location_address":"","location_city":"","location_state":"","location_zip":""}
,{"number":"5060","name_mixed":"Blue Quill","area_sq_km":"1.058050286283803","latitude":"53.45762652276185","longitude":"-113.52623651519588","location":{"type":"Point","coordinates":[-113.52623651519588,53.45762652276185]},"location_address":"","location_city":"","location_state":"","location_zip":""}]
