[{"StopNo":50273,"Name":"BLANCA LOOP BAY 1","BayNo":"1","City":"VANCOUVER","OnStreet":"BLANCA LOOP","AtStreet":"BAY 1","Latitude":49.265244,"Longitude":-123.215851,"WheelchairAccess":1,"Distance":214,"Routes":"004, 014"},{"StopNo":50599,"Name":"SB BLANCA ST FS W 6 AVE","BayNo":"N","City":"VANCOUVER","OnStreet":"BLANCA ST","AtStreet":"W 6 AVE","Latitude":49.267014,"Longitude":-123.215225,"WheelchairAccess":0,"Distance":224,"Routes":"004"},{"StopNo":60274,"Name":"BLANCA LOOP LOADING ONLY","BayNo":"N","City":"VANCOUVER","OnStreet":"BLANCA LOOP","AtStreet":"LOADING ONLY","Latitude":49.265376,"Longitude":-123.215431,"WheelchairAccess":1,"Distance":231,"Routes":""},{"StopNo":50344,"Name":"NB BLANCA ST FS W 8 AVE","BayNo":"N","City":"VANCOUVER","OnStreet":"BLANCA ST","AtStreet":"W 8 AVE","Latitude":49.266052,"Longitude":-123.215012,"WheelchairAccess":0,"Distance":233,"Routes":"004"},{"StopNo":50600,"Name":"BLANCA LOOP BAY 2","BayNo":"2","City":"VANCOUVER","OnStreet":"BLANCA LOOP","AtStreet":"BAY 2","Latitude":49.265144,"Longitude":-123.215302,"WheelchairAccess":1,"Distance":252,"Routes":"004"},{"StopNo":60273,"Name":"NB BLANCA ST FS W 9 AVE","BayNo":"N","City":"VANCOUVER","OnStreet":"BLANCA ST","AtStreet":"W 9 AVE","Latitude":49.265097,"Longitude":-123.215040,"WheelchairAccess":0,"Distance":271,"Routes":""},{"StopNo":50345,"Name":"NB BLANCA ST FS W 6 AVE","BayNo":"N","City":"VANCOUVER","OnStreet":"BLANCA ST","AtStreet":"W 6 AVE","Latitude":49.267689,"Longitude":-123.214951,"WheelchairAccess":0,"Distance":273,"Routes":""},{"StopNo":50601,"Name":"WB UNIVERSITY BLVD FS BLANCA ST","BayNo":"N","City":"VANCOUVER","OnStreet":"UNIVERSITY BLVD","AtStreet":"BLANCA ST","Latitude":49.264015,"Longitude":-123.215912,"WheelchairAccess":1,"Distance":314,"Routes":"004, 014, N17"},{"StopNo":60533,"Name":"NB BLANCA ST FS W 5 AVE","BayNo":"N","City":"VANCOUVER","OnStreet":"BLANCA ST","AtStreet":"W 5 AVE","Latitude":49.268417,"Longitude":-123.214951,"WheelchairAccess":-1,"Distance":322,"Routes":"004"},{"StopNo":50272,"Name":"NB BLANCA ST FS W 10 AVE","BayNo":"N","City":"VANCOUVER","OnStreet":"BLANCA ST","AtStreet":"W 10 AVE","Latitude":49.264290,"Longitude":-123.215065,"WheelchairAccess":1,"Distance":327,"Routes":"004"},{"StopNo":50598,"Name":"SB BLANCA ST FS W 4 AVE","BayNo":"N","City":"VANCOUVER","OnStreet":"BLANCA ST","AtStreet":"W 4 AVE","Latitude":49.268692,"Longitude":-123.215179,"WheelchairAccess":1,"Distance":333,"Routes":"004"},{"StopNo":51913,"Name":"WB W 4 AVE FS BLANCA ST","BayNo":"N","City":"VANCOUVER","OnStreet":"W 4 AVE","AtStreet":"BLANCA ST","Latitude":49.269196,"Longitude":-123.215569,"WheelchairAccess":0,"Distance":362,"Routes":"084"},{"StopNo":50274,"Name":"EB W 10 AVE FS BLANCA ST","BayNo":"N","City":"VANCOUVER","OnStreet":"W 10 AVE","AtStreet":"BLANCA ST","Latitude":49.263836,"Longitude":-123.214638,"WheelchairAccess":1,"Distance":385,"Routes":"014, N17"},{"StopNo":50346,"Name":"EB W 4 AVE FS BLANCA ST","BayNo":"N","City":"VANCOUVER","OnStreet":"W 4 AVE","AtStreet":"BLANCA ST","Latitude":49.269016,"Longitude":-123.214363,"WheelchairAccess":1,"Distance":400,"Routes":""},{"StopNo":50577,"Name":"WB W 10 AVE FS TOLMIE ST","BayNo":"N","City":"VANCOUVER","OnStreet":"W 10 AVE","AtStreet":"TOLMIE ST","Latitude":49.263966,"Longitude":-123.212509,"WheelchairAccess":1,"Distance":494,"Routes":"014, N17"},{"StopNo":50597,"Name":"WB W 4 AVE FS TOLMIE ST","BayNo":"N","City":"VANCOUVER","OnStreet":"W 4 AVE","AtStreet":"TOLMIE ST","Latitude":49.269150,"Longitude":-123.212456,"WheelchairAccess":0,"Distance":514,"Routes":"004"},{"StopNo":50275,"Name":"EB W 10 AVE FS TOLMIE ST","BayNo":"N","City":"VANCOUVER","OnStreet":"W 10 AVE","AtStreet":"TOLMIE ST","Latitude":49.263809,"Longitude":-123.211739,"WheelchairAccess":1,"Distance":550,"Routes":"014, N17"},{"StopNo":50347,"Name":"EB W 4 AVE FS TOLMIE ST","BayNo":"N","City":"VANCOUVER","OnStreet":"W 4 AVE","AtStreet":"TOLMIE ST","Latitude":49.268974,"Longitude":-123.211487,"WheelchairAccess":1,"Distance":562,"Routes":"004, 084"},{"StopNo":58023,"Name":"WB W 10 AVE FS SASAMAT ST","BayNo":"N","City":"VANCOUVER","OnStreet":"W 10 AVE","AtStreet":"SASAMAT ST","Latitude":49.263905,"Longitude":-123.209694,"WheelchairAccess":1,"Distance":676,"Routes":"014, 099, N17"},{"StopNo":50596,"Name":"WB W 4 AVE FS SASAMAT ST","BayNo":"N","City":"VANCOUVER","OnStreet":"W 4 AVE","AtStreet":"SASAMAT ST","Latitude":49.269081,"Longitude":-123.209396,"WheelchairAccess":1,"Distance":702,"Routes":"004"},{"StopNo":50276,"Name":"EB W 10 AVE FS SASAMAT ST","BayNo":"N","City":"VANCOUVER","OnStreet":"W 10 AVE","AtStreet":"SASAMAT ST","Latitude":49.263763,"Longitude":-123.208527,"WheelchairAccess":1,"Distance":760,"Routes":"014, 099, N17"},{"StopNo":50271,"Name":"EB UNIVERSITY BLVD AT 5100 BLOCK","BayNo":"N","City":"VANCOUVER","OnStreet":"UNIVERSITY BLVD","AtStreet":"5100 BLOCK","Latitude":49.263485,"Longitude":-123.229095,"WheelchairAccess":1,"Distance":857,"Routes":"004, 014, N17"},{"StopNo":50576,"Name":"WB W 10 AVE FS TRIMBLE ST","BayNo":"N","City":"VANCOUVER","OnStreet":"W 10 AVE","AtStreet":"TRIMBLE ST","Latitude":49.263863,"Longitude":-123.206459,"WheelchairAccess":1,"Distance":896,"Routes":"014, N17"},{"StopNo":50349,"Name":"EB W 4 AVE NS TRIMBLE ST","BayNo":"N","City":"VANCOUVER","OnStreet":"W 4 AVE","AtStreet":"TRIMBLE ST","Latitude":49.268906,"Longitude":-123.206398,"WheelchairAccess":1,"Distance":898,"Routes":"004"},{"StopNo":50602,"Name":"WB UNIVERSITY BLVD AT 5100 BLOCK","BayNo":"N","City":"VANCOUVER","OnStreet":"UNIVERSITY BLVD","AtStreet":"5100 BLOCK","Latitude":49.263695,"Longitude":-123.229836,"WheelchairAccess":1,"Distance":899,"Routes":"004, 014, N17"},{"StopNo":50595,"Name":"WB W 4 AVE FS TRIMBLE ST","BayNo":"N","City":"VANCOUVER","OnStreet":"W 4 AVE","AtStreet":"TRIMBLE ST","Latitude":49.269028,"Longitude":-123.206429,"WheelchairAccess":1,"Distance":900,"Routes":"004"},{"StopNo":51597,"Name":"WB W 16 AVE NS BLANCA ST","BayNo":"N","City":"VANCOUVER","OnStreet":"W 16 AVE","AtStreet":"BLANCA ST","Latitude":49.258507,"Longitude":-123.214569,"WheelchairAccess":1,"Distance":918,"Routes":"025, 033"},{"StopNo":51598,"Name":"WB W 16 AVE AT PACIFIC SPIRIT PARK","BayNo":"N","City":"VANCOUVER","OnStreet":"W 16 AVE","AtStreet":"PACIFIC SPIRIT PARK","Latitude":49.258663,"Longitude":-123.222572,"WheelchairAccess":0,"Distance":920,"Routes":"025, 033"},{"StopNo":51485,"Name":"EB W 16 AVE AT PACIFIC SPIRIT PARK","BayNo":"N","City":"VANCOUVER","OnStreet":"W 16 AVE","AtStreet":"PACIFIC SPIRIT PARK","Latitude":49.258320,"Longitude":-123.221642,"WheelchairAccess":0,"Distance":935,"Routes":"025, 033"},{"StopNo":51486,"Name":"EB W 16 AVE FS BLANCA ST","BayNo":"N","City":"VANCOUVER","OnStreet":"W 16 AVE","AtStreet":"BLANCA ST","Latitude":49.258259,"Longitude":-123.214905,"WheelchairAccess":0,"Distance":938,"Routes":"025, 033"},{"StopNo":50277,"Name":"EB W 10 AVE FS TRIMBLE ST","BayNo":"N","City":"VANCOUVER","OnStreet":"W 10 AVE","AtStreet":"TRIMBLE ST","Latitude":49.263687,"Longitude":-123.205582,"WheelchairAccess":1,"Distance":963,"Routes":"014, N17"},{"StopNo":51487,"Name":"EB W 16 AVE FS TOLMIE ST","BayNo":"N","City":"VANCOUVER","OnStreet":"W 16 AVE","AtStreet":"TOLMIE ST","Latitude":49.258190,"Longitude":-123.211853,"WheelchairAccess":0,"Distance":1024,"Routes":"025, 033"},{"StopNo":51906,"Name":"EB NW MARINE DR FS TOLMIE ST","BayNo":"N","City":"VANCOUVER","OnStreet":"NW MARINE DR","AtStreet":"TOLMIE ST","Latitude":49.274742,"Longitude":-123.211352,"WheelchairAccess":0,"Distance":1049,"Routes":""},{"StopNo":51938,"Name":"WB NW MARINE DR FS TOLMIE ST","BayNo":"N","City":"VANCOUVER","OnStreet":"NW MARINE DR","AtStreet":"TOLMIE ST","Latitude":49.275093,"Longitude":-123.212054,"WheelchairAccess":0,"Distance":1062,"Routes":""},{"StopNo":51596,"Name":"WB W 16 AVE FS SASAMAT ST","BayNo":"N","City":"VANCOUVER","OnStreet":"W 16 AVE","AtStreet":"SASAMAT ST","Latitude":49.258430,"Longitude":-123.209778,"WheelchairAccess":1,"Distance":1078,"Routes":"025, 033"},{"StopNo":50575,"Name":"WB W 10 AVE FS DISCOVERY ST","BayNo":"N","City":"VANCOUVER","OnStreet":"W 10 AVE","AtStreet":"DISCOVERY ST","Latitude":49.263828,"Longitude":-123.203438,"WheelchairAccess":1,"Distance":1108,"Routes":"014, N17"},{"StopNo":51937,"Name":"WB NW MARINE DR FS SASAMAT ST","BayNo":"N","City":"VANCOUVER","OnStreet":"NW MARINE DR","AtStreet":"SASAMAT ST","Latitude":49.274502,"Longitude":-123.209135,"WheelchairAccess":0,"Distance":1112,"Routes":""},{"StopNo":61143,"Name":"SPANISH BANKS LOOP","BayNo":"N","City":"VANCOUVER","OnStreet":"BUS STOP","AtStreet":"SPANISH BANKS LOOP","Latitude":49.276328,"Longitude":-123.215494,"WheelchairAccess":1,"Distance":1119,"Routes":""},{"StopNo":50278,"Name":"EB W 10 AVE FS DISCOVERY ST","BayNo":"N","City":"VANCOUVER","OnStreet":"W 10 AVE","AtStreet":"DISCOVERY ST","Latitude":49.263657,"Longitude":-123.202599,"WheelchairAccess":1,"Distance":1171,"Routes":"014, N17"},{"StopNo":61133,"Name":"SB NW MARINE DR FS BELMONT AVE","BayNo":"N","City":"VANCOUVER","OnStreet":"TRIMBLE ST","AtStreet":"BELMONT AVE","Latitude":49.273327,"Longitude":-123.205803,"WheelchairAccess":0,"Distance":1181,"Routes":""},{"StopNo":51910,"Name":"EB NW MARINE DR NS DISCOVERY ST","BayNo":"N","City":"VANCOUVER","OnStreet":"NW MARINE DR","AtStreet":"DISCOVERY ST","Latitude":49.271953,"Longitude":-123.203426,"WheelchairAccess":0,"Distance":1234,"Routes":""},{"StopNo":50270,"Name":"EB UNIVERSITY BLVD AT 5300 BLOCK","BayNo":"N","City":"VANCOUVER","OnStreet":"UNIVERSITY BLVD","AtStreet":"5300 BLOCK","Latitude":49.265327,"Longitude":-123.235214,"WheelchairAccess":0,"Distance":1242,"Routes":"004, 014, N17"},{"StopNo":51935,"Name":"NB NW MARINE DR FS BELMONT AVE","BayNo":"N","City":"VANCOUVER","OnStreet":"NW MARINE DR","AtStreet":"BELMONT AVE","Latitude":49.274065,"Longitude":-123.205593,"WheelchairAccess":0,"Distance":1247,"Routes":""},{"StopNo":51934,"Name":"WB NW MARINE DR FS DISCOVERY ST","BayNo":"N","City":"VANCOUVER","OnStreet":"NW MARINE DR","AtStreet":"DISCOVERY ST","Latitude":49.271904,"Longitude":-123.203022,"WheelchairAccess":0,"Distance":1257,"Routes":""},{"StopNo":50603,"Name":"WB UNIVERSITY BLVD AT 5300 BLOCK","BayNo":"N","City":"VANCOUVER","OnStreet":"UNIVERSITY BLVD","AtStreet":"5300 BLOCK","Latitude":49.265816,"Longitude":-123.235542,"WheelchairAccess":1,"Distance":1262,"Routes":"004, 014, N17"},{"StopNo":59943,"Name":"NB ACADIA RD NS ORTONA AV ","BayNo":"N","City":"VANCOUVER","OnStreet":"ACADIA RD","AtStreet":"ORTONA AVE","Latitude":49.261450,"Longitude":-123.234140,"WheelchairAccess":1,"Distance":1284,"Routes":""},{"StopNo":51912,"Name":"EB NW MARINE DR FS LOCARNO CRES","BayNo":"N","City":"VANCOUVER","OnStreet":"NW MARINE DR","AtStreet":"LOCARNO CRES","Latitude":49.268799,"Longitude":-123.200827,"WheelchairAccess":0,"Distance":1286,"Routes":""},{"StopNo":51488,"Name":"EB W 16 AVE FS TRIMBLE ST","BayNo":"N","City":"VANCOUVER","OnStreet":"W 16 AVE","AtStreet":"TRIMBLE ST","Latitude":49.258106,"Longitude":-123.205772,"WheelchairAccess":0,"Distance":1290,"Routes":"025, 033"},{"StopNo":50594,"Name":"WB W 4 AVE FS NW MARINE DR","BayNo":"N","City":"VANCOUVER","OnStreet":"W 4 AVE","AtStreet":"NW MARINE DR","Latitude":49.268604,"Longitude":-123.200584,"WheelchairAccess":0,"Distance":1299,"Routes":"004, 084"},{"StopNo":50574,"Name":"WB W 10 AVE FS COURTENAY ST","BayNo":"N","City":"VANCOUVER","OnStreet":"W 10 AVE","AtStreet":"COURTENAY ST","Latitude":49.263783,"Longitude":-123.200722,"WheelchairAccess":1,"Distance":1300,"Routes":"014, N17"},{"StopNo":61138,"Name":"WB NW MARINE DR FS W 4 AVE","BayNo":"N","City":"VANCOUVER","OnStreet":"NW MARINE DR","AtStreet":"W 4 AVE","Latitude":49.268938,"Longitude":-123.200648,"WheelchairAccess":0,"Distance":1302,"Routes":""},{"StopNo":51595,"Name":"WB W 16 AVE FS DISCOVERY ST","BayNo":"N","City":"VANCOUVER","OnStreet":"W 16 AVE","AtStreet":"DISCOVERY ST","Latitude":49.258335,"Longitude":-123.203674,"WheelchairAccess":1,"Distance":1384,"Routes":"025, 033"},{"StopNo":50279,"Name":"EB W 10 AVE FS COURTENAY ST","BayNo":"N","City":"VANCOUVER","OnStreet":"W 10 AVE","AtStreet":"COURTENAY ST","Latitude":49.263603,"Longitude":-123.199432,"WheelchairAccess":1,"Distance":1396,"Routes":"014, N17"},{"StopNo":57937,"Name":"NB ACADIA RD NS PRESIDENTS ROW","BayNo":"N","City":"VANCOUVER","OnStreet":"ACADIA RD","AtStreet":"PRESIDENTS ROW","Latitude":49.265510,"Longitude":-123.237500,"WheelchairAccess":1,"Distance":1406,"Routes":""},{"StopNo":59939,"Name":"WB HAMPTON PL AT BUS ACCESS","BayNo":"N","City":"VANCOUVER","OnStreet":"HAMPTON PL","AtStreet":"BUS ACCESS RD","Latitude":49.258950,"Longitude":-123.233890,"WheelchairAccess":1,"Distance":1411,"Routes":""},{"StopNo":57938,"Name":"EB UNIVERSITY BLVD FS ACADIA RD","BayNo":"N","City":"VANCOUVER","OnStreet":"UNIVERSITY BLVD","AtStreet":"ACADIA RD","Latitude":49.266502,"Longitude":-123.237823,"WheelchairAccess":1,"Distance":1426,"Routes":"004, 014, N17"},{"StopNo":59944,"Name":"EB OSOYOOS CRES FS ACADIA PARK LANE","BayNo":"N","City":"VANCOUVER","OnStreet":"OSOYOOS CRES","AtStreet":"ACADIA PARK LANE","Latitude":49.259710,"Longitude":-123.235030,"WheelchairAccess":1,"Distance":1433,"Routes":""},{"StopNo":50593,"Name":"WB W 4 AVE AT 4100 BLOCK","BayNo":"N","City":"VANCOUVER","OnStreet":"W 4 AVE","AtStreet":"4100 BLOCK","Latitude":49.268917,"Longitude":-123.197838,"WheelchairAccess":1,"Distance":1501,"Routes":"004"},{"StopNo":50350,"Name":"EB W 4 AVE AT 4100 BLOCK","BayNo":"N","City":"VANCOUVER","OnStreet":"W 4 AVE","AtStreet":"4100 BLOCK","Latitude":49.268681,"Longitude":-123.197617,"WheelchairAccess":1,"Distance":1513,"Routes":"004, 084"},{"StopNo":50604,"Name":"WB UNIVERSITY BLVD FS ACADIA RD ","BayNo":"N","City":"VANCOUVER","OnStreet":"UNIVERSITY BLVD","AtStreet":"ACADIA RD","Latitude":49.267025,"Longitude":-123.239311,"WheelchairAccess":1,"Distance":1535,"Routes":"004, 014, N17"},{"StopNo":50573,"Name":"WB W 10 AVE FS CAMOSUN ST","BayNo":"N","City":"VANCOUVER","OnStreet":"W 10 AVE","AtStreet":"CAMOSUN ST","Latitude":49.263725,"Longitude":-123.197334,"WheelchairAccess":0,"Distance":1542,"Routes":"014, N17"},{"StopNo":51930,"Name":"EB CHANCELLOR BLVD FS HAMBER RD","BayNo":"N","City":"VANCOUVER","OnStreet":"CHANCELLOR BLVD","AtStreet":"HAMBER RD","Latitude":49.272896,"Longitude":-123.237648,"WheelchairAccess":1,"Distance":1586,"Routes":"084"},{"StopNo":50280,"Name":"EB W 10 AVE FS CAMOSUN ST","BayNo":"N","City":"VANCOUVER","OnStreet":"W 10 AVE","AtStreet":"CAMOSUN ST","Latitude":49.263565,"Longitude":-123.196533,"WheelchairAccess":1,"Distance":1602,"Routes":"014, N17"},{"StopNo":57935,"Name":"SB OSOYOOS CRES NS KEREMEOS CRT","BayNo":"N","City":"VANCOUVER","OnStreet":"OSOYOOS CRES","AtStreet":"KEREMEOS CRT","Latitude":49.261480,"Longitude":-123.239080,"WheelchairAccess":0,"Distance":1613,"Routes":""},{"StopNo":51489,"Name":"EB W 16 AVE FS COURTENAY ST","BayNo":"N","City":"VANCOUVER","OnStreet":"W 16 AVE","AtStreet":"COURTENAY ST","Latitude":49.258018,"Longitude":-123.199760,"WheelchairAccess":1,"Distance":1631,"Routes":"025, 033"},{"StopNo":59938,"Name":"EB HAMPTON PL FS WESBROOK MALL","BayNo":"N","City":"VANCOUVER","OnStreet":"HAMPTON PL","AtStreet":"WESBROOK MALL","Latitude":49.257820,"Longitude":-123.236400,"WheelchairAccess":1,"Distance":1632,"Routes":""},{"StopNo":61043,"Name":"WB W 16 AVE NS WESBROOK MALL","BayNo":"N","City":"VANCOUVER","OnStreet":"W 16 AVE","AtStreet":"WESBROOK MALL","Latitude":49.256287,"Longitude":-123.234955,"WheelchairAccess":1,"Distance":1659,"Routes":"025, 033"},{"StopNo":51484,"Name":"EB W 16 AVE FS WESBROOK MALL","BayNo":"N","City":"VANCOUVER","OnStreet":"W 16 AVE","AtStreet":"WESBROOK MALL","Latitude":49.256016,"Longitude":-123.235153,"WheelchairAccess":1,"Distance":1690,"Routes":"025, 033"},{"StopNo":51916,"Name":"WB CHANCELLOR BLVD FS HAMBER RD","BayNo":"N","City":"VANCOUVER","OnStreet":"CHANCELLOR BLVD","AtStreet":"HAMBER RD","Latitude":49.273342,"Longitude":-123.239006,"WheelchairAccess":1,"Distance":1696,"Routes":"084"},{"StopNo":51600,"Name":"NB WESBROOK MALL AT 2900 BLOCK","BayNo":"N","City":"VANCOUVER","OnStreet":"WESBROOK MALL","AtStreet":"2900 BLOCK","Latitude":49.258778,"Longitude":-123.238777,"WheelchairAccess":1,"Distance":1720,"Routes":"025, 033, 049"},{"StopNo":51594,"Name":"WB W 16 AVE FS CAMOSUN ST","BayNo":"N","City":"VANCOUVER","OnStreet":"W 16 AVE","AtStreet":"CAMOSUN ST","Latitude":49.258255,"Longitude":-123.197601,"WheelchairAccess":1,"Distance":1747,"Routes":"025, 033"},{"StopNo":51483,"Name":"SB WESBROOK MALL AT HAMPTON PL","BayNo":"N","City":"VANCOUVER","OnStreet":"WESBROOK MALL","AtStreet":"HAMPTON PL","Latitude":49.257294,"Longitude":-123.237946,"WheelchairAccess":1,"Distance":1757,"Routes":"025, 033, 049"},{"StopNo":51490,"Name":"EB W 16 AVE NS CAMOSUN ST","BayNo":"N","City":"VANCOUVER","OnStreet":"W 16 AVE","AtStreet":"CAMOSUN ST","Latitude":49.257984,"Longitude":-123.197495,"WheelchairAccess":1,"Distance":1770,"Routes":"025, 033"},{"StopNo":61044,"Name":"NB WESBROOK MALL NS W 16 AVE","BayNo":"N","City":"VANCOUVER","OnStreet":"WESBROOK MALL","AtStreet":"W 16 AVE","Latitude":49.255390,"Longitude":-123.235825,"WheelchairAccess":1,"Distance":1773,"Routes":"068"},{"StopNo":61580,"Name":"NB WESBROOK MALL FS BIRNEY AVE","BayNo":"N","City":"VANCOUVER","OnStreet":"WESBROOK MALL","AtStreet":"BIRNEY AVE","Latitude":49.254486,"Longitude":-123.235191,"WheelchairAccess":1,"Distance":1813,"Routes":"049"},{"StopNo":61579,"Name":"SB WESBROOK MALL NS BIRNEY AVE","BayNo":"N","City":"VANCOUVER","OnStreet":"WESBROOK MALL","AtStreet":"BIRNEY AVE","Latitude":49.254063,"Longitude":-123.234978,"WheelchairAccess":1,"Distance":1837,"Routes":"049, 068"},{"StopNo":61042,"Name":"EB W 16 AVE NS WESBROOK MALL","BayNo":"N","City":"VANCOUVER","OnStreet":"W 16 AVE","AtStreet":"WESBROOK MALL","Latitude":49.255123,"Longitude":-123.237648,"WheelchairAccess":1,"Distance":1891,"Routes":"R4"},{"StopNo":51882,"Name":"WB W 16 AVE FS WESBROOK MALL","BayNo":"N","City":"VANCOUVER","OnStreet":"W 16 AVE","AtStreet":"WESBROOK MALL","Latitude":49.255192,"Longitude":-123.238457,"WheelchairAccess":1,"Distance":1930,"Routes":"R4"}]