[{"area_sq_km":"1.2062921755136922","latitude":"53.62165163516955","location":{"type":"Point","coordinates":[-113.559373250567,53.62165163517]},"longitude":"-113.55937325056667","name_mixed":"Carlton","number":"3470"}
,{"area_sq_km":"1.1840460713570302","latitude":"53.62219780040741","location":{"type":"Point","coordinates":[-113.547291681455,53.622197800407]},"longitude":"-113.54729168145532","name_mixed":"Oxford","number":"3320"}
,{"area_sq_km":"0.8433122828775174","latitude":"53.63238214011528","location":{"type":"Point","coordinates":[-113.549464311962,53.632382140115]},"longitude":"-113.54946431196204","name_mixed":"Albany","number":"3460"}
,{"area_sq_km":"1.4565481569278662","latitude":"53.610562567766294","location":{"type":"Point","coordinates":[-113.553188127829,53.610562567766]},"longitude":"-113.55318812782944","name_mixed":"Cumberland","number":"3150"}
,{"area_sq_km":"3.1466075351983376","latitude":"53.62763461908014","location":{"type":"Point","coordinates":[-113.576203140138,53.62763461908]},"longitude":"-113.57620314013812","name_mixed":"Anthony Henday Rampart","number":"4023"}]
