[{"StopNo":50477,"Name":"NB CAMBIE ST FS W 20 AVE","BayNo":"N","City":"VANCOUVER","OnStreet":"CAMBIE ST","AtStreet":"W 20 AVE","Latitude":49.253242,"Longitude":-123.115105,"WheelchairAccess":1,"Distance":194,"Routes":"015, 033, N15"},{"StopNo":50417,"Name":"SB CAMBIE ST FS W 20 AVE","BayNo":"N","City":"VANCOUVER","OnStreet":"CAMBIE ST","AtStreet":"W 20 AVE","Latitude":49.252766,"Longitude":-123.115379,"WheelchairAccess":1,"Distance":218,"Routes":"015, 033, N15"},{"StopNo":50416,"Name":"SB CAMBIE ST FS W 18 AVE","BayNo":"N","City":"VANCOUVER","OnStreet":"CAMBIE ST","AtStreet":"W 18 AVE","Latitude":49.254673,"Longitude":-123.115280,"WheelchairAccess":1,"Distance":267,"Routes":"015, 033, N15"},{"StopNo":50476,"Name":"NB CAMBIE ST FS W 22 AVE","BayNo":"N","City":"VANCOUVER","OnStreet":"CAMBIE ST","AtStreet":"W 22 AVE","Latitude":49.251472,"Longitude":-123.115166,"WheelchairAccess":1,"Distance":272,"Routes":"015, 033, N15"},{"StopNo":50478,"Name":"NB CAMBIE ST FS W 18 AVE","BayNo":"N","City":"VANCOUVER","OnStreet":"CAMBIE ST","AtStreet":"W 18 AVE","Latitude":49.255123,"Longitude":-123.115021,"WheelchairAccess":1,"Distance":289,"Routes":"015, 033, N15"},{"StopNo":50418,"Name":"SB CAMBIE ST FS W 22 AVE","BayNo":"N","City":"VANCOUVER","OnStreet":"CAMBIE ST","AtStreet":"W 22 AVE","Latitude":49.250984,"Longitude":-123.115448,"WheelchairAccess":1,"Distance":326,"Routes":"015, 033, N15"},{"StopNo":50415,"Name":"SB CAMBIE ST FS W 16 AVE","BayNo":"N","City":"VANCOUVER","OnStreet":"CAMBIE ST","AtStreet":"W 16 AVE","Latitude":49.256554,"Longitude":-123.115250,"WheelchairAccess":1,"Distance":430,"Routes":"015, 033, N15"},{"StopNo":50475,"Name":"KING EDWARD STN BAY 2","BayNo":"2","City":"VANCOUVER","OnStreet":"KING EDWARD STN","AtStreet":"BAY 2","Latitude":49.249416,"Longitude":-123.115242,"WheelchairAccess":1,"Distance":463,"Routes":"015, 033, N15"},{"StopNo":51573,"Name":"WB W KING EDWARD AVE FS COLUMBIA ST","BayNo":"N","City":"VANCOUVER","OnStreet":"W KING EDWARD AVE","AtStreet":"COLUMBIA ST","Latitude":49.249023,"Longitude":-123.110519,"WheelchairAccess":1,"Distance":479,"Routes":"025"},{"StopNo":50479,"Name":"NB CAMBIE ST FS W 16 AVE","BayNo":"N","City":"VANCOUVER","OnStreet":"CAMBIE ST","AtStreet":"W 16 AVE","Latitude":49.257156,"Longitude":-123.114906,"WheelchairAccess":1,"Distance":480,"Routes":"015, N15"},{"StopNo":51514,"Name":"EB W KING EDWARD AVE FS YUKON ST","BayNo":"N","City":"VANCOUVER","OnStreet":"W KING EDWARD AVE","AtStreet":"YUKON ST","Latitude":49.248820,"Longitude":-123.111720,"WheelchairAccess":1,"Distance":484,"Routes":""},{"StopNo":61121,"Name":"WB W 16 AVE FS CAMBIE ST","BayNo":"N","City":"VANCOUVER","OnStreet":"W 16 AVE","AtStreet":"CAMBIE ST","Latitude":49.257004,"Longitude":-123.115677,"WheelchairAccess":1,"Distance":489,"Routes":"033"},{"StopNo":51513,"Name":"KING EDWARD STN BAY 3","BayNo":"3","City":"VANCOUVER","OnStreet":"KING EDWARD STN","AtStreet":"BAY 3","Latitude":49.248867,"Longitude":-123.114708,"WheelchairAccess":1,"Distance":504,"Routes":"025"},{"StopNo":61372,"Name":"KING EDWARD STATION PLATFORM 1","BayNo":"N","City":"VANCOUVER","OnStreet":"KING EDWARD STATION","AtStreet":"PLATFORM 1","Latitude":49.249100,"Longitude":-123.115547,"WheelchairAccess":0,"Distance":504,"Routes":"980"},{"StopNo":61371,"Name":"KING EDWARD STATION PLATFORM 2","BayNo":"N","City":"VANCOUVER","OnStreet":"KING EDWARD STATION","AtStreet":"PLATFORM 2","Latitude":49.249100,"Longitude":-123.115601,"WheelchairAccess":0,"Distance":506,"Routes":"980"},{"StopNo":51574,"Name":"KING EDWARD STN BAY 1","BayNo":"1","City":"VANCOUVER","OnStreet":"KING EDWARD STN","AtStreet":"BAY 1","Latitude":49.249126,"Longitude":-123.116020,"WheelchairAccess":1,"Distance":518,"Routes":"025"},{"StopNo":50419,"Name":"KING EDWARD STN BAY 4","BayNo":"4","City":"VANCOUVER","OnStreet":"KING EDWARD STN","AtStreet":"BAY 4","Latitude":49.248634,"Longitude":-123.115723,"WheelchairAccess":1,"Distance":556,"Routes":"015, 033, N15"},{"StopNo":51512,"Name":"EB W KING EDWARD AVE FS ASH ST","BayNo":"N","City":"VANCOUVER","OnStreet":"W KING EDWARD AVE","AtStreet":"ASH ST","Latitude":49.248917,"Longitude":-123.117943,"WheelchairAccess":0,"Distance":618,"Routes":"025"},{"StopNo":51516,"Name":"EB W KING EDWARD AVE FS MANITOBA ST","BayNo":"N","City":"VANCOUVER","OnStreet":"W KING EDWARD AVE","AtStreet":"MANITOBA ST","Latitude":49.248817,"Longitude":-123.107040,"WheelchairAccess":1,"Distance":621,"Routes":"025"},{"StopNo":61149,"Name":"SB CAMBIE ST FS W 14 AVE","BayNo":"N","City":"VANCOUVER","OnStreet":"CAMBIE ST","AtStreet":"W 14 AVE","Latitude":49.258461,"Longitude":-123.115196,"WheelchairAccess":1,"Distance":624,"Routes":"015, N15"},{"StopNo":50480,"Name":"NB CAMBIE ST FS W 14 AVE","BayNo":"N","City":"VANCOUVER","OnStreet":"CAMBIE ST","AtStreet":"W 14 AVE","Latitude":49.258987,"Longitude":-123.114891,"WheelchairAccess":1,"Distance":673,"Routes":"015, N15"},{"StopNo":61253,"Name":"NB CAMBIE ST FS W 27 AVE","BayNo":"N","City":"VANCOUVER","OnStreet":"CAMBIE ST","AtStreet":"W 27 AVE","Latitude":49.247292,"Longitude":-123.115173,"WheelchairAccess":1,"Distance":681,"Routes":"015, 033, N15"},{"StopNo":51572,"Name":"WB W KING EDWARD AVE FS ONTARIO ST","BayNo":"N","City":"VANCOUVER","OnStreet":"W KING EDWARD AVE","AtStreet":"ONTARIO ST","Latitude":49.248920,"Longitude":-123.105385,"WheelchairAccess":1,"Distance":695,"Routes":"025"},{"StopNo":61122,"Name":"WB W 16 AVE FS HEATHER ST","BayNo":"N","City":"VANCOUVER","OnStreet":"W 16 AVE","AtStreet":"HEATHER ST","Latitude":49.257061,"Longitude":-123.120453,"WheelchairAccess":1,"Distance":727,"Routes":"033"},{"StopNo":60335,"Name":"EB E KING EDWARD AVE FS ONTARIO ST","BayNo":"N","City":"VANCOUVER","OnStreet":"E KING EDWARD AVE","AtStreet":"ONTARIO ST","Latitude":49.248772,"Longitude":-123.104630,"WheelchairAccess":1,"Distance":747,"Routes":"025"},{"StopNo":50420,"Name":"SB CAMBIE ST FS W 27 AVE","BayNo":"N","City":"VANCOUVER","OnStreet":"CAMBIE ST","AtStreet":"W 27 AVE","Latitude":49.246788,"Longitude":-123.115814,"WheelchairAccess":1,"Distance":749,"Routes":"015, 033, N15"},{"StopNo":51575,"Name":"WB W KING EDWARD AVE FS HEATHER ST","BayNo":"N","City":"VANCOUVER","OnStreet":"W KING EDWARD AVE","AtStreet":"HEATHER ST","Latitude":49.249207,"Longitude":-123.120842,"WheelchairAccess":1,"Distance":752,"Routes":"025"},{"StopNo":61097,"Name":"EB W 16 AVE FS WILLOW ST","BayNo":"N","City":"VANCOUVER","OnStreet":"W 16 AVE","AtStreet":"WILLOW ST","Latitude":49.256969,"Longitude":-123.121574,"WheelchairAccess":1,"Distance":788,"Routes":"033"},{"StopNo":50414,"Name":"SB CAMBIE ST FS W 12 AVE","BayNo":"N","City":"VANCOUVER","OnStreet":"CAMBIE ST","AtStreet":"W 12 AVE","Latitude":49.260113,"Longitude":-123.115143,"WheelchairAccess":1,"Distance":799,"Routes":"015, N15"},{"StopNo":50244,"Name":"SB MAIN ST FS E 20 AVE","BayNo":"N","City":"VANCOUVER","OnStreet":"MAIN ST","AtStreet":"E 20 AVE","Latitude":49.252396,"Longitude":-123.101097,"WheelchairAccess":1,"Distance":827,"Routes":"003"},{"StopNo":51511,"Name":"EB W KING EDWARD AVE FS WILLOW ST","BayNo":"N","City":"VANCOUVER","OnStreet":"W KING EDWARD AVE","AtStreet":"WILLOW ST","Latitude":49.248989,"Longitude":-123.121933,"WheelchairAccess":1,"Distance":831,"Routes":"025"},{"StopNo":58307,"Name":"SB MAIN ST FS E 18 AVE","BayNo":"N","City":"VANCOUVER","OnStreet":"MAIN ST","AtStreet":"E 18 AVE","Latitude":49.254337,"Longitude":-123.100960,"WheelchairAccess":1,"Distance":843,"Routes":"003"},{"StopNo":59836,"Name":"NB MAIN ST FS E 20 AVE","BayNo":"N","City":"VANCOUVER","OnStreet":"MAIN ST","AtStreet":"E 20 AVE","Latitude":49.253227,"Longitude":-123.100761,"WheelchairAccess":1,"Distance":847,"Routes":"003"},{"StopNo":60418,"Name":"WB W 12 AVE FS CAMBIE ST","BayNo":"60418","City":"VANCOUVER","OnStreet":"W 12TH AVE","AtStreet":"CAMBIE ST","Latitude":49.260483,"Longitude":-123.115593,"WheelchairAccess":1,"Distance":847,"Routes":"017"},{"StopNo":59835,"Name":"NB MAIN ST FS E 18 AVE","BayNo":"N","City":"VANCOUVER","OnStreet":"MAIN ST","AtStreet":"E 18 AVE","Latitude":49.255005,"Longitude":-123.100983,"WheelchairAccess":1,"Distance":856,"Routes":"003"},{"StopNo":51517,"Name":"EB E KING EDWARD AVE FS QUEBEC ST","BayNo":"N","City":"VANCOUVER","OnStreet":"E KING EDWARD AVE","AtStreet":"QUEBEC ST","Latitude":49.248736,"Longitude":-123.102742,"WheelchairAccess":0,"Distance":857,"Routes":""},{"StopNo":59837,"Name":"NB MAIN ST FS E 22 AVE","BayNo":"N","City":"VANCOUVER","OnStreet":"MAIN ST","AtStreet":"E 22 AVE","Latitude":49.251453,"Longitude":-123.100868,"WheelchairAccess":1,"Distance":860,"Routes":"003"},{"StopNo":50481,"Name":"NB CAMBIE ST FS W 12 AVE","BayNo":"N","City":"VANCOUVER","OnStreet":"CAMBIE ST","AtStreet":"W 12 AVE","Latitude":49.260757,"Longitude":-123.114830,"WheelchairAccess":1,"Distance":864,"Routes":"015, 017, N15"},{"StopNo":50245,"Name":"SB MAIN ST FS E 22 AVE","BayNo":"N","City":"VANCOUVER","OnStreet":"MAIN ST","AtStreet":"E 22 AVE","Latitude":49.250675,"Longitude":-123.101089,"WheelchairAccess":1,"Distance":868,"Routes":"003"},{"StopNo":61252,"Name":"NB CAMBIE ST FS W 29 AVE","BayNo":"N","City":"VANCOUVER","OnStreet":"CAMBIE ST","AtStreet":"W 29 AVE","Latitude":49.245537,"Longitude":-123.115250,"WheelchairAccess":1,"Distance":871,"Routes":"015, 033, N15"},{"StopNo":50242,"Name":"SB MAIN ST FS E 16 AVE","BayNo":"N","City":"VANCOUVER","OnStreet":"MAIN ST","AtStreet":"E 16 AVE","Latitude":49.256252,"Longitude":-123.101387,"WheelchairAccess":1,"Distance":873,"Routes":"003"},{"StopNo":58286,"Name":"SB CAMBIE ST NS W 29 AVE","BayNo":"N","City":"VANCOUVER","OnStreet":"CAMBIE ST","AtStreet":"W 29 AVE","Latitude":49.245384,"Longitude":-123.115868,"WheelchairAccess":1,"Distance":899,"Routes":"015, N15"},{"StopNo":61099,"Name":"EB W 29 AVE FS CAMBIE ST","BayNo":"N","City":"VANCOUVER","OnStreet":"E 29 AVE","AtStreet":"CAMBIE ST","Latitude":49.245110,"Longitude":-123.114571,"WheelchairAccess":1,"Distance":907,"Routes":"033"},{"StopNo":51571,"Name":"WB E KING EDWARD AVE FS MAIN ST","BayNo":"N","City":"VANCOUVER","OnStreet":"E KING EDWARD AVE","AtStreet":"MAIN ST","Latitude":49.248867,"Longitude":-123.101631,"WheelchairAccess":1,"Distance":917,"Routes":"025"},{"StopNo":59581,"Name":"NB MAIN ST FS E 16 AVE","BayNo":"N","City":"VANCOUVER","OnStreet":"MAIN ST","AtStreet":"E 16 AVE","Latitude":49.256943,"Longitude":-123.101067,"WheelchairAccess":1,"Distance":926,"Routes":"003"},{"StopNo":50169,"Name":"NB MAIN ST FS E KING EDWARD AVE","BayNo":"N","City":"VANCOUVER","OnStreet":"MAIN ST","AtStreet":"E KING EDWARD AVE","Latitude":49.249054,"Longitude":-123.100937,"WheelchairAccess":1,"Distance":950,"Routes":"003"},{"StopNo":50246,"Name":"SB MAIN ST FS E KING EDWARD AVE","BayNo":"N","City":"VANCOUVER","OnStreet":"MAIN ST","AtStreet":"E KING EDWARD AVE","Latitude":49.248466,"Longitude":-123.101196,"WheelchairAccess":1,"Distance":967,"Routes":"003"},{"StopNo":50241,"Name":"SB MAIN ST FS E 14 AVE","BayNo":"N","City":"VANCOUVER","OnStreet":"MAIN ST","AtStreet":"E 14 AVE","Latitude":49.258083,"Longitude":-123.101303,"WheelchairAccess":1,"Distance":976,"Routes":"003"},{"StopNo":60289,"Name":"WB E KING EDWARD AVE NS MAIN ST","BayNo":"N","City":"VANCOUVER","OnStreet":"E KING EDWARD AVE","AtStreet":"MAIN ST","Latitude":49.248850,"Longitude":-123.100621,"WheelchairAccess":1,"Distance":981,"Routes":""},{"StopNo":60416,"Name":"EB W 12 AVE NS HEATHER ST","BayNo":"60416","City":"VANCOUVER","OnStreet":"W 12TH AVE","AtStreet":"HEATHER ST","Latitude":49.260395,"Longitude":-123.120308,"WheelchairAccess":1,"Distance":988,"Routes":"017"},{"StopNo":51518,"Name":"EB E KING EDWARD AVE FS MAIN ST","BayNo":"N","City":"VANCOUVER","OnStreet":"E KING EDWARD AVE","AtStreet":"MAIN ST","Latitude":49.248695,"Longitude":-123.100555,"WheelchairAccess":0,"Distance":994,"Routes":"025"},{"StopNo":60307,"Name":"BROADWAY-CITY HALL STN BAY 3 ","BayNo":"3","City":"VANCOUVER","OnStreet":"BROADWAY-CITY HALL STN","AtStreet":"BAY 3","Latitude":49.261997,"Longitude":-123.115112,"WheelchairAccess":1,"Distance":1003,"Routes":"015, 017, N15"},{"StopNo":60417,"Name":"WB W 12 AVE FS HEATHER ST","BayNo":"60417","City":"VANCOUVER","OnStreet":"W 12TH AVE","AtStreet":"HEATHER ST","Latitude":49.260555,"Longitude":-123.120407,"WheelchairAccess":1,"Distance":1007,"Routes":"017"},{"StopNo":61608,"Name":"NB MAIN ST FS E 26 AV","BayNo":"N","City":"VANCOUVER","OnStreet":"MAIN ST","AtStreet":"E 26 AVE","Latitude":49.248070,"Longitude":-123.100950,"WheelchairAccess":1,"Distance":1007,"Routes":""},{"StopNo":51576,"Name":"WB W KING EDWARD AVE FS LAUREL ST","BayNo":"N","City":"VANCOUVER","OnStreet":"W KING EDWARD AVE","AtStreet":"LAUREL ST","Latitude":49.249302,"Longitude":-123.125107,"WheelchairAccess":1,"Distance":1015,"Routes":"025"},{"StopNo":59582,"Name":"NB MAIN ST FS E 14 AVE","BayNo":"N","City":"VANCOUVER","OnStreet":"MAIN ST","AtStreet":"E 14 AVE","Latitude":49.258781,"Longitude":-123.100990,"WheelchairAccess":1,"Distance":1040,"Routes":"003"},{"StopNo":50458,"Name":"NB OAK ST FS W 20 AVE","BayNo":"N","City":"VANCOUVER","OnStreet":"OAK ST","AtStreet":"W 20 AVE","Latitude":49.253937,"Longitude":-123.127235,"WheelchairAccess":1,"Distance":1078,"Routes":"017"},{"StopNo":61027,"Name":"BROADWAY-CITY HALL STN BAY 2","BayNo":"2","City":"VANCOUVER","OnStreet":"BROADWAY-CITY HALL STN","AtStreet":"BAY 2","Latitude":49.262760,"Longitude":-123.114655,"WheelchairAccess":1,"Distance":1081,"Routes":"015, 017, N15"},{"StopNo":50457,"Name":"NB OAK ST FS W 22 AVE","BayNo":"N","City":"VANCOUVER","OnStreet":"OAK ST","AtStreet":"W 22 AVE","Latitude":49.251968,"Longitude":-123.127312,"WheelchairAccess":1,"Distance":1088,"Routes":"017"},{"StopNo":50413,"Name":"BROADWAY-CITY HALL STN BAY 3","BayNo":"3","City":"VANCOUVER","OnStreet":"BROADWAY-CITY HALL STN","AtStreet":"BAY 3","Latitude":49.262829,"Longitude":-123.115052,"WheelchairAccess":1,"Distance":1093,"Routes":""},{"StopNo":50335,"Name":"SB OAK ST FS DOUGLAS CRES","BayNo":"N","City":"VANCOUVER","OnStreet":"OAK ST","AtStreet":"DOUGLAS CRES","Latitude":49.254124,"Longitude":-123.127472,"WheelchairAccess":1,"Distance":1097,"Routes":"017"},{"StopNo":50240,"Name":"SB MAIN ST FS E 12 AVE","BayNo":"N","City":"VANCOUVER","OnStreet":"MAIN ST","AtStreet":"E 12 AVE","Latitude":49.259888,"Longitude":-123.101273,"WheelchairAccess":1,"Distance":1103,"Routes":"003"},{"StopNo":52100,"Name":"BROADWAY-CITY HALL STN BAY 6","BayNo":"6","City":"VANCOUVER","OnStreet":"BROADWAY-CITY HALL STN","AtStreet":"BAY 6","Latitude":49.263084,"Longitude":-123.113350,"WheelchairAccess":1,"Distance":1107,"Routes":"009"},{"StopNo":50876,"Name":"EB W BROADWAY FS ALBERTA ST","BayNo":"N","City":"VANCOUVER","OnStreet":"W BROADWAY","AtStreet":"ALBERTA ST","Latitude":49.263050,"Longitude":-123.110550,"WheelchairAccess":1,"Distance":1109,"Routes":""},{"StopNo":50875,"Name":"BROADWAY-CITY HALL STN BAY 1","BayNo":"1","City":"VANCOUVER","OnStreet":"BROADWAY-CITY HALL STN","AtStreet":"BAY 1","Latitude":49.263107,"Longitude":-123.114281,"WheelchairAccess":1,"Distance":1115,"Routes":"099, N9"},{"StopNo":50336,"Name":"SB OAK ST FS BALFOUR AVE","BayNo":"N","City":"VANCOUVER","OnStreet":"OAK ST","AtStreet":"BALFOUR AVE","Latitude":49.251423,"Longitude":-123.127586,"WheelchairAccess":1,"Distance":1117,"Routes":"017"},{"StopNo":61120,"Name":"WB MIDLOTHIAN AVE FS CLANCY LORANGER WAY","BayNo":"N","City":"VANCOUVER","OnStreet":"MIDLOTHIAN AVE","AtStreet":"CLANCY LORANGER WAY","Latitude":49.243313,"Longitude":-123.109291,"WheelchairAccess":1,"Distance":1117,"Routes":"033"},{"StopNo":50247,"Name":"SB MAIN ST NS E 28 AV","BayNo":"N","City":"VANCOUVER","OnStreet":"MAIN ST","AtStreet":"E 28 AVE","Latitude":49.246140,"Longitude":-123.101380,"WheelchairAccess":1,"Distance":1118,"Routes":""},{"StopNo":61369,"Name":"BROADWAY-CITY HALL STATION PLATFORM 2","BayNo":"N","City":"VANCOUVER","OnStreet":"BROADWAY-CITY HALL STATION","AtStreet":"PLATFORM 2","Latitude":49.263123,"Longitude":-123.114815,"WheelchairAccess":0,"Distance":1122,"Routes":"980"},{"StopNo":61370,"Name":"BROADWAY-CITY HALL STATION PLATFORM 1","BayNo":"N","City":"VANCOUVER","OnStreet":"BROADWAY-CITY HALL STATION","AtStreet":"PLATFORM 1","Latitude":49.263138,"Longitude":-123.114693,"WheelchairAccess":0,"Distance":1123,"Routes":"980"},{"StopNo":60006,"Name":"EB W BROADWAY FS COLUMBIA ST","BayNo":"N","City":"VANCOUVER","OnStreet":"W BROADWAY","AtStreet":"COLUMBIA ST","Latitude":49.263020,"Longitude":-123.109047,"WheelchairAccess":1,"Distance":1125,"Routes":"009, N9"},{"StopNo":50922,"Name":"BROADWAY-CITY HALL STN BAY 5","BayNo":"5","City":"VANCOUVER","OnStreet":"BROADWAY-CITY HALL STN","AtStreet":"BAY 5","Latitude":49.263294,"Longitude":-123.113274,"WheelchairAccess":1,"Distance":1130,"Routes":"009, N9"},{"StopNo":50459,"Name":"NB OAK ST FS W 17 AVE","BayNo":"N","City":"VANCOUVER","OnStreet":"OAK ST","AtStreet":"W 17 AVE","Latitude":49.256577,"Longitude":-123.127106,"WheelchairAccess":1,"Distance":1131,"Routes":"017"},{"StopNo":50921,"Name":"WB W BROADWAY FS COLUMBIA ST","BayNo":"N","City":"VANCOUVER","OnStreet":"W BROADWAY","AtStreet":"COLUMBIA ST","Latitude":49.263210,"Longitude":-123.109871,"WheelchairAccess":1,"Distance":1134,"Routes":"009, N9"},{"StopNo":61124,"Name":"WB W 16 AVE NS OAK ST","BayNo":"N","City":"VANCOUVER","OnStreet":"W 16 AVE","AtStreet":"OAK ST","Latitude":49.257179,"Longitude":-123.126877,"WheelchairAccess":1,"Distance":1140,"Routes":"033"},{"StopNo":50167,"Name":"NB MAIN ST FS E 28 AVE","BayNo":"N","City":"VANCOUVER","OnStreet":"MAIN ST","AtStreet":"E 28 AVE","Latitude":49.245968,"Longitude":-123.101105,"WheelchairAccess":1,"Distance":1146,"Routes":"003"},{"StopNo":51510,"Name":"EB W KING EDWARD AVE FS OAK ST","BayNo":"N","City":"VANCOUVER","OnStreet":"W KING EDWARD AVE","AtStreet":"OAK ST","Latitude":49.249088,"Longitude":-123.126999,"WheelchairAccess":1,"Distance":1150,"Routes":"025"},{"StopNo":50456,"Name":"NB OAK ST FS W KING EDWARD AVE","BayNo":"N","City":"VANCOUVER","OnStreet":"OAK ST","AtStreet":"W KING EDWARD AVE","Latitude":49.249634,"Longitude":-123.127357,"WheelchairAccess":1,"Distance":1152,"Routes":"017"},{"StopNo":59726,"Name":"EB W BROADWAY NS MANITOBA ST","BayNo":"N","City":"VANCOUVER","OnStreet":"W BROADWAY","AtStreet":"MANITOBA ST","Latitude":49.262970,"Longitude":-123.107330,"WheelchairAccess":1,"Distance":1153,"Routes":""},{"StopNo":50333,"Name":"SB OAK ST FS W 16 AVE","BayNo":"N","City":"VANCOUVER","OnStreet":"OAK ST","AtStreet":"W 16 AVE","Latitude":49.256752,"Longitude":-123.127350,"WheelchairAccess":1,"Distance":1155,"Routes":"017"},{"StopNo":58501,"Name":"BROADWAY-CITY HALL STN BAY 4","BayNo":"4","City":"VANCOUVER","OnStreet":"BROADWAY-CITY HALL STN","AtStreet":"BAY 4","Latitude":49.263336,"Longitude":-123.115715,"WheelchairAccess":1,"Distance":1158,"Routes":"099, N9"},{"StopNo":60414,"Name":"EB W 12 AVE FS LAUREL ST","BayNo":"60414","City":"VANCOUVER","OnStreet":"W 12TH AVE","AtStreet":"LAUREL ST","Latitude":49.260471,"Longitude":-123.123917,"WheelchairAccess":1,"Distance":1165,"Routes":"017"},{"StopNo":58269,"Name":"WB W BROADWAY NS ASH ST","BayNo":"N","City":"VANCOUVER","OnStreet":"W BROADWAY","AtStreet":"ASH ST","Latitude":49.263348,"Longitude":-123.116425,"WheelchairAccess":1,"Distance":1171,"Routes":"009"},{"StopNo":50174,"Name":"NB MAIN ST FS E 12 AVE","BayNo":"N","City":"VANCOUVER","OnStreet":"MAIN ST","AtStreet":"E 12 AVE","Latitude":49.260529,"Longitude":-123.100891,"WheelchairAccess":1,"Distance":1172,"Routes":"003"},{"StopNo":59536,"Name":"SB MAIN ST FS E 28 AVE","BayNo":"N","City":"VANCOUVER","OnStreet":"MAIN ST","AtStreet":"E 28 AVE","Latitude":49.245407,"Longitude":-123.101395,"WheelchairAccess":1,"Distance":1176,"Routes":"003"},{"StopNo":61096,"Name":"EB W 16 AVE NS OAK ST","BayNo":"N","City":"VANCOUVER","OnStreet":"W 16 AVE","AtStreet":"OAK ST","Latitude":49.256969,"Longitude":-123.127708,"WheelchairAccess":1,"Distance":1187,"Routes":"033"},{"StopNo":50482,"Name":"NB CAMBIE ST NS W 8 AVE","BayNo":"N","City":"VANCOUVER","OnStreet":"CAMBIE ST","AtStreet":"W 8 AVE","Latitude":49.263805,"Longitude":-123.114639,"WheelchairAccess":1,"Distance":1196,"Routes":"017, N15"},{"StopNo":61100,"Name":"EB MIDLOTHIAN AVE FS CLANCY LORANGER WAY","BayNo":"N","City":"VANCOUVER","OnStreet":"MIDLOTHIAN AVE","AtStreet":"CLANCY LORANGER WAY","Latitude":49.242588,"Longitude":-123.108803,"WheelchairAccess":1,"Distance":1203,"Routes":"033"},{"StopNo":50924,"Name":"WB W BROADWAY FS ASH ST","BayNo":"N","City":"VANCOUVER","OnStreet":"W BROADWAY","AtStreet":"ASH ST","Latitude":49.263359,"Longitude":-123.118095,"WheelchairAccess":1,"Distance":1207,"Routes":"009, N9"},{"StopNo":50332,"Name":"SB OAK ST FS W 14 AVE","BayNo":"N","City":"VANCOUVER","OnStreet":"OAK ST","AtStreet":"W 14 AVE","Latitude":49.258518,"Longitude":-123.126900,"WheelchairAccess":1,"Distance":1208,"Routes":"017"},{"StopNo":51577,"Name":"WB W KING EDWARD AVE FS OAK ST","BayNo":"N","City":"VANCOUVER","OnStreet":"W KING EDWARD AVE","AtStreet":"OAK ST","Latitude":49.249374,"Longitude":-123.128075,"WheelchairAccess":1,"Distance":1211,"Routes":"025"},{"StopNo":51570,"Name":"WB E KING EDWARD AVE FS PRINCE EDWARD ST","BayNo":"N","City":"VANCOUVER","OnStreet":"E KING EDWARD AVE","AtStreet":"PRINCE EDWARD ST","Latitude":49.248783,"Longitude":-123.097122,"WheelchairAccess":1,"Distance":1212,"Routes":"025"},{"StopNo":50421,"Name":"SB CAMBIE ST FS W 31 AVE","BayNo":"N","City":"VANCOUVER","OnStreet":"CAMBIE ST","AtStreet":"W 31 AVE","Latitude":49.242950,"Longitude":-123.118431,"WheelchairAccess":1,"Distance":1215,"Routes":"015, N15"},{"StopNo":60415,"Name":"WB W 12 AVE FS LAUREL ST","BayNo":"60415","City":"VANCOUVER","OnStreet":"W 12TH AVE","AtStreet":"LAUREL ST","Latitude":49.260620,"Longitude":-123.124664,"WheelchairAccess":1,"Distance":1216,"Routes":"017"},{"StopNo":50337,"Name":"SB OAK ST FS W KING EDWARD AVE","BayNo":"N","City":"VANCOUVER","OnStreet":"OAK ST","AtStreet":"W KING EDWARD AVE","Latitude":49.248653,"Longitude":-123.127716,"WheelchairAccess":1,"Distance":1217,"Routes":"017"},{"StopNo":50920,"Name":"WB W BROADWAY FS ONTARIO ST","BayNo":"N","City":"VANCOUVER","OnStreet":"W BROADWAY","AtStreet":"ONTARIO ST","Latitude":49.263100,"Longitude":-123.105293,"WheelchairAccess":1,"Distance":1222,"Routes":"009, N9"},{"StopNo":50874,"Name":"EB W BROADWAY FS HEATHER ST","BayNo":"N","City":"VANCOUVER","OnStreet":"W BROADWAY","AtStreet":"HEATHER ST","Latitude":49.263206,"Longitude":-123.119255,"WheelchairAccess":1,"Distance":1223,"Routes":"009, N9"},{"StopNo":50460,"Name":"NB OAK ST FS W 14 AVE","BayNo":"N","City":"VANCOUVER","OnStreet":"OAK ST","AtStreet":"W 14 AVE","Latitude":49.259125,"Longitude":-123.126633,"WheelchairAccess":1,"Distance":1226,"Routes":"017"},{"StopNo":50878,"Name":"EB E BROADWAY FS ONTARIO ST","BayNo":"N","City":"VANCOUVER","OnStreet":"E BROADWAY","AtStreet":"ONTARIO ST","Latitude":49.262913,"Longitude":-123.104469,"WheelchairAccess":1,"Distance":1230,"Routes":"009, N9"},{"StopNo":52099,"Name":"EB W BROADWAY NS HEATHER ST","BayNo":"N","City":"VANCOUVER","OnStreet":"W BROADWAY","AtStreet":"HEATHER ST","Latitude":49.263210,"Longitude":-123.120171,"WheelchairAccess":1,"Distance":1252,"Routes":"099"},{"StopNo":50455,"Name":"NB OAK ST FS W 27 AVE","BayNo":"N","City":"VANCOUVER","OnStreet":"OAK ST","AtStreet":"W 27 AVE","Latitude":49.247505,"Longitude":-123.127487,"WheelchairAccess":1,"Distance":1260,"Routes":"017"},{"StopNo":50925,"Name":"WB W BROADWAY FS HEATHER ST","BayNo":"N","City":"VANCOUVER","OnStreet":"W BROADWAY","AtStreet":"HEATHER ST","Latitude":49.263401,"Longitude":-123.120224,"WheelchairAccess":1,"Distance":1273,"Routes":"009, N9"},{"StopNo":60413,"Name":"EB W 12 AVE FS OAK ST","BayNo":"60413","City":"VANCOUVER","OnStreet":"W 12 AVE","AtStreet":"OAK ST","Latitude":49.260483,"Longitude":-123.126038,"WheelchairAccess":1,"Distance":1281,"Routes":"017"},{"StopNo":51519,"Name":"EB E KING EDWARD AVE FS PRINCE EDWARD ST","BayNo":"N","City":"VANCOUVER","OnStreet":"E KING EDWARD AVE","AtStreet":"PRINCE EDWARD ST","Latitude":49.248638,"Longitude":-123.096184,"WheelchairAccess":1,"Distance":1281,"Routes":"025"},{"StopNo":50412,"Name":"SB CAMBIE ST FS W 7 AVE","BayNo":"N","City":"VANCOUVER","OnStreet":"CAMBIE ST","AtStreet":"W 7 AVE","Latitude":49.264565,"Longitude":-123.114998,"WheelchairAccess":1,"Distance":1283,"Routes":"015, 017, N15"},{"StopNo":50483,"Name":"NB CAMBIE ST NS W 7 AVE","BayNo":"N","City":"VANCOUVER","OnStreet":"CAMBIE ST","AtStreet":"W 7 AVE","Latitude":49.264648,"Longitude":-123.114624,"WheelchairAccess":1,"Distance":1289,"Routes":"015, 017, N15"},{"StopNo":50873,"Name":"EB W BROADWAY FS WILLOW  ST","BayNo":"N","City":"VANCOUVER","OnStreet":"W BROADWAY","AtStreet":"WILLOW ST","Latitude":49.263229,"Longitude":-123.121292,"WheelchairAccess":1,"Distance":1292,"Routes":"009, N9"},{"StopNo":51509,"Name":"EB W KING EDWARD AVE FS OSLER ST","BayNo":"N","City":"VANCOUVER","OnStreet":"W KING EDWARD AVE","AtStreet":"OSLER ST","Latitude":49.249119,"Longitude":-123.129379,"WheelchairAccess":1,"Distance":1309,"Routes":"025"},{"StopNo":58500,"Name":"WB E BROADWAY FS MAIN ST--","BayNo":"N","City":"VANCOUVER","OnStreet":"E BROADWAY","AtStreet":"MAIN ST","Latitude":49.263058,"Longitude":-123.102676,"WheelchairAccess":1,"Distance":1310,"Routes":"099"},{"StopNo":50331,"Name":"SB OAK ST FS W 12 AVE","BayNo":"N","City":"VANCOUVER","OnStreet":"OAK ST","AtStreet":"W 12 AVE","Latitude":49.260307,"Longitude":-123.126816,"WheelchairAccess":1,"Distance":1313,"Routes":"017"},{"StopNo":50238,"Name":"SB MAIN ST FS E BROADWAY","BayNo":"N","City":"VANCOUVER","OnStreet":"MAIN ST","AtStreet":"E BROADWAY","Latitude":49.262540,"Longitude":-123.101140,"WheelchairAccess":1,"Distance":1327,"Routes":""},{"StopNo":50166,"Name":"NB MAIN ST FS E 30 AVE","BayNo":"N","City":"VANCOUVER","OnStreet":"MAIN ST","AtStreet":"E 30 AVE","Latitude":49.243553,"Longitude":-123.101234,"WheelchairAccess":1,"Distance":1341,"Routes":"003"},{"StopNo":50461,"Name":"NB OAK ST FS W 12 AVE","BayNo":"N","City":"VANCOUVER","OnStreet":"OAK ST","AtStreet":"W 12 AVE","Latitude":49.260924,"Longitude":-123.126566,"WheelchairAccess":1,"Distance":1342,"Routes":""},{"StopNo":50879,"Name":"EB E BROADWAY NS MAIN ST","BayNo":"N","City":"VANCOUVER","OnStreet":"E BROADWAY","AtStreet":"MAIN ST","Latitude":49.262830,"Longitude":-123.101340,"WheelchairAccess":1,"Distance":1344,"Routes":""},{"StopNo":50881,"Name":"WB E BROADWAY FS MAIN ST-","BayNo":"N","City":"VANCOUVER","OnStreet":"E BROADWAY","AtStreet":"MAIN ST","Latitude":49.263020,"Longitude":-123.101631,"WheelchairAccess":1,"Distance":1349,"Routes":"009, N9"},{"StopNo":50926,"Name":"WB W BROADWAY FS WILLOW ST-","BayNo":"N","City":"VANCOUVER","OnStreet":"W BROADWAY","AtStreet":"WILLOW ST","Latitude":49.263432,"Longitude":-123.122314,"WheelchairAccess":1,"Distance":1350,"Routes":"009, N9"},{"StopNo":58953,"Name":"WB E 10 AVE FS KINGSWAY","BayNo":"N","City":"VANCOUVER","OnStreet":"E 10 AVE","AtStreet":"KINGSWAY","Latitude":49.262032,"Longitude":-123.099602,"WheelchairAccess":0,"Distance":1357,"Routes":""},{"StopNo":51135,"Name":"EB KINGSWAY NS E 12 AVE","BayNo":"N","City":"VANCOUVER","OnStreet":"KINGSWAY","AtStreet":"E 12 AVE","Latitude":49.260193,"Longitude":-123.097099,"WheelchairAccess":1,"Distance":1361,"Routes":"019, N19"},{"StopNo":50338,"Name":"SB OAK ST FS NANTON AVE","BayNo":"N","City":"VANCOUVER","OnStreet":"OAK ST","AtStreet":"NANTON AVE","Latitude":49.245987,"Longitude":-123.127792,"WheelchairAccess":0,"Distance":1370,"Routes":"017"},{"StopNo":50471,"Name":"NB CAMBIE ST FS W 33 AVE","BayNo":"N","City":"VANCOUVER","OnStreet":"CAMBIE ST","AtStreet":"W 33 AVE","Latitude":49.241409,"Longitude":-123.118179,"WheelchairAccess":1,"Distance":1371,"Routes":"015, N15"},{"StopNo":58502,"Name":"WB W BROADWAY FS WILLOW ST--","BayNo":"N","City":"VANCOUVER","OnStreet":"W BROADWAY","AtStreet":"WILLOW ST","Latitude":49.263435,"Longitude":-123.122864,"WheelchairAccess":1,"Distance":1372,"Routes":"099"},{"StopNo":60517,"Name":"SB MAIN ST NS E BROADWAY","BayNo":"N","City":"VANCOUVER","OnStreet":"MAIN ST","AtStreet":"E BROADWAY","Latitude":49.263081,"Longitude":-123.101143,"WheelchairAccess":-1,"Distance":1375,"Routes":"003"},{"StopNo":50248,"Name":"SB MAIN ST FS E 30 AVE","BayNo":"N","City":"VANCOUVER","OnStreet":"MAIN ST","AtStreet":"E 30 AVE","Latitude":49.243004,"Longitude":-123.101501,"WheelchairAccess":1,"Distance":1379,"Routes":"003"},{"StopNo":52101,"Name":"EB E BROADWAY FS MAIN ST","BayNo":"N","City":"VANCOUVER","OnStreet":"E BROADWAY","AtStreet":"MAIN ST","Latitude":49.262802,"Longitude":-123.100418,"WheelchairAccess":1,"Distance":1383,"Routes":"099"},{"StopNo":51199,"Name":"WB KINGSWAY FS E 12 AVE","BayNo":"N","City":"VANCOUVER","OnStreet":"KINGSWAY","AtStreet":"E 12 AVE","Latitude":49.260170,"Longitude":-123.096664,"WheelchairAccess":1,"Distance":1385,"Routes":"019, N19"},{"StopNo":50872,"Name":"EB W BROADWAY FS LAUREL ST","BayNo":"N","City":"VANCOUVER","OnStreet":"W BROADWAY","AtStreet":"LAUREL ST","Latitude":49.263268,"Longitude":-123.123650,"WheelchairAccess":1,"Distance":1389,"Routes":"009, N9"},{"StopNo":51136,"Name":"EB KINGSWAY FS E 13 AVE","BayNo":"N","City":"VANCOUVER","OnStreet":"KINGSWAY","AtStreet":"E 13 AVE","Latitude":49.258949,"Longitude":-123.095428,"WheelchairAccess":1,"Distance":1392,"Routes":"019, N19"},{"StopNo":51569,"Name":"WB E KING EDWARD AVE FS SAINT GEORGE ST","BayNo":"N","City":"VANCOUVER","OnStreet":"E KING EDWARD AVE","AtStreet":"SAINT GEORGE ST","Latitude":49.248753,"Longitude":-123.094414,"WheelchairAccess":1,"Distance":1396,"Routes":"025"},{"StopNo":50176,"Name":"NB MAIN ST FS E BROADWAY","BayNo":"N","City":"VANCOUVER","OnStreet":"MAIN ST","AtStreet":"E BROADWAY","Latitude":49.263233,"Longitude":-123.100792,"WheelchairAccess":1,"Distance":1404,"Routes":"003"},{"StopNo":51134,"Name":"EB KINGSWAY FS E BROADWAY","BayNo":"N","City":"VANCOUVER","OnStreet":"KINGSWAY","AtStreet":"E BROADWAY","Latitude":49.262550,"Longitude":-123.099411,"WheelchairAccess":1,"Distance":1409,"Routes":"019, N19"},{"StopNo":50880,"Name":"EB E BROADWAY NS KINGSWAY","BayNo":"N","City":"VANCOUVER","OnStreet":"E BROADWAY","AtStreet":"KINGSWAY ST","Latitude":49.262779,"Longitude":-123.099815,"WheelchairAccess":1,"Distance":1409,"Routes":"009, N9"},{"StopNo":50454,"Name":"NB OAK ST FS DEVONSHIRE CRES","BayNo":"N","City":"VANCOUVER","OnStreet":"OAK ST","AtStreet":"DEVONSHIRE CRES","Latitude":49.244892,"Longitude":-123.127495,"WheelchairAccess":1,"Distance":1428,"Routes":"017"},{"StopNo":60266,"Name":"NB OAK ST NS W 10 AVE","BayNo":"N","City":"VANCOUVER","OnStreet":"OAK ST","AtStreet":"W 10 AVE","Latitude":49.262225,"Longitude":-123.126530,"WheelchairAccess":1,"Distance":1437,"Routes":""},{"StopNo":60267,"Name":"SB OAK ST FS W 10 AVE","BayNo":"N","City":"VANCOUVER","OnStreet":"OAK ST","AtStreet":"W 10 AVE","Latitude":49.262196,"Longitude":-123.126721,"WheelchairAccess":1,"Distance":1445,"Routes":""},{"StopNo":61254,"Name":"OLYMPIC VILLAGE STN BAY 3","BayNo":"3","City":"VANCOUVER","OnStreet":"OLYMPIC VILLAGE STN","AtStreet":"BAY 3","Latitude":49.265938,"Longitude":-123.116051,"WheelchairAccess":1,"Distance":1446,"Routes":"015, 050"},{"StopNo":50237,"Name":"SB MAIN ST NS E 8 AVE","BayNo":"N","City":"VANCOUVER","OnStreet":"MAIN ST","AtStreet":"E 8 AVE","Latitude":49.263880,"Longitude":-123.101090,"WheelchairAccess":1,"Distance":1449,"Routes":""},{"StopNo":50422,"Name":"SB CAMBIE ST FS W 33 AVE","BayNo":"N","City":"VANCOUVER","OnStreet":"CAMBIE ST","AtStreet":"W 33 AVE","Latitude":49.240749,"Longitude":-123.118652,"WheelchairAccess":1,"Distance":1451,"Routes":"015, N15"},{"StopNo":51520,"Name":"EB E KING EDWARD AVE FS SAINT GEORGE ST","BayNo":"N","City":"VANCOUVER","OnStreet":"E KING EDWARD AVE","AtStreet":"SAINT GEORGE ST","Latitude":49.248608,"Longitude":-123.093689,"WheelchairAccess":1,"Distance":1451,"Routes":"025"},{"StopNo":58145,"Name":"WB KINGSWAY FS E BROADWAY","BayNo":"N","City":"VANCOUVER","OnStreet":"KINGSWAY","AtStreet":"E BROADWAY","Latitude":49.263294,"Longitude":-123.099678,"WheelchairAccess":1,"Distance":1459,"Routes":"008, 019, N19, N8"},{"StopNo":50771,"Name":"EB KINGSWAY FS MAIN ST ","BayNo":"N","City":"VANCOUVER","OnStreet":"KINGSWAY","AtStreet":"MAIN ST","Latitude":49.263824,"Longitude":-123.100517,"WheelchairAccess":1,"Distance":1468,"Routes":"008, 019, N19, N8"},{"StopNo":59412,"Name":"NB OAK ST FS W 10 AVE","BayNo":"N","City":"VANCOUVER","OnStreet":"OAK ST","AtStreet":"W 10 AVE","Latitude":49.262652,"Longitude":-123.126500,"WheelchairAccess":0,"Distance":1469,"Routes":""},{"StopNo":50850,"Name":"WB E BROADWAY NS SCOTIA ST","BayNo":"N","City":"VANCOUVER","OnStreet":"E BROADWAY","AtStreet":"SCOTIA ST","Latitude":49.262924,"Longitude":-123.098694,"WheelchairAccess":1,"Distance":1475,"Routes":"008, 009, N8, N9"},{"StopNo":51198,"Name":"WB KINGSWAY FS SAINT GEORGE ST","BayNo":"N","City":"VANCOUVER","OnStreet":"KINGSWAY","AtStreet":"SAINT GEORGE ST","Latitude":49.258171,"Longitude":-123.093582,"WheelchairAccess":1,"Distance":1477,"Routes":"019, N19"},{"StopNo":61040,"Name":"OLYMPIC VILLAGE STN BAY 1","BayNo":"1","City":"VANCOUVER","OnStreet":"OLYMPIC VILLAGE STN","AtStreet":"BAY 1","Latitude":49.266247,"Longitude":-123.115944,"WheelchairAccess":1,"Distance":1479,"Routes":"015, 050, 084"},{"StopNo":59755,"Name":"WB W 6 AVE FS ASH ST","BayNo":"N","City":"VANCOUVER","OnStreet":"W 6 AVE","AtStreet":"ASH ST","Latitude":49.266014,"Longitude":-123.117966,"WheelchairAccess":1,"Distance":1486,"Routes":"050, 084"},{"StopNo":61039,"Name":"OLYMPIC VILLAGE STN BAY 2","BayNo":"2","City":"VANCOUVER","OnStreet":"OLYMPIC VILLAGE STN","AtStreet":"BAY 2","Latitude":49.266426,"Longitude":-123.114937,"WheelchairAccess":1,"Distance":1488,"Routes":"084"},{"StopNo":50772,"Name":"EB E BROADWAY FS KINGSWAY","BayNo":"N","City":"VANCOUVER","OnStreet":"E BROADWAY","AtStreet":"KINGSWAY","Latitude":49.262718,"Longitude":-123.098053,"WheelchairAccess":1,"Distance":1490,"Routes":"008, 009, N8, N9"},{"StopNo":59440,"Name":"EB W BROADWAY FS OAK ST ","BayNo":"N","City":"VANCOUVER","OnStreet":"W BROADWAY","AtStreet":"OAK ST","Latitude":49.263283,"Longitude":-123.125870,"WheelchairAccess":1,"Distance":1490,"Routes":"009, N9"},{"StopNo":61119,"Name":"WB E 33 AVE NS ONTARIO ST","BayNo":"N","City":"VANCOUVER","OnStreet":"E 33 AVE","AtStreet":"ONTARIO ST","Latitude":49.240631,"Longitude":-123.105057,"WheelchairAccess":1,"Distance":1491,"Routes":"033"},{"StopNo":50339,"Name":"SB OAK ST FS DEVONSHIRE CRES","BayNo":"N","City":"VANCOUVER","OnStreet":"OAK ST","AtStreet":"DEVONSHIRE CRES","Latitude":49.244095,"Longitude":-123.127861,"WheelchairAccess":1,"Distance":1506,"Routes":"017"},{"StopNo":61101,"Name":"EB E 33 AVE FS ONTARIO ST","BayNo":"N","City":"VANCOUVER","OnStreet":"E 33 AVE","AtStreet":"ONTARIO ST","Latitude":49.240505,"Longitude":-123.104965,"WheelchairAccess":1,"Distance":1507,"Routes":"033"},{"StopNo":61367,"Name":"OLYMPIC VILLAGE STATION PLATFORM 2","BayNo":"N","City":"VANCOUVER","OnStreet":"OLYMPIC VILLAGE STATION","AtStreet":"PLATFORM 2","Latitude":49.266590,"Longitude":-123.115494,"WheelchairAccess":0,"Distance":1511,"Routes":"980"},{"StopNo":61368,"Name":"OLYMPIC VILLAGE STATION PLATFORM 1","BayNo":"N","City":"VANCOUVER","OnStreet":"OLYMPIC VILLAGE STATION","AtStreet":"PLATFORM 1","Latitude":49.266609,"Longitude":-123.115440,"WheelchairAccess":0,"Distance":1513,"Routes":"980"},{"StopNo":50330,"Name":"SB OAK ST FS W BROADWAY","BayNo":"N","City":"VANCOUVER","OnStreet":"OAK ST","AtStreet":"W BROADWAY","Latitude":49.263054,"Longitude":-123.126731,"WheelchairAccess":1,"Distance":1513,"Routes":""},{"StopNo":51578,"Name":"WB W KING EDWARD AVE FS SELKIRK ST","BayNo":"N","City":"VANCOUVER","OnStreet":"W KING EDWARD AVE","AtStreet":"SELKIRK ST","Latitude":49.249451,"Longitude":-123.132500,"WheelchairAccess":1,"Distance":1514,"Routes":"025"},{"StopNo":59754,"Name":"EB W 6 AVE NS HEATHER ST","BayNo":"N","City":"VANCOUVER","OnStreet":"W 6 AVE","AtStreet":"HEATHER ST","Latitude":49.265831,"Longitude":-123.120148,"WheelchairAccess":1,"Distance":1517,"Routes":"084"},{"StopNo":51137,"Name":"EB KINGSWAY NS CAROLINA ST","BayNo":"N","City":"VANCOUVER","OnStreet":"KINGSWAY","AtStreet":"CAROLINA ST","Latitude":49.257420,"Longitude":-123.092369,"WheelchairAccess":1,"Distance":1531,"Routes":"019, N19"},{"StopNo":50329,"Name":"EB W BROADWAY NS OAK ST","BayNo":"N","City":"VANCOUVER","OnStreet":"W BROADWAY","AtStreet":"OAK ST","Latitude":49.263313,"Longitude":-123.126858,"WheelchairAccess":0,"Distance":1541,"Routes":""},{"StopNo":50165,"Name":"NB MAIN ST FS E 33 AVE","BayNo":"N","City":"VANCOUVER","OnStreet":"MAIN ST","AtStreet":"E 33 AVE","Latitude":49.241306,"Longitude":-123.101311,"WheelchairAccess":1,"Distance":1544,"Routes":"003"},{"StopNo":52057,"Name":"HEATHER SQUARE BAY 1","BayNo":"1","City":"VANCOUVER","OnStreet":"HEATHER SQUARE","AtStreet":"BAY 1","Latitude":49.266190,"Longitude":-123.120110,"WheelchairAccess":1,"Distance":1554,"Routes":"050"},{"StopNo":58054,"Name":"HEATHER SQUARE BAY 2","BayNo":"2","City":"VANCOUVER","OnStreet":"HEATHER SQUARE","AtStreet":"BAY 2","Latitude":49.266296,"Longitude":-123.120132,"WheelchairAccess":1,"Distance":1565,"Routes":"050"},{"StopNo":50849,"Name":"WB E BROADWAY FS PRINCE EDWARD ST","BayNo":"N","City":"VANCOUVER","OnStreet":"E BROADWAY","AtStreet":"PRINCE EDWARD ST","Latitude":49.262836,"Longitude":-123.096512,"WheelchairAccess":1,"Distance":1579,"Routes":"008, 009, N8, N9"},{"StopNo":50463,"Name":"WB W BROADWAY FS OAK ST","BayNo":"N","City":"VANCOUVER","OnStreet":"W BROADWAY","AtStreet":"OAK ST","Latitude":49.263531,"Longitude":-123.127304,"WheelchairAccess":1,"Distance":1581,"Routes":"009, 017, N9"},{"StopNo":61118,"Name":"WB E 33 AVE FS MAIN ST","BayNo":"N","City":"VANCOUVER","OnStreet":"E 33 AVE","AtStreet":"MAIN ST","Latitude":49.240578,"Longitude":-123.101929,"WheelchairAccess":1,"Distance":1592,"Routes":"033"},{"StopNo":50177,"Name":"NB MAIN ST NS E 6 AVE","BayNo":"N","City":"VANCOUVER","OnStreet":"MAIN ST","AtStreet":"E 6 AVE","Latitude":49.265339,"Longitude":-123.100685,"WheelchairAccess":1,"Distance":1601,"Routes":"003, 008, 019, N19, N8"},{"StopNo":50773,"Name":"EB E BROADWAY FS PRINCE EDWARD ST","BayNo":"N","City":"VANCOUVER","OnStreet":"E BROADWAY","AtStreet":"PRINCE EDWARD ST","Latitude":49.262455,"Longitude":-123.095528,"WheelchairAccess":1,"Distance":1605,"Routes":"008, 009, N8, N9"},{"StopNo":61150,"Name":"EB E 33 AVE NS MAIN ST","BayNo":"N","City":"VANCOUVER","OnStreet":"E 33 AVE","AtStreet":"MAIN ST","Latitude":49.240437,"Longitude":-123.101852,"WheelchairAccess":1,"Distance":1609,"Routes":"033"},{"StopNo":50779,"Name":"SB FRASER ST FS E 19 AVE","BayNo":"N","City":"VANCOUVER","OnStreet":"FRASER ST","AtStreet":"E 19 AVE","Latitude":49.253479,"Longitude":-123.090126,"WheelchairAccess":1,"Distance":1619,"Routes":"008, N8"},{"StopNo":51508,"Name":"EB W KING EDWARD AVE FS HUDSON ST","BayNo":"N","City":"VANCOUVER","OnStreet":"W KING EDWARD AVE","AtStreet":"HUDSON ST","Latitude":49.249191,"Longitude":-123.133896,"WheelchairAccess":1,"Distance":1619,"Routes":"025"},{"StopNo":50780,"Name":"SB FRASER ST FS E 21 AVE","BayNo":"N","City":"VANCOUVER","OnStreet":"FRASER ST","AtStreet":"E 21 AVE","Latitude":49.251621,"Longitude":-123.090187,"WheelchairAccess":1,"Distance":1623,"Routes":"008, N8"},{"StopNo":59292,"Name":"SB FRASER ST NS E 19 AVE","BayNo":"N","City":"VANCOUVER","OnStreet":"FRASER ST","AtStreet":"E 19 AVE","Latitude":49.253864,"Longitude":-123.090092,"WheelchairAccess":1,"Distance":1623,"Routes":""},{"StopNo":50423,"Name":"SB CAMBIE ST FS W 35 AVE","BayNo":"N","City":"VANCOUVER","OnStreet":"CAMBIE ST","AtStreet":"W 35 AVE","Latitude":49.238762,"Longitude":-123.116676,"WheelchairAccess":1,"Distance":1629,"Routes":"015, N15"},{"StopNo":50236,"Name":"SB MAIN ST FS E 5 AVE--","BayNo":"N","City":"VANCOUVER","OnStreet":"MAIN ST","AtStreet":"E 5 AVE","Latitude":49.265850,"Longitude":-123.100990,"WheelchairAccess":1,"Distance":1638,"Routes":"003"},{"StopNo":50249,"Name":"SB MAIN ST FS E 33 AVE","BayNo":"N","City":"VANCOUVER","OnStreet":"MAIN ST","AtStreet":"E 33 AVE","Latitude":49.240211,"Longitude":-123.101631,"WheelchairAccess":1,"Distance":1638,"Routes":"003"},{"StopNo":50841,"Name":"NB FRASER ST FS E 22 AVE","BayNo":"N","City":"VANCOUVER","OnStreet":"FRASER ST","AtStreet":"E 22 AVE","Latitude":49.251282,"Longitude":-123.089928,"WheelchairAccess":1,"Distance":1646,"Routes":"008, N8"},{"StopNo":50781,"Name":"SB FRASER ST FS E 23 AVE","BayNo":"N","City":"VANCOUVER","OnStreet":"FRASER ST","AtStreet":"E 23 AVE","Latitude":49.249809,"Longitude":-123.090248,"WheelchairAccess":1,"Distance":1652,"Routes":"008, N8"},{"StopNo":50778,"Name":"SB FRASER ST FS E 16 AVE","BayNo":"N","City":"VANCOUVER","OnStreet":"FRASER ST","AtStreet":"E 16 AVE","Latitude":49.256111,"Longitude":-123.090057,"WheelchairAccess":1,"Distance":1657,"Routes":"008, N8"},{"StopNo":51568,"Name":"WB E KING EDWARD AVE FS FRASER ST","BayNo":"N","City":"VANCOUVER","OnStreet":"E KING EDWARD AVE","AtStreet":"FRASER ST","Latitude":49.248726,"Longitude":-123.090591,"WheelchairAccess":0,"Distance":1660,"Routes":"025"},{"StopNo":58510,"Name":"SB MAIN ST FS E 5 AVE-","BayNo":"N","City":"VANCOUVER","OnStreet":"MAIN ST","AtStreet":"E 5 AVE","Latitude":49.266106,"Longitude":-123.100975,"WheelchairAccess":1,"Distance":1663,"Routes":"008, 019, N19, N8"},{"StopNo":51197,"Name":"WB KINGSWAY FS FRASER ST","BayNo":"N","City":"VANCOUVER","OnStreet":"KINGSWAY","AtStreet":"FRASER ST","Latitude":49.257027,"Longitude":-123.090225,"WheelchairAccess":1,"Distance":1668,"Routes":"019, N19"},{"StopNo":61985,"Name":"WB W 2 AVE FS CROWE ST","BayNo":"N","City":"VANCOUVER","OnStreet":"W 2 AVE","AtStreet":"CROWE ST","Latitude":49.268177,"Longitude":-123.111984,"WheelchairAccess":1,"Distance":1671,"Routes":"084"},{"StopNo":61125,"Name":"WB W 15 AVE FS BIRCH ST","BayNo":"N","City":"VANCOUVER","OnStreet":"W 15 AVE","AtStreet":"BIRCH ST","Latitude":49.257965,"Longitude":-123.134407,"WheelchairAccess":0,"Distance":1683,"Routes":"033"},{"StopNo":50453,"Name":"NB OAK ST FS W 33 AVE","BayNo":"N","City":"VANCOUVER","OnStreet":"OAK ST","AtStreet":"W 33 AVE","Latitude":49.241749,"Longitude":-123.127693,"WheelchairAccess":1,"Distance":1684,"Routes":"017"},{"StopNo":50464,"Name":"WB W BROADWAY FS SPRUCE ST","BayNo":"N","City":"VANCOUVER","OnStreet":"W BROADWAY","AtStreet":"SPRUCE ST","Latitude":49.263538,"Longitude":-123.129372,"WheelchairAccess":1,"Distance":1687,"Routes":"009, N9"},{"StopNo":50840,"Name":"NB FRASER ST FS E KING EDWARD AVE","BayNo":"N","City":"VANCOUVER","OnStreet":"FRASER ST","AtStreet":"E KING EDWARD AVE","Latitude":49.248974,"Longitude":-123.089996,"WheelchairAccess":1,"Distance":1693,"Routes":"008, N8"},{"StopNo":50782,"Name":"SB FRASER ST FS E KING EDWARD AVE","BayNo":"N","City":"VANCOUVER","OnStreet":"FRASER ST","AtStreet":"E KING EDWARD AVE","Latitude":49.248306,"Longitude":-123.090271,"WheelchairAccess":1,"Distance":1696,"Routes":"008, N8"},{"StopNo":50848,"Name":"WB E BROADWAY FS SAINT GEORGE ST","BayNo":"N","City":"VANCOUVER","OnStreet":"E BROADWAY","AtStreet":"SAINT GEORGE ST","Latitude":49.262592,"Longitude":-123.093956,"WheelchairAccess":1,"Distance":1703,"Routes":"008, 009, N8, N9"},{"StopNo":50178,"Name":"NB MAIN ST FS E 5 AVE","BayNo":"N","City":"VANCOUVER","OnStreet":"MAIN ST","AtStreet":"E 5 AVE","Latitude":49.266720,"Longitude":-123.100662,"WheelchairAccess":1,"Distance":1734,"Routes":"003, 008, 019, N19, N8"},{"StopNo":50341,"Name":"SB OAK ST FS W 33 AVE","BayNo":"N","City":"VANCOUVER","OnStreet":"OAK ST","AtStreet":"W 33 AVE","Latitude":49.241077,"Longitude":-123.127960,"WheelchairAccess":1,"Distance":1753,"Routes":"017"},{"StopNo":60244,"Name":"NB FRASER ST FS E 27 AVE","BayNo":"N","City":"VANCOUVER","OnStreet":"FRASER ST","AtStreet":"E 27 AVE","Latitude":49.247061,"Longitude":-123.090104,"WheelchairAccess":1,"Distance":1756,"Routes":""},{"StopNo":50469,"Name":"NB CAMBIE ST FS W 37 AVE","BayNo":"N","City":"VANCOUVER","OnStreet":"CAMBIE ST","AtStreet":"W 37 AVE","Latitude":49.237495,"Longitude":-123.115799,"WheelchairAccess":1,"Distance":1758,"Routes":"015, N15"},{"StopNo":50328,"Name":"EB W BROADWAY FS ALDER ST","BayNo":"N","City":"VANCOUVER","OnStreet":"W BROADWAY","AtStreet":"ALDER ST","Latitude":49.263382,"Longitude":-123.130981,"WheelchairAccess":1,"Distance":1763,"Routes":"009, N9"},{"StopNo":50774,"Name":"EB E BROADWAY FS SAINT GEORGE ST","BayNo":"N","City":"VANCOUVER","OnStreet":"E BROADWAY","AtStreet":"SAINT GEORGE ST","Latitude":49.262402,"Longitude":-123.092514,"WheelchairAccess":1,"Distance":1774,"Routes":"008, 009, N8, N9"},{"StopNo":59758,"Name":"EB W 2 AVE NS COLUMBIA ST","BayNo":"N","City":"VANCOUVER","OnStreet":"W 2 AVE","AtStreet":"COLUMBIA ST","Latitude":49.269028,"Longitude":-123.109734,"WheelchairAccess":1,"Distance":1776,"Routes":"084"},{"StopNo":50783,"Name":"SB FRASER ST FS E 27 AVE","BayNo":"N","City":"VANCOUVER","OnStreet":"FRASER ST","AtStreet":"E 27 AVE","Latitude":49.246304,"Longitude":-123.090309,"WheelchairAccess":1,"Distance":1777,"Routes":"008, N8"},{"StopNo":61117,"Name":"WB E 33 AVE FS PRINCE EDWARD ST","BayNo":"N","City":"VANCOUVER","OnStreet":"E 33 AVE","AtStreet":"PRINCE EDWARD ST","Latitude":49.240490,"Longitude":-123.097313,"WheelchairAccess":1,"Distance":1785,"Routes":"033"},{"StopNo":59757,"Name":"WB W 2 AVE FS COLUMBIA ST","BayNo":"N","City":"VANCOUVER","OnStreet":"W 2 AVE","AtStreet":"COLUMBIA ST","Latitude":49.269190,"Longitude":-123.109900,"WheelchairAccess":1,"Distance":1793,"Routes":""},{"StopNo":50838,"Name":"NB FRASER ST FS E 28 AVE","BayNo":"N","City":"VANCOUVER","OnStreet":"FRASER ST","AtStreet":"E 28 AVE","Latitude":49.245869,"Longitude":-123.090111,"WheelchairAccess":1,"Distance":1811,"Routes":"008, N8"},{"StopNo":50424,"Name":"SB CAMBIE ST FS W 37 AVE","BayNo":"N","City":"VANCOUVER","OnStreet":"CAMBIE ST","AtStreet":"W 37 AVE","Latitude":49.237007,"Longitude":-123.116287,"WheelchairAccess":1,"Distance":1817,"Routes":"015, N15"},{"StopNo":50465,"Name":"WB W BROADWAY FS ALDER ST","BayNo":"N","City":"VANCOUVER","OnStreet":"W BROADWAY","AtStreet":"ALDER ST","Latitude":49.263577,"Longitude":-123.131744,"WheelchairAccess":1,"Distance":1819,"Routes":"009, N9"},{"StopNo":61103,"Name":"EB E 33 AVE FS PRINCE EDWARD ST","BayNo":"N","City":"VANCOUVER","OnStreet":"E 33 AVE","AtStreet":"PRINCE EDWARD ST","Latitude":49.240341,"Longitude":-123.096512,"WheelchairAccess":1,"Distance":1834,"Routes":"033"},{"StopNo":61954,"Name":"WB W 2 AVE FS MANITOBA ST","BayNo":"N","City":"VANCOUVER","OnStreet":"W 2 AVE","AtStreet":"MANITOBA ST","Latitude":49.269375,"Longitude":-123.106995,"WheelchairAccess":1,"Distance":1847,"Routes":"084"},{"StopNo":50235,"Name":"SB MAIN ST FS E 3 AVE","BayNo":"N","City":"VANCOUVER","OnStreet":"MAIN ST","AtStreet":"E 3 AVE","Latitude":49.267998,"Longitude":-123.100945,"WheelchairAccess":1,"Distance":1850,"Routes":"003, 008, 019, N19, N8"},{"StopNo":50163,"Name":"NB MAIN ST NS E 36 AVE","BayNo":"N","City":"VANCOUVER","OnStreet":"MAIN ST","AtStreet":"E 36 AVE","Latitude":49.238022,"Longitude":-123.101501,"WheelchairAccess":1,"Distance":1860,"Routes":"003"},{"StopNo":50250,"Name":"SB MAIN ST FS E 36 AVE","BayNo":"N","City":"VANCOUVER","OnStreet":"MAIN ST","AtStreet":"E 36 AVE","Latitude":49.237881,"Longitude":-123.101715,"WheelchairAccess":1,"Distance":1867,"Routes":"003"},{"StopNo":59760,"Name":"EB E 2 AVE FS ONTARIO ST","BayNo":"N","City":"VANCOUVER","OnStreet":"E 2 AVE","AtStreet":"ONTARIO ST","Latitude":49.269127,"Longitude":-123.104156,"WheelchairAccess":1,"Distance":1875,"Routes":"084"},{"StopNo":52069,"Name":"EB LAMEY'S MILL RD AT SITKA SQUARE","BayNo":"N","City":"VANCOUVER","OnStreet":"LAMEY'S MILL RD","AtStreet":"SITKA SQUARE","Latitude":49.266319,"Longitude":-123.128700,"WheelchairAccess":1,"Distance":1881,"Routes":"050"},{"StopNo":59759,"Name":"WB W 2 AVE FS ONTARIO ST","BayNo":"N","City":"VANCOUVER","OnStreet":"W 2 AVE","AtStreet":"ONTARIO ST","Latitude":49.269360,"Longitude":-123.105040,"WheelchairAccess":1,"Distance":1881,"Routes":""},{"StopNo":50784,"Name":"SB FRASER ST FS E 29 AVE","BayNo":"N","City":"VANCOUVER","OnStreet":"FRASER ST","AtStreet":"E 29 AVE","Latitude":49.244247,"Longitude":-123.090385,"WheelchairAccess":1,"Distance":1882,"Routes":"008, N8"},{"StopNo":50452,"Name":"NB OAK ST FS AT 5100 BLOCK","BayNo":"N","City":"VANCOUVER","OnStreet":"OAK ST","AtStreet":"5100 BLOCK","Latitude":49.239258,"Longitude":-123.127769,"WheelchairAccess":1,"Distance":1904,"Routes":"017"},{"StopNo":59580,"Name":"SB MAIN ST FS E 2 AVE","BayNo":"N","City":"VANCOUVER","OnStreet":"MAIN ST","AtStreet":"E 2 AVE","Latitude":49.268688,"Longitude":-123.100898,"WheelchairAccess":1,"Distance":1920,"Routes":""},{"StopNo":52058,"Name":"WB LAMEY'S MILL RD FS SITKA SQUARE","BayNo":"N","City":"VANCOUVER","OnStreet":"LAMEY'S MILL RD","AtStreet":"SITKA SQUARE","Latitude":49.266460,"Longitude":-123.129349,"WheelchairAccess":1,"Distance":1923,"Routes":"050"},{"StopNo":58613,"Name":"WB E BROADWAY FS FRASER ST ","BayNo":"N","City":"VANCOUVER","OnStreet":"E BROADWAY","AtStreet":"FRASER ST","Latitude":49.262592,"Longitude":-123.090088,"WheelchairAccess":1,"Distance":1932,"Routes":"008, 009, 099, N8, N9"},{"StopNo":59763,"Name":"EB GREAT NORTHERN WAY FS BRUNSWICK ST ","BayNo":"N","City":"VANCOUVER","OnStreet":"GREAT NORTHERN WAY","AtStreet":"BRUNSWICK ST","Latitude":49.266747,"Longitude":-123.095825,"WheelchairAccess":1,"Distance":1933,"Routes":"084"},{"StopNo":59762,"Name":"EB E 2 AVE FS MAIN ST","BayNo":"N","City":"VANCOUVER","OnStreet":"E 2 AVE","AtStreet":"MAIN ST","Latitude":49.268684,"Longitude":-123.100067,"WheelchairAccess":1,"Distance":1946,"Routes":"084"},{"StopNo":59761,"Name":"WB E 2 AVE FS MAIN ST","BayNo":"N","City":"VANCOUVER","OnStreet":"E 2 AVE","AtStreet":"MAIN ST","Latitude":49.269283,"Longitude":-123.101219,"WheelchairAccess":1,"Distance":1970,"Routes":"084"},{"StopNo":59764,"Name":"WB GREAT NORTHERN NS PRINCE EDWARD ","BayNo":"N","City":"VANCOUVER","OnStreet":"GREAT NORTHERN WAY","AtStreet":"PRINCE EDWARD ST","Latitude":49.266890,"Longitude":-123.095260,"WheelchairAccess":1,"Distance":1972,"Routes":""},{"StopNo":58955,"Name":"NB FRASER ST FS E 31 AVE","BayNo":"N","City":"VANCOUVER","OnStreet":"FRASER ST","AtStreet":"E 31 AVE","Latitude":49.242870,"Longitude":-123.090195,"WheelchairAccess":1,"Distance":1978,"Routes":"008, N8"},{"StopNo":61684,"Name":"WB GREAT NORTHERN WAY NS THORNTON ST","BayNo":"N","City":"VANCOUVER","OnStreet":"GREAT NORTHERN WAY","AtStreet":"THORNTON ST","Latitude":49.266911,"Longitude":-123.094727,"WheelchairAccess":1,"Distance":1998,"Routes":"084"}]