[{"StopNo":61111,"Name":"WB E 33 AVE FS NANAIMO ST","BayNo":"N","City":"VANCOUVER","OnStreet":"E 33 AVE","AtStreet":"NANAIMO ST","Latitude":49.239841,"Longitude":-123.059189,"WheelchairAccess":1,"Distance":74,"Routes":"033"},{"StopNo":61109,"Name":"EB E 33 AVE FS NANAIMO ST","BayNo":"N","City":"VANCOUVER","OnStreet":"E 33 AVE","AtStreet":"NANAIMO ST","Latitude":49.239712,"Longitude":-123.058304,"WheelchairAccess":1,"Distance":76,"Routes":"033"},{"StopNo":61826,"Name":"SB CLARENDON ST FS E 33 AVE","BayNo":"N","City":"VANCOUVER","OnStreet":"CLARENDON ST","AtStreet":"E 33 AVE","Latitude":49.239445,"Longitude":-123.055534,"WheelchairAccess":1,"Distance":251,"Routes":"029"},{"StopNo":51064,"Name":"SB CLARENDON ST FS E 34 AV","BayNo":"N","City":"VANCOUVER","OnStreet":"CLARENDON ST","AtStreet":"E 34 AVE","Latitude":49.238620,"Longitude":-123.055530,"WheelchairAccess":0,"Distance":258,"Routes":""},{"StopNo":61825,"Name":"NB CLARENDON ST NS E 33 AVE","BayNo":"N","City":"VANCOUVER","OnStreet":"CLARENDON ST","AtStreet":"E 33 AVE","Latitude":49.239517,"Longitude":-123.055374,"WheelchairAccess":1,"Distance":264,"Routes":"029"},{"StopNo":50660,"Name":"EB KINGSWAY FS NANAIMO ST","BayNo":"N","City":"VANCOUVER","OnStreet":"KINGSWAY","AtStreet":"NANAIMO ST","Latitude":49.241611,"Longitude":-123.057831,"WheelchairAccess":1,"Distance":282,"Routes":"019, N19"},{"StopNo":61557,"Name":"EB KINGSWAY NS NANAIMO ST","BayNo":"N","City":"VANCOUVER","OnStreet":"KINGSWAY","AtStreet":"NANAIMO ST","Latitude":49.241940,"Longitude":-123.058610,"WheelchairAccess":1,"Distance":307,"Routes":""},{"StopNo":51816,"Name":"NB CLARENDON ST FS E 37 AVE","BayNo":"N","City":"VANCOUVER","OnStreet":"CLARENDON ST","AtStreet":"E 37 AVE","Latitude":49.237621,"Longitude":-123.055367,"WheelchairAccess":1,"Distance":315,"Routes":"029"},{"StopNo":50695,"Name":"WB KINGSWAY FS NANAIMO ST","BayNo":"N","City":"VANCOUVER","OnStreet":"KINGSWAY","AtStreet":"NANAIMO ST","Latitude":49.242199,"Longitude":-123.058502,"WheelchairAccess":1,"Distance":337,"Routes":"019, 025, N19"},{"StopNo":51526,"Name":"NB NANAIMO ST FS KINGSWAY","BayNo":"N","City":"VANCOUVER","OnStreet":"NANAIMO ST","AtStreet":"KINGSWAY","Latitude":49.242100,"Longitude":-123.057648,"WheelchairAccess":1,"Distance":338,"Routes":"025"},{"StopNo":50694,"Name":"WB KINGSWAY FS SLOCAN ST","BayNo":"N","City":"VANCOUVER","OnStreet":"KINGSWAY","AtStreet":"SLOCAN ST","Latitude":49.240311,"Longitude":-123.054367,"WheelchairAccess":1,"Distance":357,"Routes":"019, N19"},{"StopNo":61110,"Name":"SB SLOCAN ST NS KINGSWAY","BayNo":"N","City":"VANCOUVER","OnStreet":"SLOCAN ST","AtStreet":"KINGSWAY","Latitude":49.240273,"Longitude":-123.053886,"WheelchairAccess":1,"Distance":389,"Routes":"029, 033"},{"StopNo":50661,"Name":"EB KINGSWAY FS SLOCAN ST","BayNo":"N","City":"VANCOUVER","OnStreet":"KINGSWAY","AtStreet":"SLOCAN ST","Latitude":49.239689,"Longitude":-123.053635,"WheelchairAccess":1,"Distance":392,"Routes":"019, N19"},{"StopNo":50662,"Name":"NB SLOCAN ST FS KINGSWAY","BayNo":"N","City":"VANCOUVER","OnStreet":"SLOCAN ST","AtStreet":"KINGSWAY","Latitude":49.240280,"Longitude":-123.053650,"WheelchairAccess":1,"Distance":405,"Routes":"029, 033"},{"StopNo":61108,"Name":"EB E 33 AVE FS VICTORIA DR","BayNo":"N","City":"VANCOUVER","OnStreet":"E 33 AVE","AtStreet":"VICTORIA DR","Latitude":49.239826,"Longitude":-123.064842,"WheelchairAccess":1,"Distance":432,"Routes":"033"},{"StopNo":61112,"Name":"WB E 33 AVE NS VICTORIA DR","BayNo":"N","City":"VANCOUVER","OnStreet":"E 33 AVE","AtStreet":"VICTORIA DR","Latitude":49.240047,"Longitude":-123.064934,"WheelchairAccess":1,"Distance":443,"Routes":"033"},{"StopNo":51065,"Name":"SB CLARENDON ST FS E 38 AVE","BayNo":"N","City":"VANCOUVER","OnStreet":"CLARENDON ST","AtStreet":"E 38 AVE","Latitude":49.235634,"Longitude":-123.055580,"WheelchairAccess":1,"Distance":466,"Routes":"029"},{"StopNo":50656,"Name":"NB VICTORIA DR FS E 33 AVE","BayNo":"N","City":"VANCOUVER","OnStreet":"VICTORIA DR","AtStreet":"E 33 AVE","Latitude":49.240318,"Longitude":-123.065186,"WheelchairAccess":1,"Distance":468,"Routes":"020, N20"},{"StopNo":50699,"Name":"SB VICTORIA DR FS E 33 AVE","BayNo":"N","City":"VANCOUVER","OnStreet":"VICTORIA DR","AtStreet":"E 33 AVE","Latitude":49.239662,"Longitude":-123.065468,"WheelchairAccess":1,"Distance":474,"Routes":"020, N20"},{"StopNo":50655,"Name":"NB VICTORIA DR FS E 36 AVE","BayNo":"N","City":"VANCOUVER","OnStreet":"VICTORIA DR","AtStreet":"E 36 AVE","Latitude":49.237698,"Longitude":-123.065285,"WheelchairAccess":1,"Distance":487,"Routes":"020, N20"},{"StopNo":51146,"Name":"EB KINGSWAY FS GLADSTONE ST","BayNo":"N","City":"VANCOUVER","OnStreet":"KINGSWAY","AtStreet":"GLADSTONE ST","Latitude":49.243340,"Longitude":-123.061610,"WheelchairAccess":1,"Distance":500,"Routes":""},{"StopNo":60433,"Name":"WB KINGSWAY NS GLADSTONE ST","BayNo":"N","City":"VANCOUVER","OnStreet":"KINGSWAY","AtStreet":"GLADSTONE","Latitude":49.243530,"Longitude":-123.061464,"WheelchairAccess":1,"Distance":516,"Routes":""},{"StopNo":51815,"Name":"NB CLARENDON ST FS E 39 AVE","BayNo":"N","City":"VANCOUVER","OnStreet":"CLARENDON ST","AtStreet":"E 39 AVE","Latitude":49.235130,"Longitude":-123.055397,"WheelchairAccess":1,"Distance":521,"Routes":"029"},{"StopNo":50700,"Name":"SB VICTORIA DR FS E 36 AVE","BayNo":"N","City":"VANCOUVER","OnStreet":"VICTORIA DR","AtStreet":"E 36 AVE","Latitude":49.237255,"Longitude":-123.065529,"WheelchairAccess":1,"Distance":522,"Routes":"020, N20"},{"StopNo":51562,"Name":"SB NANAIMO ST FS BROCK ST","BayNo":"N","City":"VANCOUVER","OnStreet":"NANAIMO ST","AtStreet":"BROCK ST","Latitude":49.243671,"Longitude":-123.056786,"WheelchairAccess":0,"Distance":523,"Routes":"025"},{"StopNo":50657,"Name":"NB VICTORIA DR FS E 32 AVE","BayNo":"N","City":"VANCOUVER","OnStreet":"VICTORIA DR","AtStreet":"E 32 AVE","Latitude":49.241894,"Longitude":-123.065140,"WheelchairAccess":1,"Distance":539,"Routes":"020, N20"},{"StopNo":51071,"Name":"EB KINGSWAY FS WALES ST","BayNo":"N","City":"VANCOUVER","OnStreet":"KINGSWAY","AtStreet":"WALES ST","Latitude":49.238655,"Longitude":-123.051414,"WheelchairAccess":1,"Distance":552,"Routes":"019, N19"},{"StopNo":50696,"Name":"WB KINGSWAY FS GLADSTONE ST","BayNo":"N","City":"VANCOUVER","OnStreet":"KINGSWAY","AtStreet":"GLADSTONE ST","Latitude":49.243786,"Longitude":-123.062012,"WheelchairAccess":1,"Distance":557,"Routes":"019, 025, N19"},{"StopNo":61990,"Name":"EB KINGSWAY NS GLADSTONE ST","BayNo":"N","City":"VANCOUVER","OnStreet":"KINGSWAY","AtStreet":"GLADSTONE ST","Latitude":49.243690,"Longitude":-123.062340,"WheelchairAccess":1,"Distance":557,"Routes":"019, 025, N19"},{"StopNo":50663,"Name":"NB SLOCAN ST FS WARD ST","BayNo":"N","City":"VANCOUVER","OnStreet":"SLOCAN ST","AtStreet":"WARD ST","Latitude":49.241688,"Longitude":-123.052299,"WheelchairAccess":1,"Distance":559,"Routes":"029, 033"},{"StopNo":50654,"Name":"NB VICTORIA DR FS E 38 AVE","BayNo":"N","City":"VANCOUVER","OnStreet":"VICTORIA DR","AtStreet":"E 38 AVE","Latitude":49.236202,"Longitude":-123.065308,"WheelchairAccess":1,"Distance":567,"Routes":"020, N20"},{"StopNo":51527,"Name":"NB NANAIMO ST FS BROCK ST","BayNo":"N","City":"VANCOUVER","OnStreet":"NANAIMO ST","AtStreet":"BROCK ST","Latitude":49.244156,"Longitude":-123.056503,"WheelchairAccess":1,"Distance":581,"Routes":"025"},{"StopNo":50698,"Name":"SB VICTORIA DR FS E 31 AVE","BayNo":"N","City":"VANCOUVER","OnStreet":"VICTORIA DR","AtStreet":"E 31 AVE","Latitude":49.242512,"Longitude":-123.065376,"WheelchairAccess":1,"Distance":594,"Routes":"020, N20"},{"StopNo":51188,"Name":"WB KINGSWAY FS RHODES ST","BayNo":"N","City":"VANCOUVER","OnStreet":"KINGSWAY","AtStreet":"RHODES ST","Latitude":49.238600,"Longitude":-123.050730,"WheelchairAccess":1,"Distance":602,"Routes":""},{"StopNo":50693,"Name":"SB SLOCAN ST FS NORQUAY ST","BayNo":"N","City":"VANCOUVER","OnStreet":"SLOCAN ST","AtStreet":"NORQUAY ST","Latitude":49.242188,"Longitude":-123.052025,"WheelchairAccess":1,"Distance":605,"Routes":"029, 033"},{"StopNo":58302,"Name":"SB VICTORIA DR NS E 38 AVE","BayNo":"N","City":"VANCOUVER","OnStreet":"VICTORIA DR","AtStreet":"E 38 AVE","Latitude":49.235443,"Longitude":-123.065590,"WheelchairAccess":1,"Distance":636,"Routes":"020, N20"},{"StopNo":50653,"Name":"NB VICTORIA DR NS E 39 AVE","BayNo":"N","City":"VANCOUVER","OnStreet":"VICTORIA DR","AtStreet":"E 39 AVE","Latitude":49.234783,"Longitude":-123.065346,"WheelchairAccess":1,"Distance":674,"Routes":"020, N20"},{"StopNo":51066,"Name":"SB CLARENDON ST FS E 40 AVE","BayNo":"N","City":"VANCOUVER","OnStreet":"CLARENDON ST","AtStreet":"E 40 AVE","Latitude":49.233498,"Longitude":-123.055618,"WheelchairAccess":0,"Distance":678,"Routes":"029"},{"StopNo":51068,"Name":"WB E 41 AVE FS NANAIMO ST","BayNo":"N","City":"VANCOUVER","OnStreet":"E 41 AVE","AtStreet":"NANAIMO ST","Latitude":49.232925,"Longitude":-123.059250,"WheelchairAccess":1,"Distance":697,"Routes":"041"},{"StopNo":51123,"Name":"EB E 41 AVE FS NANAIMO ST","BayNo":"N","City":"VANCOUVER","OnStreet":"E 41 AVE","AtStreet":"NANAIMO ST","Latitude":49.232788,"Longitude":-123.058372,"WheelchairAccess":1,"Distance":713,"Routes":"041"},{"StopNo":51561,"Name":"SB NANAIMO ST FS E 28 AVE","BayNo":"N","City":"VANCOUVER","OnStreet":"NANAIMO ST","AtStreet":"E 28 AVE","Latitude":49.245468,"Longitude":-123.056786,"WheelchairAccess":1,"Distance":716,"Routes":"025"},{"StopNo":51814,"Name":"NB CLARENDON ST FS E 41 AVE","BayNo":"N","City":"VANCOUVER","OnStreet":"CLARENDON ST","AtStreet":"E 41 AVE","Latitude":49.233189,"Longitude":-123.055336,"WheelchairAccess":1,"Distance":717,"Routes":"029"},{"StopNo":51062,"Name":"WB KINGSWAY FS EARLES ST","BayNo":"N","City":"VANCOUVER","OnStreet":"KINGSWAY","AtStreet":"EARLES ST","Latitude":49.237873,"Longitude":-123.049126,"WheelchairAccess":1,"Distance":730,"Routes":"016, 019, N19"},{"StopNo":51067,"Name":"WB E 41 AVE FS CLARENDON ST","BayNo":"N","City":"VANCOUVER","OnStreet":"E 41 AVE","AtStreet":"CLARENDON ST","Latitude":49.232903,"Longitude":-123.055954,"WheelchairAccess":1,"Distance":732,"Routes":"041, R4"},{"StopNo":51122,"Name":"EB E 41 AVE FS GLADSTONE ST","BayNo":"N","City":"VANCOUVER","OnStreet":"E 41 AVE","AtStreet":"GLADSTONE ST","Latitude":49.232819,"Longitude":-123.061668,"WheelchairAccess":1,"Distance":735,"Routes":"041"},{"StopNo":50659,"Name":"EB KINGSWAY FS VICTORIA DR        ","BayNo":"N","City":"VANCOUVER","OnStreet":"KINGSWAY","AtStreet":"VICTORIA DR","Latitude":49.244770,"Longitude":-123.064606,"WheelchairAccess":1,"Distance":743,"Routes":"019, 025, N19"},{"StopNo":51069,"Name":"WB E 41 AVE FS GLADSTONE ST","BayNo":"N","City":"VANCOUVER","OnStreet":"E 41 AVE","AtStreet":"GLADSTONE ST","Latitude":49.232960,"Longitude":-123.062675,"WheelchairAccess":0,"Distance":743,"Routes":"041"},{"StopNo":50658,"Name":"NB VICTORIA DR NS KINGSWAY","BayNo":"N","City":"VANCOUVER","OnStreet":"VICTORIA DR","AtStreet":"KINGSWAY","Latitude":49.244827,"Longitude":-123.065041,"WheelchairAccess":1,"Distance":766,"Routes":"020, N20"},{"StopNo":50697,"Name":"SB VICTORIA DR FS KINGSWAY","BayNo":"N","City":"VANCOUVER","OnStreet":"VICTORIA DR","AtStreet":"KINGSWAY","Latitude":49.244808,"Longitude":-123.065300,"WheelchairAccess":1,"Distance":776,"Routes":"020, N20"},{"StopNo":51124,"Name":"EB E 41 AVE FS CLARENDON ST","BayNo":"N","City":"VANCOUVER","OnStreet":"E 41 AVE","AtStreet":"CLARENDON ST","Latitude":49.232754,"Longitude":-123.054810,"WheelchairAccess":1,"Distance":777,"Routes":"041, R4"},{"StopNo":51061,"Name":"NB EARLES ST FS KINGSWAY","BayNo":"N","City":"VANCOUVER","OnStreet":"EARLES ST","AtStreet":"KINGSWAY","Latitude":49.238003,"Longitude":-123.048393,"WheelchairAccess":1,"Distance":779,"Routes":"016, 026"},{"StopNo":50664,"Name":"NB SLOCAN ST FS EUCLID AVE","BayNo":"N","City":"VANCOUVER","OnStreet":"SLOCAN ST","AtStreet":"EUCLID AVE","Latitude":49.243511,"Longitude":-123.050491,"WheelchairAccess":1,"Distance":781,"Routes":"029, 033"},{"StopNo":51819,"Name":"SB CLARENDON ST FS E 41 AVE","BayNo":"N","City":"VANCOUVER","OnStreet":"CLARENDON ST","AtStreet":"E 41 AVE","Latitude":49.232506,"Longitude":-123.055435,"WheelchairAccess":1,"Distance":786,"Routes":"029"},{"StopNo":51147,"Name":"EB KINGSWAY FS EARLES ST","BayNo":"N","City":"VANCOUVER","OnStreet":"KINGSWAY","AtStreet":"EARLES ST","Latitude":49.237282,"Longitude":-123.048393,"WheelchairAccess":1,"Distance":797,"Routes":"019, 026, N19"},{"StopNo":50652,"Name":"NB VICTORIA DR FS E 41 AVE","BayNo":"N","City":"VANCOUVER","OnStreet":"VICTORIA DR","AtStreet":"E 41 AVE","Latitude":49.233150,"Longitude":-123.065407,"WheelchairAccess":1,"Distance":818,"Routes":"020, N20"},{"StopNo":51528,"Name":"NB NANAIMO ST FS E 27 AVE","BayNo":"N","City":"VANCOUVER","OnStreet":"NANAIMO ST","AtStreet":"E 27 AVE","Latitude":49.246582,"Longitude":-123.056511,"WheelchairAccess":1,"Distance":842,"Routes":"025"},{"StopNo":51121,"Name":"EB E 41 AVE FS VICTORIA DR","BayNo":"N","City":"VANCOUVER","OnStreet":"E 41 AVE","AtStreet":"VICTORIA DR","Latitude":49.232712,"Longitude":-123.065048,"WheelchairAccess":1,"Distance":844,"Routes":"041, R4"},{"StopNo":51189,"Name":"WB KINGSWAY FS VICTORIA DR","BayNo":"N","City":"VANCOUVER","OnStreet":"KINGSWAY","AtStreet":"VICTORIA DR","Latitude":49.245544,"Longitude":-123.065674,"WheelchairAccess":1,"Distance":858,"Routes":"019, 025, N19"},{"StopNo":51892,"Name":"WB E 41 AVE FS WALES ST","BayNo":"N","City":"VANCOUVER","OnStreet":"E 41 AVE","AtStreet":"WALES ST","Latitude":49.232872,"Longitude":-123.052132,"WheelchairAccess":1,"Distance":860,"Routes":"041"},{"StopNo":50692,"Name":"SB SLOCAN ST FS E 29 AVE","BayNo":"N","City":"VANCOUVER","OnStreet":"SLOCAN ST","AtStreet":"E 29 AVE","Latitude":49.244240,"Longitude":-123.050003,"WheelchairAccess":0,"Distance":860,"Routes":"029, 033"},{"StopNo":51060,"Name":"SB EARLES ST FS HORLEY ST","BayNo":"N","City":"VANCOUVER","OnStreet":"EARLES ST","AtStreet":"HORLEY ST","Latitude":49.239532,"Longitude":-123.047127,"WheelchairAccess":1,"Distance":861,"Routes":"026"},{"StopNo":61107,"Name":"EB E 33 AVE FS ARGYLE ST","BayNo":"N","City":"VANCOUVER","OnStreet":"E 33 AVE","AtStreet":"ARGYLE ST","Latitude":49.240063,"Longitude":-123.070847,"WheelchairAccess":1,"Distance":867,"Routes":"033"},{"StopNo":50702,"Name":"WB E 41 AVE FS VICTORIA DR","BayNo":"N","City":"VANCOUVER","OnStreet":"E 41 AVE","AtStreet":"VICTORIA DR","Latitude":49.232765,"Longitude":-123.066193,"WheelchairAccess":1,"Distance":886,"Routes":"R4"},{"StopNo":51070,"Name":"EB E 41 AV NS VICTORIA DR","BayNo":"N","City":"VANCOUVER","OnStreet":"E 41 AVE","AtStreet":"VICTORIA DR","Latitude":49.232560,"Longitude":-123.065970,"WheelchairAccess":1,"Distance":895,"Routes":""},{"StopNo":60402,"Name":"WB E 41 AVE FS VICTORIA DR-","BayNo":"N","City":"VANCOUVER","OnStreet":"E 41 AVE","AtStreet":"VICTORIA DR","Latitude":49.232735,"Longitude":-123.066544,"WheelchairAccess":1,"Distance":904,"Routes":"020, 041"},{"StopNo":51187,"Name":"WB KINGSWAY FS FAIRMONT ST","BayNo":"N","City":"VANCOUVER","OnStreet":"KINGSWAY","AtStreet":"FAIRMONT ST","Latitude":49.236931,"Longitude":-123.046944,"WheelchairAccess":1,"Distance":909,"Routes":"019, 026, N19"},{"StopNo":51244,"Name":"SB VICTORIA DR FS E 41 AVE","BayNo":"N","City":"VANCOUVER","OnStreet":"VICTORIA DR","AtStreet":"E 41 AVE","Latitude":49.232254,"Longitude":-123.065681,"WheelchairAccess":1,"Distance":912,"Routes":"020, N20"},{"StopNo":51125,"Name":"EB E 41 AVE FS WALES ST","BayNo":"N","City":"VANCOUVER","OnStreet":"E 41 AVE","AtStreet":"WALES ST","Latitude":49.232723,"Longitude":-123.051216,"WheelchairAccess":1,"Distance":913,"Routes":"041"},{"StopNo":51072,"Name":"NB EARLES ST FS HORLEY ST","BayNo":"N","City":"VANCOUVER","OnStreet":"EARLES ST","AtStreet":"HORLEY ST","Latitude":49.239990,"Longitude":-123.046455,"WheelchairAccess":1,"Distance":913,"Routes":"016, 026"},{"StopNo":51813,"Name":"NB CLARENDON ST FS E 43 AVE","BayNo":"N","City":"VANCOUVER","OnStreet":"CLARENDON ST","AtStreet":"E 43 AVE","Latitude":49.231190,"Longitude":-123.055122,"WheelchairAccess":0,"Distance":932,"Routes":"029"},{"StopNo":51817,"Name":"EB E 29 AVE FS SLOCAN ST","BayNo":"N","City":"VANCOUVER","OnStreet":"E 29 AVE","AtStreet":"SLOCAN ST","Latitude":49.244553,"Longitude":-123.049080,"WheelchairAccess":1,"Distance":934,"Routes":"029, 033"},{"StopNo":61113,"Name":"WB E 33 AVE NS FLEMING ST","BayNo":"N","City":"VANCOUVER","OnStreet":"E 33 AVE","AtStreet":"FLEMING ST","Latitude":49.240204,"Longitude":-123.071800,"WheelchairAccess":1,"Distance":938,"Routes":"033"},{"StopNo":51212,"Name":"NB VICTORIA DR FS E 43 AVE","BayNo":"N","City":"VANCOUVER","OnStreet":"VICTORIA DR","AtStreet":"E 43 AVE","Latitude":49.231503,"Longitude":-123.065430,"WheelchairAccess":1,"Distance":975,"Routes":"020, N20"},{"StopNo":51059,"Name":"SB EARLES ST FS EUCLID AVE","BayNo":"N","City":"VANCOUVER","OnStreet":"EARLES ST","AtStreet":"EUCLID AVE","Latitude":49.240940,"Longitude":-123.045769,"WheelchairAccess":1,"Distance":978,"Routes":"016, 026"},{"StopNo":60314,"Name":"NANAIMO STN BAY 1","BayNo":"1","City":"VANCOUVER","OnStreet":"NANAIMO STN","AtStreet":"BAY 1","Latitude":49.247982,"Longitude":-123.056488,"WheelchairAccess":1,"Distance":994,"Routes":"025"},{"StopNo":51183,"Name":"WB E 41 AVE FS EARLES ST","BayNo":"N","City":"VANCOUVER","OnStreet":"E 41 AVE","AtStreet":"EARLES ST","Latitude":49.232857,"Longitude":-123.049156,"WheelchairAccess":1,"Distance":1002,"Routes":"041"},{"StopNo":50971,"Name":"SB VICTORIA DR FS E 26 AVE","BayNo":"N","City":"VANCOUVER","OnStreet":"VICTORIA DR","AtStreet":"E 26 AVE","Latitude":49.247318,"Longitude":-123.065201,"WheelchairAccess":0,"Distance":1011,"Routes":"020, N20"},{"StopNo":61955,"Name":"EB 29 AVE AT 2700 BLOCK","BayNo":"N","City":"VANCOUVER","OnStreet":"EB 29 AVE","AtStreet":"2700 BLOCK","Latitude":49.244530,"Longitude":-123.047500,"WheelchairAccess":1,"Distance":1023,"Routes":""},{"StopNo":51073,"Name":"NB EARLES ST FS EUCLID AVE","BayNo":"N","City":"VANCOUVER","OnStreet":"EARLES ST","AtStreet":"EUCLID AVE","Latitude":49.241375,"Longitude":-123.045128,"WheelchairAccess":1,"Distance":1034,"Routes":"016, 026"},{"StopNo":57970,"Name":"NANAIMO STATION PLATFORM 2","BayNo":"N","City":"VANCOUVER","OnStreet":"NANAIMO STATION","AtStreet":"PLATFORM 2","Latitude":49.248283,"Longitude":-123.055901,"WheelchairAccess":0,"Distance":1036,"Routes":"992"},{"StopNo":50703,"Name":"WB E 41 AVE FS COMMERCIAL ST","BayNo":"N","City":"VANCOUVER","OnStreet":"E 41 AVE","AtStreet":"COMMERCIAL ST","Latitude":49.232719,"Longitude":-123.069244,"WheelchairAccess":1,"Distance":1036,"Routes":"041"},{"StopNo":57997,"Name":"NANAIMO STATION PLATFORM 1","BayNo":"N","City":"VANCOUVER","OnStreet":"NANAIMO STATION","AtStreet":"PLATFORM 1","Latitude":49.248333,"Longitude":-123.055870,"WheelchairAccess":0,"Distance":1042,"Routes":"992"},{"StopNo":51148,"Name":"EB KINGSWAY FS KILLARNEY ST","BayNo":"N","City":"VANCOUVER","OnStreet":"KINGSWAY","AtStreet":"KILLARNEY ST","Latitude":49.236160,"Longitude":-123.045334,"WheelchairAccess":1,"Distance":1046,"Routes":"019, 026, N19"},{"StopNo":51126,"Name":"EB E 41 AVE FS EARLES ST","BayNo":"N","City":"VANCOUVER","OnStreet":"E 41 AVE","AtStreet":"EARLES ST","Latitude":49.232716,"Longitude":-123.048309,"WheelchairAccess":1,"Distance":1057,"Routes":"041"},{"StopNo":51529,"Name":"NANAIMO STN BAY 2","BayNo":"2 ","City":"VANCOUVER","OnStreet":"NANAIMO STN","AtStreet":"BAY 2","Latitude":49.248518,"Longitude":-123.056140,"WheelchairAccess":1,"Distance":1058,"Routes":""},{"StopNo":50688,"Name":"NANAIMO STN BAY 3","BayNo":"3","City":"VANCOUVER","OnStreet":"NANAIMO STN","AtStreet":"BAY 3","Latitude":49.248470,"Longitude":-123.055656,"WheelchairAccess":1,"Distance":1060,"Routes":"007"},{"StopNo":51213,"Name":"NB VICTORIA DR FS E 26 AVE","BayNo":"N","City":"VANCOUVER","OnStreet":"VICTORIA DR","AtStreet":"E 26 AVE","Latitude":49.247959,"Longitude":-123.064949,"WheelchairAccess":1,"Distance":1067,"Routes":"020, N20"},{"StopNo":50651,"Name":"EB E 41 AVE FS BRUCE ST","BayNo":"N","City":"VANCOUVER","OnStreet":"E 41 AVE","AtStreet":"BRUCE ST","Latitude":49.232544,"Longitude":-123.069618,"WheelchairAccess":1,"Distance":1069,"Routes":"020, 041"},{"StopNo":51560,"Name":"NANAIMO STN BAY 2","BayNo":"2","City":"VANCOUVER","OnStreet":"NANAIMO STN","AtStreet":"BAY 2","Latitude":49.248688,"Longitude":-123.056046,"WheelchairAccess":1,"Distance":1078,"Routes":"025"},{"StopNo":57971,"Name":"29TH AVENUE STATION PLATFORM 2","BayNo":"N","City":"VANCOUVER","OnStreet":"29TH AVENUE STATION","AtStreet":"PLATFORM 2","Latitude":49.244236,"Longitude":-123.046135,"WheelchairAccess":0,"Distance":1088,"Routes":"992"},{"StopNo":51145,"Name":"EB KINGSWAY FS MILLER ST","BayNo":"N","City":"VANCOUVER","OnStreet":"KINGSWAY","AtStreet":"MILLER ST","Latitude":49.246689,"Longitude":-123.068657,"WheelchairAccess":1,"Distance":1091,"Routes":"019, 025, N19"},{"StopNo":57996,"Name":"29TH AVENUE STATION PLATFORM 1","BayNo":"N","City":"VANCOUVER","OnStreet":"29TH AVENUE STATION","AtStreet":"PLATFORM 1","Latitude":49.244308,"Longitude":-123.046082,"WheelchairAccess":0,"Distance":1096,"Routes":"992"},{"StopNo":59352,"Name":"SB NANAIMO ST NS  E 24 AVE","BayNo":"N","City":"VANCOUVER","OnStreet":"NANAIMO ST","AtStreet":"E 24 AVE","Latitude":49.248992,"Longitude":-123.056800,"WheelchairAccess":1,"Distance":1102,"Routes":""},{"StopNo":58493,"Name":"29TH AVE STN BAY 1","BayNo":"1","City":"VANCOUVER","OnStreet":"29TH AVE STATION LOOP","AtStreet":"BAY 1","Latitude":49.244410,"Longitude":-123.046040,"WheelchairAccess":1,"Distance":1104,"Routes":""},{"StopNo":51245,"Name":"SB VICTORIA DR FS E 43 AVE","BayNo":"N","City":"VANCOUVER","OnStreet":"VICTORIA DR","AtStreet":"E 43 AVE","Latitude":49.230263,"Longitude":-123.065727,"WheelchairAccess":1,"Distance":1107,"Routes":"020, N20"},{"StopNo":59351,"Name":"NB NANAIMO ST FS E 24 AVE","BayNo":"N","City":"VANCOUVER","OnStreet":"NANAIMO ST","AtStreet":"E 24 AVE","Latitude":49.249113,"Longitude":-123.056474,"WheelchairAccess":1,"Distance":1119,"Routes":""},{"StopNo":51818,"Name":"29TH AVE STN BAY 1","BayNo":"1","City":"VANCOUVER","OnStreet":"29TH AVENUE STATION","AtStreet":"BAY 1","Latitude":49.244286,"Longitude":-123.045654,"WheelchairAccess":1,"Distance":1121,"Routes":"026, 029, 033"},{"StopNo":51603,"Name":"29TH AVE STN BAY 2","BayNo":"2","City":"VANCOUVER","OnStreet":"29TH AVENUE STATION","AtStreet":"BAY 2","Latitude":49.244194,"Longitude":-123.045357,"WheelchairAccess":1,"Distance":1135,"Routes":"029"},{"StopNo":51211,"Name":"NB VICTORIA DR FS E 45 AVE","BayNo":"N","City":"VANCOUVER","OnStreet":"VICTORIA DR","AtStreet":"E 45 AVE","Latitude":49.229847,"Longitude":-123.065483,"WheelchairAccess":1,"Distance":1141,"Routes":"020, N20"},{"StopNo":51182,"Name":"WB E 41 AVE FS KILLARNEY ST","BayNo":"N","City":"VANCOUVER","OnStreet":"E 41 AVE","AtStreet":"KILLARNEY ST","Latitude":49.233028,"Longitude":-123.046379,"WheelchairAccess":1,"Distance":1143,"Routes":"041"},{"StopNo":51190,"Name":"WB KINGSWAY FS MILLER ST","BayNo":"N","City":"VANCOUVER","OnStreet":"KINGSWAY","AtStreet":"MILLER ST","Latitude":49.247135,"Longitude":-123.069107,"WheelchairAccess":1,"Distance":1150,"Routes":"019, 025, N19"},{"StopNo":51821,"Name":"SB ELLIOTT ST FS E 45 AVE","BayNo":"N","City":"VANCOUVER","OnStreet":"ELLIOTT ST","AtStreet":"E 45 AVE","Latitude":49.229145,"Longitude":-123.054924,"WheelchairAccess":1,"Distance":1155,"Routes":"029"},{"StopNo":51058,"Name":"SB EARLES ST FS VANNESS AVE","BayNo":"N","City":"VANCOUVER","OnStreet":"EARLES ST","AtStreet":"VANNESS AVE","Latitude":49.242851,"Longitude":-123.043938,"WheelchairAccess":1,"Distance":1165,"Routes":"016, 026"},{"StopNo":61616,"Name":"29TH AVE STN BAY 5","BayNo":"5","City":"VANCOUVER","OnStreet":"29TH AVENUE STATION","AtStreet":"BAY 5","Latitude":49.244392,"Longitude":-123.044987,"WheelchairAccess":1,"Distance":1169,"Routes":""},{"StopNo":51056,"Name":"29TH AVE STN BAY 3","BayNo":"3","City":"VANCOUVER","OnStreet":"29TH AVENUE STATION","AtStreet":"BAY 3","Latitude":49.244148,"Longitude":-123.044762,"WheelchairAccess":1,"Distance":1170,"Routes":"016"},{"StopNo":60208,"Name":"29TH AVE STN BAY 4","BayNo":"4","City":"VANCOUVER","OnStreet":"29TH AVENUE STATION","AtStreet":"BAY 4","Latitude":49.244438,"Longitude":-123.044479,"WheelchairAccess":1,"Distance":1203,"Routes":"026"},{"StopNo":51811,"Name":"NB ELLIOTT ST FS E 46 AVE","BayNo":"N","City":"VANCOUVER","OnStreet":"ELLIOTT ST","AtStreet":"E 46 AVE","Latitude":49.228741,"Longitude":-123.054558,"WheelchairAccess":1,"Distance":1205,"Routes":"029"},{"StopNo":51127,"Name":"EB E 41 AVE FS KILLARNEY ST","BayNo":"N","City":"VANCOUVER","OnStreet":"E 41 AVE","AtStreet":"KILLARNEY ST","Latitude":49.232891,"Longitude":-123.045425,"WheelchairAccess":1,"Distance":1207,"Routes":"041"},{"StopNo":51186,"Name":"WB KINGSWAY FS RUPERT ST","BayNo":"N","City":"VANCOUVER","OnStreet":"KINGSWAY","AtStreet":"RUPERT ST","Latitude":49.236115,"Longitude":-123.042961,"WheelchairAccess":1,"Distance":1212,"Routes":"019, 026, N19"},{"StopNo":58285,"Name":"SB VICTORIA DR FS E 45 AVE","BayNo":"N","City":"VANCOUVER","OnStreet":"VICTORIA DR","AtStreet":"E 45 AVE","Latitude":49.229137,"Longitude":-123.065750,"WheelchairAccess":1,"Distance":1221,"Routes":"020, N20"},{"StopNo":50650,"Name":"EB E 41 AVE FS FLEMING ST","BayNo":"N","City":"VANCOUVER","OnStreet":"E 41 AVE","AtStreet":"FLEMING ST","Latitude":49.232574,"Longitude":-123.072502,"WheelchairAccess":1,"Distance":1227,"Routes":"041"},{"StopNo":61106,"Name":"EB E 33 AVE FS KNIGHT ST","BayNo":"N","City":"VANCOUVER","OnStreet":"E 33 AVE","AtStreet":"KNIGHT ST","Latitude":49.240147,"Longitude":-123.075958,"WheelchairAccess":1,"Distance":1238,"Routes":"033"},{"StopNo":50687,"Name":"SB NANAIMO ST FS E 22 AVE","BayNo":"N","City":"VANCOUVER","OnStreet":"NANAIMO ST","AtStreet":"E 22 AVE","Latitude":49.250267,"Longitude":-123.056770,"WheelchairAccess":1,"Distance":1242,"Routes":"007, 025"},{"StopNo":51604,"Name":"SB RUPERT ST FS SCHOOL AVE","BayNo":"N","City":"VANCOUVER","OnStreet":"RUPERT ST","AtStreet":"SCHOOL AVE","Latitude":49.234833,"Longitude":-123.043213,"WheelchairAccess":1,"Distance":1243,"Routes":"026"},{"StopNo":51074,"Name":"NB EARLES ST NS KINGS AVE","BayNo":"N","City":"VANCOUVER","OnStreet":"EARLES ST","AtStreet":"KINGS AVE","Latitude":49.243469,"Longitude":-123.043114,"WheelchairAccess":1,"Distance":1246,"Routes":"016, 026"},{"StopNo":59094,"Name":"WB E 41 AVE FS FLEMING ST","BayNo":"N","City":"VANCOUVER","OnStreet":"E 41 AVE","AtStreet":"FLEMING ST","Latitude":49.232769,"Longitude":-123.073257,"WheelchairAccess":1,"Distance":1259,"Routes":"041"},{"StopNo":51339,"Name":"NB KNIGHT ST FS E 33 AVE","BayNo":"N","City":"VANCOUVER","OnStreet":"KNIGHT ST","AtStreet":"E 33 AVE","Latitude":49.240543,"Longitude":-123.076256,"WheelchairAccess":1,"Distance":1264,"Routes":"022"},{"StopNo":50970,"Name":"SB VICTORIA DR FS E 22 AVE","BayNo":"N","City":"VANCOUVER","OnStreet":"VICTORIA DR","AtStreet":"E 22 AVE","Latitude":49.249893,"Longitude":-123.065125,"WheelchairAccess":1,"Distance":1271,"Routes":"020, N20"},{"StopNo":51301,"Name":"SB KNIGHT ST FS E 33 AVE","BayNo":"N","City":"VANCOUVER","OnStreet":"KNIGHT ST","AtStreet":"E 33 AVE","Latitude":49.239880,"Longitude":-123.076561,"WheelchairAccess":1,"Distance":1279,"Routes":"022"},{"StopNo":50690,"Name":"EB E 22 AVE FS NANAIMO ST","BayNo":"N","City":"VANCOUVER","OnStreet":"E 22 AVE","AtStreet":"NANAIMO ST","Latitude":49.250546,"Longitude":-123.056000,"WheelchairAccess":1,"Distance":1281,"Routes":"025"},{"StopNo":51144,"Name":"EB KINGSWAY FS PERRY ST","BayNo":"N","City":"VANCOUVER","OnStreet":"KINGSWAY","AtStreet":"PERRY ST","Latitude":49.247719,"Longitude":-123.070923,"WheelchairAccess":1,"Distance":1285,"Routes":"019, 025, N19"},{"StopNo":51340,"Name":"NB KNIGHT ST FS E 32 AVE","BayNo":"N","City":"VANCOUVER","OnStreet":"KNIGHT ST","AtStreet":"E 32 AVE","Latitude":49.241989,"Longitude":-123.076225,"WheelchairAccess":0,"Distance":1290,"Routes":"022"},{"StopNo":51149,"Name":"EB KINGSWAY FS RUPERT ST","BayNo":"N","City":"VANCOUVER","OnStreet":"KINGSWAY","AtStreet":"RUPERT ST","Latitude":49.235786,"Longitude":-123.041962,"WheelchairAccess":1,"Distance":1292,"Routes":"019, N19"},{"StopNo":51181,"Name":"WB E 41 AVE FS RUPERT ST","BayNo":"N","City":"VANCOUVER","OnStreet":"E 41 AVE","AtStreet":"RUPERT ST","Latitude":49.233055,"Longitude":-123.043716,"WheelchairAccess":1,"Distance":1301,"Routes":"041, R4"},{"StopNo":61114,"Name":"WB E 33 AVE FS KNIGHT ST","BayNo":"N","City":"VANCOUVER","OnStreet":"E 33 AVE","AtStreet":"KNIGHT ST","Latitude":49.240276,"Longitude":-123.076874,"WheelchairAccess":1,"Distance":1305,"Routes":"033"},{"StopNo":51302,"Name":"SB KNIGHT ST FS E 35 AVE","BayNo":"N","City":"VANCOUVER","OnStreet":"KNIGHT ST","AtStreet":"E 35 AVE","Latitude":49.238186,"Longitude":-123.076912,"WheelchairAccess":0,"Distance":1307,"Routes":"022"},{"StopNo":51057,"Name":"SB EARLES ST FS E 29 AVE","BayNo":"N","City":"VANCOUVER","OnStreet":"EARLES ST","AtStreet":"E 29 AVE","Latitude":49.244186,"Longitude":-123.042641,"WheelchairAccess":1,"Distance":1310,"Routes":"016, 026"},{"StopNo":51338,"Name":"NB KNIGHT ST FS E 37 AVE","BayNo":"N","City":"VANCOUVER","OnStreet":"KNIGHT ST","AtStreet":"E 37 AVE","Latitude":49.237186,"Longitude":-123.076752,"WheelchairAccess":1,"Distance":1310,"Routes":"022"},{"StopNo":51300,"Name":"SB KNIGHT ST FS E 31 AVE","BayNo":"N","City":"VANCOUVER","OnStreet":"KNIGHT ST","AtStreet":"E 31 AVE","Latitude":49.242149,"Longitude":-123.076485,"WheelchairAccess":0,"Distance":1313,"Routes":"022"},{"StopNo":50666,"Name":"WB E 22 AVE FS KAMLOOPS ST","BayNo":"N","City":"VANCOUVER","OnStreet":"E 22 AVE","AtStreet":"KAMLOOPS ST","Latitude":49.250748,"Longitude":-123.055069,"WheelchairAccess":0,"Distance":1316,"Routes":"025"},{"StopNo":51055,"Name":"WB E 29 AVE FS NOOTKA ST","BayNo":"N","City":"VANCOUVER","OnStreet":"E 29 AVE","AtStreet":"NOOTKA ST","Latitude":49.244625,"Longitude":-123.042763,"WheelchairAccess":0,"Distance":1323,"Routes":"016, 026"},{"StopNo":50715,"Name":"NB NANAIMO ST FS E 22 AVE","BayNo":"N","City":"VANCOUVER","OnStreet":"NANAIMO ST","AtStreet":"E 22 AVE","Latitude":49.251053,"Longitude":-123.056488,"WheelchairAccess":1,"Distance":1332,"Routes":"007"},{"StopNo":51670,"Name":"NB RUPERT ST FS E 41 AVE","BayNo":"N","City":"VANCOUVER","OnStreet":"RUPERT ST","AtStreet":"E 41 AVE","Latitude":49.233276,"Longitude":-123.042999,"WheelchairAccess":1,"Distance":1333,"Routes":"026"},{"StopNo":51215,"Name":"NB VICTORIA DR FS E 22 AVE","BayNo":"N","City":"VANCOUVER","OnStreet":"VICTORIA DR","AtStreet":"E 22 AVE","Latitude":49.250595,"Longitude":-123.064896,"WheelchairAccess":1,"Distance":1339,"Routes":"020, N20"},{"StopNo":51303,"Name":"SB KNIGHT ST FS E 37 AVE","BayNo":"N","City":"VANCOUVER","OnStreet":"KNIGHT ST","AtStreet":"E 37 AVE","Latitude":49.236523,"Longitude":-123.077065,"WheelchairAccess":1,"Distance":1346,"Routes":"022"},{"StopNo":51185,"Name":"WB KINGSWAY FS SPENCER ST","BayNo":"N","City":"VANCOUVER","OnStreet":"KINGSWAY","AtStreet":"SPENCER ST","Latitude":49.235931,"Longitude":-123.041046,"WheelchairAccess":1,"Distance":1351,"Routes":"019, N19"},{"StopNo":51822,"Name":"SB ELLIOTT ST FS E 47 AVE","BayNo":"N","City":"VANCOUVER","OnStreet":"ELLIOTT ST","AtStreet":"E 47 AVE","Latitude":49.227337,"Longitude":-123.054779,"WheelchairAccess":1,"Distance":1352,"Routes":"029"},{"StopNo":51341,"Name":"NB KNIGHT ST FS E 30 AVE","BayNo":"N","City":"VANCOUVER","OnStreet":"KNIGHT ST","AtStreet":"E 30 AVE","Latitude":49.244049,"Longitude":-123.076164,"WheelchairAccess":0,"Distance":1360,"Routes":"022"},{"StopNo":51605,"Name":"SB RUPERT ST FS E 41 AVE","BayNo":"N","City":"VANCOUVER","OnStreet":"RUPERT ST","AtStreet":"E 41 AVE","Latitude":49.232544,"Longitude":-123.043198,"WheelchairAccess":1,"Distance":1363,"Routes":"026"},{"StopNo":50691,"Name":"EB E 22 AVE FS PENTICTON ST","BayNo":"N","City":"VANCOUVER","OnStreet":"E 22 AVE","AtStreet":"PENTICTON ST","Latitude":49.250568,"Longitude":-123.051758,"WheelchairAccess":1,"Distance":1370,"Routes":"025"},{"StopNo":51337,"Name":"NB KNIGHT ST FS E 39 AVE","BayNo":"N","City":"VANCOUVER","OnStreet":"KNIGHT ST","AtStreet":"E 39 AVE","Latitude":49.235111,"Longitude":-123.076813,"WheelchairAccess":0,"Distance":1372,"Routes":"022"},{"StopNo":51812,"Name":"NB ELLIOTT ST FS WAVERLEY AVE","BayNo":"N","City":"VANCOUVER","OnStreet":"ELLIOTT ST","AtStreet":"WAVERLEY AVE","Latitude":49.227112,"Longitude":-123.054588,"WheelchairAccess":1,"Distance":1380,"Routes":"029"},{"StopNo":51128,"Name":"EB E 41 AVE FS RUPERT ST","BayNo":"N","City":"VANCOUVER","OnStreet":"E 41 AVE","AtStreet":"RUPERT ST","Latitude":49.232880,"Longitude":-123.042557,"WheelchairAccess":1,"Distance":1383,"Routes":"041, R4"},{"StopNo":51299,"Name":"SB KNIGHT ST FS E 29 AVE","BayNo":"N","City":"VANCOUVER","OnStreet":"KNIGHT ST","AtStreet":"E 29 AVE","Latitude":49.244205,"Longitude":-123.076424,"WheelchairAccess":1,"Distance":1384,"Routes":"022"},{"StopNo":51210,"Name":"NB VICTORIA DR FS WAVERLEY AVE","BayNo":"N","City":"VANCOUVER","OnStreet":"VICTORIA DR","AtStreet":"WAVERLEY AVE","Latitude":49.227467,"Longitude":-123.065559,"WheelchairAccess":1,"Distance":1388,"Routes":"020, N20"},{"StopNo":58312,"Name":"NB NOOTKA ST FS E 29 AVE","BayNo":"N","City":"VANCOUVER","OnStreet":"NOOTKA ST","AtStreet":"E 29 AVE","Latitude":49.244934,"Longitude":-123.041718,"WheelchairAccess":0,"Distance":1406,"Routes":"016"},{"StopNo":51304,"Name":"SB KNIGHT ST FS E 39 AVE","BayNo":"N","City":"VANCOUVER","OnStreet":"KNIGHT ST","AtStreet":"E 39 AVE","Latitude":49.234470,"Longitude":-123.077103,"WheelchairAccess":0,"Distance":1417,"Routes":"022"},{"StopNo":50665,"Name":"WB E 22 AVE FS SLOCAN ST","BayNo":"N","City":"VANCOUVER","OnStreet":"E 22 AVE","AtStreet":"SLOCAN ST","Latitude":49.250755,"Longitude":-123.050468,"WheelchairAccess":1,"Distance":1427,"Routes":"025"},{"StopNo":50686,"Name":"SB NANAIMO ST FS E 20 AVE","BayNo":"N","City":"VANCOUVER","OnStreet":"NANAIMO ST","AtStreet":"E 20 AVE","Latitude":49.252026,"Longitude":-123.056770,"WheelchairAccess":1,"Distance":1437,"Routes":"007"},{"StopNo":51342,"Name":"NB KNIGHT ST FS E 28 AVE","BayNo":"N","City":"VANCOUVER","OnStreet":"KNIGHT ST","AtStreet":"E 28 AVE","Latitude":49.245777,"Longitude":-123.076103,"WheelchairAccess":1,"Distance":1443,"Routes":"022"},{"StopNo":51669,"Name":"NB RUPERT ST FS E 43 AVE","BayNo":"N","City":"VANCOUVER","OnStreet":"RUPERT ST","AtStreet":"E 43 AVE","Latitude":49.231365,"Longitude":-123.042992,"WheelchairAccess":1,"Distance":1450,"Routes":"026"},{"StopNo":51530,"Name":"EB E 22 AVE FS SLOCAN ST","BayNo":"N","City":"VANCOUVER","OnStreet":"E 22 AVE","AtStreet":"SLOCAN ST","Latitude":49.250568,"Longitude":-123.049110,"WheelchairAccess":1,"Distance":1454,"Routes":"025"},{"StopNo":51054,"Name":"SB NOOTKA ST FS E 27 AVE","BayNo":"N","City":"VANCOUVER","OnStreet":"NOOTKA ST","AtStreet":"E 27 AVE","Latitude":49.245934,"Longitude":-123.041725,"WheelchairAccess":0,"Distance":1460,"Routes":"016"},{"StopNo":51563,"Name":"WB E KING EDWARD AVE FS KINGSWAY","BayNo":"N","City":"VANCOUVER","OnStreet":"E KING EDWARD AVE","AtStreet":"KINGSWAY","Latitude":49.248539,"Longitude":-123.073105,"WheelchairAccess":1,"Distance":1461,"Routes":"025"},{"StopNo":50649,"Name":"EB E 41 AVE FS KNIGHT ST","BayNo":"N","City":"VANCOUVER","OnStreet":"E 41 AVE","AtStreet":"KNIGHT ST","Latitude":49.232600,"Longitude":-123.076430,"WheelchairAccess":1,"Distance":1464,"Routes":""},{"StopNo":51336,"Name":"NB KNIGHT ST FS E 41 AVE","BayNo":"N","City":"VANCOUVER","OnStreet":"KNIGHT ST","AtStreet":"E 41 AVE","Latitude":49.233089,"Longitude":-123.076851,"WheelchairAccess":1,"Distance":1464,"Routes":"022"},{"StopNo":51143,"Name":"EB KINGSWAY FS DUMFRIES ST","BayNo":"N","City":"VANCOUVER","OnStreet":"KINGSWAY","AtStreet":"DUMFRIES ST","Latitude":49.248661,"Longitude":-123.072990,"WheelchairAccess":1,"Distance":1465,"Routes":"019, N19"},{"StopNo":51246,"Name":"SB VICTORIA DR FS WAVERLEY AVE","BayNo":"N","City":"VANCOUVER","OnStreet":"VICTORIA DR","AtStreet":"WAVERLEY AVE","Latitude":49.226692,"Longitude":-123.065819,"WheelchairAccess":1,"Distance":1476,"Routes":"020, N20"},{"StopNo":51192,"Name":"WB KINGSWAY NS DUMFRIES ST","BayNo":"N","City":"VANCOUVER","OnStreet":"KINGSWAY","AtStreet":"DUMFRIES ST","Latitude":49.248894,"Longitude":-123.072899,"WheelchairAccess":1,"Distance":1479,"Routes":"019, N19"},{"StopNo":51606,"Name":"SB RUPERT ST FS E 43 AVE","BayNo":"N","City":"VANCOUVER","OnStreet":"RUPERT ST","AtStreet":"E 43 AVE","Latitude":49.230766,"Longitude":-123.043213,"WheelchairAccess":1,"Distance":1479,"Routes":"026"},{"StopNo":51298,"Name":"SB KNIGHT ST FS E 27 AVE","BayNo":"N","City":"VANCOUVER","OnStreet":"KNIGHT ST","AtStreet":"E 27 AVE","Latitude":49.246140,"Longitude":-123.076370,"WheelchairAccess":0,"Distance":1481,"Routes":"022"},{"StopNo":51180,"Name":"WB E 41 AVE FS KERR ST","BayNo":"N","City":"VANCOUVER","OnStreet":"E 41 AVE","AtStreet":"KERR ST","Latitude":49.233032,"Longitude":-123.040741,"WheelchairAccess":1,"Distance":1490,"Routes":"041"},{"StopNo":50716,"Name":"NB NANAIMO ST FS E 20 AVE","BayNo":"N","City":"VANCOUVER","OnStreet":"NANAIMO ST","AtStreet":"E 20 AVE","Latitude":49.252689,"Longitude":-123.056480,"WheelchairAccess":1,"Distance":1512,"Routes":"007"},{"StopNo":61135,"Name":"EB E 33 AVE FS INVERNESS ST","BayNo":"N","City":"VANCOUVER","OnStreet":"E 33 AVE","AtStreet":"INVERNESS ST","Latitude":49.240162,"Longitude":-123.079788,"WheelchairAccess":1,"Distance":1515,"Routes":"033"},{"StopNo":51559,"Name":"WB E 22 AVE FS KASLO ST","BayNo":"N","City":"VANCOUVER","OnStreet":"E 22 AVE","AtStreet":"KASLO ST","Latitude":49.250740,"Longitude":-123.047585,"WheelchairAccess":1,"Distance":1528,"Routes":"025"},{"StopNo":51305,"Name":"SB KNIGHT ST FS E 41 AVE","BayNo":"N","City":"VANCOUVER","OnStreet":"KNIGHT ST","AtStreet":"E 41 AVE","Latitude":49.232304,"Longitude":-123.077225,"WheelchairAccess":1,"Distance":1530,"Routes":"022"},{"StopNo":50706,"Name":"WB E 41 AVE FS KNIGHT ST","BayNo":"N","City":"VANCOUVER","OnStreet":"E 41 AVE","AtStreet":"KNIGHT ST","Latitude":49.232838,"Longitude":-123.077713,"WheelchairAccess":1,"Distance":1533,"Routes":"041, R4"},{"StopNo":51531,"Name":"EB E 22 AVE FS KASLO ST","BayNo":"N","City":"VANCOUVER","OnStreet":"E 22 AVE","AtStreet":"KASLO ST","Latitude":49.250546,"Longitude":-123.046616,"WheelchairAccess":1,"Distance":1549,"Routes":"025"},{"StopNo":51129,"Name":"EB E 41 AVE FS KERR ST","BayNo":"N","City":"VANCOUVER","OnStreet":"E 41 AVE","AtStreet":"KERR ST","Latitude":49.232891,"Longitude":-123.039825,"WheelchairAccess":1,"Distance":1557,"Routes":"041"},{"StopNo":51075,"Name":"NB NOOTKA ST FS E 26 AVE","BayNo":"N","City":"VANCOUVER","OnStreet":"NOOTKA ST","AtStreet":"E 26 AVE","Latitude":49.247360,"Longitude":-123.041534,"WheelchairAccess":1,"Distance":1559,"Routes":"016"},{"StopNo":50648,"Name":"EB E 41 AVE NS KNIGHT ST","BayNo":"N","City":"VANCOUVER","OnStreet":"E 41 AVE","AtStreet":"KNIGHT ST","Latitude":49.232616,"Longitude":-123.077957,"WheelchairAccess":1,"Distance":1560,"Routes":"041, R4"},{"StopNo":52016,"Name":"WB E 49 AVE FS NANAIMO ST","BayNo":"N","City":"VANCOUVER","OnStreet":"E 49 AVE","AtStreet":"NANAIMO ST","Latitude":49.225117,"Longitude":-123.059608,"WheelchairAccess":1,"Distance":1565,"Routes":"049"},{"StopNo":51053,"Name":"SB NOOTKA ST FS E 25 AVE","BayNo":"N","City":"VANCOUVER","OnStreet":"NOOTKA ST","AtStreet":"E 25 AVE","Latitude":49.247620,"Longitude":-123.041718,"WheelchairAccess":1,"Distance":1565,"Routes":"016"},{"StopNo":51668,"Name":"NB RUPERT ST FS E 45 AVE","BayNo":"N","City":"VANCOUVER","OnStreet":"RUPERT ST","AtStreet":"E 45 AVE","Latitude":49.229626,"Longitude":-123.043007,"WheelchairAccess":1,"Distance":1573,"Routes":"026"},{"StopNo":61134,"Name":"WB E 33 AVE FS INVERNESS ST","BayNo":"N","City":"VANCOUVER","OnStreet":"E 33 AVE","AtStreet":"INVERNESS ST","Latitude":49.240295,"Longitude":-123.080643,"WheelchairAccess":1,"Distance":1578,"Routes":"033"},{"StopNo":51184,"Name":"WB KINGSWAY FS MCKINNON ST","BayNo":"N","City":"VANCOUVER","OnStreet":"KINGSWAY","AtStreet":"MCKINNON ST","Latitude":49.235237,"Longitude":-123.038055,"WheelchairAccess":1,"Distance":1581,"Routes":"019, N19"},{"StopNo":51985,"Name":"EB E 49 AVE FS NANAIMO ST","BayNo":"N","City":"VANCOUVER","OnStreet":"E 49 AVE","AtStreet":"NANAIMO ST","Latitude":49.224949,"Longitude":-123.058731,"WheelchairAccess":1,"Distance":1583,"Routes":"049"},{"StopNo":52017,"Name":"WB E 49 AVE FS GLADSTONE ST","BayNo":"N","City":"VANCOUVER","OnStreet":"E 49 AVE","AtStreet":"GLADSTONE ST","Latitude":49.225185,"Longitude":-123.062950,"WheelchairAccess":1,"Distance":1583,"Routes":"049"},{"StopNo":61831,"Name":"WB KING EDWARD AV NS KNIGHT ST","BayNo":"N","City":"BURNABY","OnStreet":"E KING EDWARD AVE","AtStreet":"KNIGHT ST","Latitude":49.248600,"Longitude":-123.075380,"WheelchairAccess":0,"Distance":1585,"Routes":""},{"StopNo":51984,"Name":"EB E 49 AVE FS GLADSTONE ST","BayNo":"N","City":"VANCOUVER","OnStreet":"E 49 AVE","AtStreet":"GLADSTONE ST","Latitude":49.225037,"Longitude":-123.061874,"WheelchairAccess":1,"Distance":1587,"Routes":"049"},{"StopNo":51525,"Name":"EB E KING EDWARD AVE FS KNIGHT ST","BayNo":"N","City":"VANCOUVER","OnStreet":"E KING EDWARD AVE","AtStreet":"KNIGHT ST","Latitude":49.248428,"Longitude":-123.075676,"WheelchairAccess":1,"Distance":1589,"Routes":"025"},{"StopNo":51810,"Name":"NB ELLIOTT ST FS E 49 AVE","BayNo":"N","City":"VANCOUVER","OnStreet":"ELLIOTT ST","AtStreet":"E 49 AVE","Latitude":49.225178,"Longitude":-123.054619,"WheelchairAccess":1,"Distance":1590,"Routes":"029"},{"StopNo":50968,"Name":"SB VICTORIA DR FS VICTORIA DIVERSION","BayNo":"N","City":"VANCOUVER","OnStreet":"VICTORIA DR","AtStreet":"VICTORIA DIVERSION","Latitude":49.252728,"Longitude":-123.066109,"WheelchairAccess":1,"Distance":1592,"Routes":"020, N20"},{"StopNo":51335,"Name":"NB KNIGHT ST FS E 43 AVE","BayNo":"N","City":"VANCOUVER","OnStreet":"KNIGHT ST","AtStreet":"E 43 AVE","Latitude":49.230965,"Longitude":-123.076958,"WheelchairAccess":0,"Distance":1594,"Routes":"022"},{"StopNo":51209,"Name":"NB VICTORIA DR FS E 49 AVE","BayNo":"N","City":"VANCOUVER","OnStreet":"VICTORIA DR","AtStreet":"E 49 AVE","Latitude":49.225456,"Longitude":-123.065605,"WheelchairAccess":1,"Distance":1601,"Routes":"020, N20"},{"StopNo":51297,"Name":"SB KNIGHT ST FS E KING EDWARD AVE","BayNo":"N","City":"VANCOUVER","OnStreet":"KNIGHT ST","AtStreet":"E KING EDWARD AVE","Latitude":49.248154,"Longitude":-123.076302,"WheelchairAccess":1,"Distance":1605,"Routes":"022"},{"StopNo":51607,"Name":"SB RUPERT ST FS E 45 AVE","BayNo":"N","City":"VANCOUVER","OnStreet":"RUPERT ST","AtStreet":"E 45 AVE","Latitude":49.228962,"Longitude":-123.043213,"WheelchairAccess":1,"Distance":1613,"Routes":"026"},{"StopNo":52015,"Name":"WB E 49 AVE FS ELLIOTT ST","BayNo":"N","City":"VANCOUVER","OnStreet":"E 49 AVE","AtStreet":"ELLIOTT ST","Latitude":49.224888,"Longitude":-123.055168,"WheelchairAccess":1,"Distance":1614,"Routes":"049, 430"},{"StopNo":52018,"Name":"WB E 49 AVE NS VICTORIA DR","BayNo":"N","City":"VANCOUVER","OnStreet":"E 49 AVE","AtStreet":"VICTORIA DR","Latitude":49.225239,"Longitude":-123.065361,"WheelchairAccess":1,"Distance":1619,"Routes":"049, 430"},{"StopNo":51983,"Name":"EB E 49 AVE FS VICTORIA DR","BayNo":"N","City":"VANCOUVER","OnStreet":"E 49 AVE","AtStreet":"VICTORIA DR","Latitude":49.225105,"Longitude":-123.065262,"WheelchairAccess":1,"Distance":1631,"Routes":"049, 430"},{"StopNo":51150,"Name":"EB KINGSWAY FS MCKINNON ST","BayNo":"N","City":"VANCOUVER","OnStreet":"KINGSWAY","AtStreet":"MCKINNON ST","Latitude":49.234791,"Longitude":-123.037514,"WheelchairAccess":1,"Distance":1633,"Routes":"019, N19"},{"StopNo":51343,"Name":"NB KNIGHT ST FS E KING EDWARD AVE","BayNo":"N","City":"VANCOUVER","OnStreet":"KNIGHT ST","AtStreet":"E KING EDWARD AVE","Latitude":49.248848,"Longitude":-123.075935,"WheelchairAccess":1,"Distance":1634,"Routes":"022"},{"StopNo":51987,"Name":"EB E 49 AVE FS ELLIOTT ST","BayNo":"N","City":"VANCOUVER","OnStreet":"E 49 AVE","AtStreet":"ELLIOTT ST","Latitude":49.224743,"Longitude":-123.054298,"WheelchairAccess":1,"Distance":1642,"Routes":"049, 430"},{"StopNo":51052,"Name":"SB BOYD DIVERSION FS E 22 AVE","BayNo":"N","City":"VANCOUVER","OnStreet":"BOYD DIVERSION","AtStreet":"E 22 AVE","Latitude":49.250324,"Longitude":-123.044014,"WheelchairAccess":1,"Distance":1647,"Routes":"016"},{"StopNo":52014,"Name":"WB E 49 AVE FS WALES ST","BayNo":"N","City":"VANCOUVER","OnStreet":"E 49 AVE","AtStreet":"WALES ST","Latitude":49.224873,"Longitude":-123.052887,"WheelchairAccess":1,"Distance":1652,"Routes":"049"},{"StopNo":51564,"Name":"WB E KING EDWARD AVE FS KNIGHT ST","BayNo":"N","City":"VANCOUVER","OnStreet":"E KING EDWARD AVE","AtStreet":"KNIGHT ST","Latitude":49.248608,"Longitude":-123.076584,"WheelchairAccess":1,"Distance":1653,"Routes":"025"},{"StopNo":51824,"Name":"SB ELLIOTT ST FS E 49 AVE","BayNo":"N","City":"VANCOUVER","OnStreet":"ELLIOTT ST","AtStreet":"E 49 AVE","Latitude":49.224552,"Longitude":-123.054886,"WheelchairAccess":1,"Distance":1654,"Routes":"029"},{"StopNo":51306,"Name":"SB KNIGHT ST FS E 43 AVE","BayNo":"N","City":"VANCOUVER","OnStreet":"KNIGHT ST","AtStreet":"E 43 AVE","Latitude":49.230316,"Longitude":-123.077255,"WheelchairAccess":0,"Distance":1654,"Routes":"022"},{"StopNo":51077,"Name":"NB BOYD DIVERSION NS E 22 AVE","BayNo":"N","City":"VANCOUVER","OnStreet":"BOYD DIVERSION","AtStreet":"E 22 AVE","Latitude":49.250252,"Longitude":-123.043625,"WheelchairAccess":1,"Distance":1660,"Routes":"016"},{"StopNo":51216,"Name":"NB VICTORIA DIVERSION FS VICTORIA DR","BayNo":"N","City":"VANCOUVER","OnStreet":"VICTORIA DIVERSION","AtStreet":"VICTORIA DR","Latitude":49.253273,"Longitude":-123.066574,"WheelchairAccess":1,"Distance":1661,"Routes":"020, N20"},{"StopNo":52019,"Name":"WB E 49 AVE FS BEATRICE ST","BayNo":"N","City":"VANCOUVER","OnStreet":"E 49 AVE","AtStreet":"BEATRICE ST","Latitude":49.225262,"Longitude":-123.067535,"WheelchairAccess":1,"Distance":1668,"Routes":"049"},{"StopNo":51248,"Name":"SB VICTORIA DR FS E 49 AVE","BayNo":"N","City":"VANCOUVER","OnStreet":"VICTORIA DR","AtStreet":"E 49 AVE","Latitude":49.224857,"Longitude":-123.065872,"WheelchairAccess":1,"Distance":1670,"Routes":"020, N20"},{"StopNo":51179,"Name":"WB E 41 AVE FS SCHOOL AVE","BayNo":"N","City":"VANCOUVER","OnStreet":"E 41 AVE","AtStreet":"SCHOOL AVE","Latitude":49.233086,"Longitude":-123.037941,"WheelchairAccess":1,"Distance":1671,"Routes":"041"},{"StopNo":51142,"Name":"EB KINGSWAY FS KNIGHT ST","BayNo":"N","City":"VANCOUVER","OnStreet":"KINGSWAY","AtStreet":"KNIGHT ST","Latitude":49.249737,"Longitude":-123.075485,"WheelchairAccess":1,"Distance":1677,"Routes":"019, N19"},{"StopNo":51076,"Name":"NB BOYD DIVERSION FS NOOTKA ST","BayNo":"N","City":"VANCOUVER","OnStreet":"BOYD DIVERSION","AtStreet":"NOOTKA ST","Latitude":49.249584,"Longitude":-123.042076,"WheelchairAccess":0,"Distance":1686,"Routes":"016"},{"StopNo":51532,"Name":"EB E 22 AVE FS BOYD DIVERSION","BayNo":"N","City":"VANCOUVER","OnStreet":"E 22 AVE","AtStreet":"BOYD DIVERSION","Latitude":49.250553,"Longitude":-123.043472,"WheelchairAccess":1,"Distance":1692,"Routes":"025"},{"StopNo":51344,"Name":"NB KNIGHT ST NS KINGSWAY","BayNo":"N","City":"VANCOUVER","OnStreet":"KNIGHT ST","AtStreet":"KINGSWAY","Latitude":49.249683,"Longitude":-123.075905,"WheelchairAccess":1,"Distance":1695,"Routes":"022"},{"StopNo":51558,"Name":"WB E 22 AVE NS RENFREW ST","BayNo":"N","City":"VANCOUVER","OnStreet":"E 22 AVE","AtStreet":"RENFREW ST","Latitude":49.250690,"Longitude":-123.043610,"WheelchairAccess":1,"Distance":1697,"Routes":"025"},{"StopNo":59434,"Name":"WB E 49 AVE FS VIVIAN ST","BayNo":"N","City":"VANCOUVER","OnStreet":"E 49 AVE","AtStreet":"VIVIAN ST","Latitude":49.224857,"Longitude":-123.050858,"WheelchairAccess":1,"Distance":1699,"Routes":"049"},{"StopNo":50707,"Name":"WB E 41 AVE FS INVERNESS ST","BayNo":"N","City":"VANCOUVER","OnStreet":"E 41 AVE","AtStreet":"INVERNESS ST","Latitude":49.232845,"Longitude":-123.080299,"WheelchairAccess":1,"Distance":1701,"Routes":"041"},{"StopNo":51524,"Name":"EB E KING EDWARD AVE FS CLARK DR","BayNo":"N","City":"VANCOUVER","OnStreet":"E KING EDWARD AVE","AtStreet":"CLARK DR","Latitude":49.248428,"Longitude":-123.077721,"WheelchairAccess":1,"Distance":1705,"Routes":"025"},{"StopNo":51334,"Name":"NB KNIGHT ST FS E 45 AVE","BayNo":"N","City":"VANCOUVER","OnStreet":"KNIGHT ST","AtStreet":"E 45 AVE","Latitude":49.229336,"Longitude":-123.077026,"WheelchairAccess":0,"Distance":1708,"Routes":"022"},{"StopNo":51982,"Name":"EB E 49 AVE FS COMMERCIAL ST","BayNo":"N","City":"VANCOUVER","OnStreet":"E 49 AVE","AtStreet":"COMMERCIAL ST","Latitude":49.225140,"Longitude":-123.068504,"WheelchairAccess":1,"Distance":1708,"Routes":"049"},{"StopNo":51296,"Name":"SB KNIGHT ST FS E 23 AVE","BayNo":"N","City":"VANCOUVER","OnStreet":"KNIGHT ST","AtStreet":"E 23 AVE","Latitude":49.249653,"Longitude":-123.076241,"WheelchairAccess":1,"Distance":1710,"Routes":"022"},{"StopNo":51642,"Name":"SB JOYCE ST FS E 41 AVE","BayNo":"N","City":"VANCOUVER","OnStreet":"JOYCE ST","AtStreet":"E 41 AVE","Latitude":49.232719,"Longitude":-123.037498,"WheelchairAccess":1,"Distance":1717,"Routes":"026"},{"StopNo":51130,"Name":"EB E 41 AVE FS SCHOOL AVE","BayNo":"N","City":"VANCOUVER","OnStreet":"E 41 AVE","AtStreet":"SCHOOL AVE","Latitude":49.233196,"Longitude":-123.036987,"WheelchairAccess":1,"Distance":1730,"Routes":"041"},{"StopNo":50647,"Name":"EB E 41 AVE FS SHERBROOKE ST","BayNo":"N","City":"VANCOUVER","OnStreet":"E 41 AVE","AtStreet":"SHERBROOKE ST","Latitude":49.232677,"Longitude":-123.080666,"WheelchairAccess":0,"Distance":1733,"Routes":"041"},{"StopNo":60403,"Name":"SB JOYCE ST FS KINGSWAY-","BayNo":"N","City":"VANCOUVER","OnStreet":"JOYCE ST","AtStreet":"KINGSWAY","Latitude":49.233624,"Longitude":-123.036583,"WheelchairAccess":1,"Distance":1739,"Routes":"019, 026, 041"},{"StopNo":50685,"Name":"SB NANAIMO ST FS E 17 AVE","BayNo":"N","City":"VANCOUVER","OnStreet":"NANAIMO ST","AtStreet":"E 17 AVE","Latitude":49.254757,"Longitude":-123.056763,"WheelchairAccess":1,"Distance":1739,"Routes":"007"},{"StopNo":51988,"Name":"EB E 49 AVE FS VIVIAN ST","BayNo":"N","City":"VANCOUVER","OnStreet":"E 49 AVE","AtStreet":"VIVIAN ST","Latitude":49.224709,"Longitude":-123.049759,"WheelchairAccess":1,"Distance":1743,"Routes":"049"},{"StopNo":50967,"Name":"SB VICTORIA DIVERSION FS COMMERCIAL ST","BayNo":"N","City":"VANCOUVER","OnStreet":"VICTORIA DIVERSION","AtStreet":"COMMERCIAL ST","Latitude":49.253864,"Longitude":-123.067596,"WheelchairAccess":1,"Distance":1748,"Routes":"020, N20"},{"StopNo":52020,"Name":"WB E 49 AVE FS BRUCE ST","BayNo":"N","City":"VANCOUVER","OnStreet":"E 49 AVE","AtStreet":"BRUCE ST","Latitude":49.225285,"Longitude":-123.070412,"WheelchairAccess":1,"Distance":1755,"Routes":"049"},{"StopNo":51078,"Name":"NB RENFREW ST FS E 21 AVE","BayNo":"N","City":"VANCOUVER","OnStreet":"RENFREW ST","AtStreet":"E 21 AVE","Latitude":49.251835,"Longitude":-123.044205,"WheelchairAccess":1,"Distance":1768,"Routes":"016"},{"StopNo":51635,"Name":"NB JOYCE ST FS MARMION AVE","BayNo":"N","City":"VANCOUVER","OnStreet":"JOYCE ST","AtStreet":"MARMION AVE","Latitude":49.231834,"Longitude":-123.037338,"WheelchairAccess":1,"Distance":1771,"Routes":"026"},{"StopNo":51307,"Name":"SB KNIGHT ST FS E 45 AVE","BayNo":"N","City":"VANCOUVER","OnStreet":"KNIGHT ST","AtStreet":"E 45 AVE","Latitude":49.228691,"Longitude":-123.077324,"WheelchairAccess":0,"Distance":1771,"Routes":"022"},{"StopNo":51051,"Name":"SB RENFREW ST FS E 20 AVE","BayNo":"N","City":"VANCOUVER","OnStreet":"RENFREW ST","AtStreet":"E 20 AVE","Latitude":49.252041,"Longitude":-123.044456,"WheelchairAccess":1,"Distance":1776,"Routes":"016"},{"StopNo":51557,"Name":"WB E 22 AVE FS NOOTKA ST","BayNo":"N","City":"VANCOUVER","OnStreet":"E 22 AVE","AtStreet":"NOOTKA ST","Latitude":49.250690,"Longitude":-123.042000,"WheelchairAccess":1,"Distance":1776,"Routes":"025"},{"StopNo":51193,"Name":"WB KINGSWAY FS KNIGHT ST","BayNo":"N","City":"VANCOUVER","OnStreet":"KINGSWAY","AtStreet":"KNIGHT ST","Latitude":49.250511,"Longitude":-123.076584,"WheelchairAccess":1,"Distance":1794,"Routes":"019, N19"},{"StopNo":51981,"Name":"EB E 49 AVE FS ARGYLE ST","BayNo":"N","City":"VANCOUVER","OnStreet":"E 49 AVE","AtStreet":"ARGYLE ST","Latitude":49.225163,"Longitude":-123.071274,"WheelchairAccess":1,"Distance":1797,"Routes":"049"},{"StopNo":50717,"Name":"NB NANAIMO ST FS E 17 AVE","BayNo":"N","City":"VANCOUVER","OnStreet":"NANAIMO ST","AtStreet":"E 17 AVE","Latitude":49.255356,"Longitude":-123.056480,"WheelchairAccess":1,"Distance":1807,"Routes":"007"},{"StopNo":51643,"Name":"SB JOYCE ST FS E 43 AVE","BayNo":"N","City":"VANCOUVER","OnStreet":"JOYCE ST","AtStreet":"E 43 AVE","Latitude":49.230911,"Longitude":-123.037521,"WheelchairAccess":1,"Distance":1809,"Routes":"026"},{"StopNo":51333,"Name":"NB KNIGHT ST FS E 47 AVE","BayNo":"N","City":"VANCOUVER","OnStreet":"KNIGHT ST","AtStreet":"E 47 AVE","Latitude":49.227974,"Longitude":-123.077065,"WheelchairAccess":0,"Distance":1811,"Routes":"022"},{"StopNo":51608,"Name":"SB RUPERT ST NS KERR ST","BayNo":"N","City":"VANCOUVER","OnStreet":"RUPERT ST","AtStreet":"KERR ST","Latitude":49.227482,"Longitude":-123.041565,"WheelchairAccess":1,"Distance":1814,"Routes":"026"},{"StopNo":51208,"Name":"NB VICTORIA DR FS E 51 AVE","BayNo":"N","City":"VANCOUVER","OnStreet":"VICTORIA DR","AtStreet":"E 51 AVE","Latitude":49.223427,"Longitude":-123.065651,"WheelchairAccess":1,"Distance":1818,"Routes":"020, N20"},{"StopNo":51667,"Name":"NB RUPERT ST FS KERR ST","BayNo":"N","City":"VANCOUVER","OnStreet":"RUPERT ST","AtStreet":"KERR ST","Latitude":49.227531,"Longitude":-123.041351,"WheelchairAccess":1,"Distance":1821,"Routes":"026"},{"StopNo":51217,"Name":"NB COMMERCIAL DR FS FINDLAY ST","BayNo":"N","City":"VANCOUVER","OnStreet":"COMMERCIAL DR","AtStreet":"FINDLAY ST","Latitude":49.254681,"Longitude":-123.068398,"WheelchairAccess":1,"Distance":1854,"Routes":"020, N20"},{"StopNo":51249,"Name":"SB VICTORIA DR FS E 51 AVE","BayNo":"N","City":"VANCOUVER","OnStreet":"VICTORIA DR","AtStreet":"E 51 AVE","Latitude":49.223125,"Longitude":-123.065926,"WheelchairAccess":1,"Distance":1856,"Routes":"020, N20"},{"StopNo":52021,"Name":"WB E 49 AVE FS FLEMING ST","BayNo":"N","City":"VANCOUVER","OnStreet":"E 49 AVE","AtStreet":"FLEMING ST","Latitude":49.225315,"Longitude":-123.073578,"WheelchairAccess":1,"Distance":1872,"Routes":"049"},{"StopNo":51565,"Name":"WB E KING EDWARD AVE FS INVERNESS ST","BayNo":"N","City":"VANCOUVER","OnStreet":"E KING EDWARD AVE","AtStreet":"INVERNESS ST","Latitude":49.248592,"Longitude":-123.080399,"WheelchairAccess":1,"Distance":1874,"Routes":"025"},{"StopNo":51141,"Name":"EB KINGSWAY FS CLARK DR","BayNo":"N","City":"VANCOUVER","OnStreet":"KINGSWAY","AtStreet":"CLARK DR","Latitude":49.250835,"Longitude":-123.077637,"WheelchairAccess":1,"Distance":1874,"Routes":"019, N19"},{"StopNo":51308,"Name":"SB KNIGHT ST FS E 47 AVE","BayNo":"N","City":"VANCOUVER","OnStreet":"KNIGHT ST","AtStreet":"E 47 AVE","Latitude":49.227345,"Longitude":-123.077362,"WheelchairAccess":0,"Distance":1875,"Routes":"022"},{"StopNo":52012,"Name":"WB E 49 AVE NS KILLARNEY ST","BayNo":"N","City":"VANCOUVER","OnStreet":"E 49 AVE","AtStreet":"KILLARNEY ST","Latitude":49.224808,"Longitude":-123.045364,"WheelchairAccess":1,"Distance":1880,"Routes":"049"},{"StopNo":51989,"Name":"EB E 49 AVE FS KILLARNEY ST","BayNo":"N","City":"VANCOUVER","OnStreet":"E 49 AVE","AtStreet":"KILLARNEY ST","Latitude":49.224674,"Longitude":-123.045212,"WheelchairAccess":1,"Distance":1898,"Routes":"049"},{"StopNo":51634,"Name":"NB JOYCE ST FS E 45 AVE","BayNo":"N","City":"VANCOUVER","OnStreet":"JOYCE ST","AtStreet":"E 45 AVE","Latitude":49.229580,"Longitude":-123.037331,"WheelchairAccess":1,"Distance":1900,"Routes":"026"},{"StopNo":51825,"Name":"SB ELLIOTT ST FS E 51 AVE","BayNo":"N","City":"VANCOUVER","OnStreet":"ELLIOTT ST","AtStreet":"E 51 AVE","Latitude":49.222286,"Longitude":-123.054909,"WheelchairAccess":1,"Distance":1902,"Routes":"029"},{"StopNo":51980,"Name":"EB E 49 AVE FS DUMFRIES ST","BayNo":"N","City":"VANCOUVER","OnStreet":"E 49 AVE","AtStreet":"DUMFRIES ST","Latitude":49.225193,"Longitude":-123.074081,"WheelchairAccess":1,"Distance":1904,"Routes":"049"},{"StopNo":51809,"Name":"NB ELLIOTT ST FS E 52 AVE","BayNo":"N","City":"VANCOUVER","OnStreet":"ELLIOTT ST","AtStreet":"E 52 AVE","Latitude":49.222237,"Longitude":-123.054710,"WheelchairAccess":1,"Distance":1910,"Routes":"029"},{"StopNo":51345,"Name":"NB KNIGHT ST NS E 20 AVE","BayNo":"N","City":"VANCOUVER","OnStreet":"KNIGHT ST","AtStreet":"E 20 AVE","Latitude":49.252354,"Longitude":-123.075897,"WheelchairAccess":1,"Distance":1911,"Routes":"022"},{"StopNo":51523,"Name":"EB E KING EDWARD AVE FS GLEN DR","BayNo":"N","City":"VANCOUVER","OnStreet":"E KING EDWARD AVE","AtStreet":"GLEN DR","Latitude":49.248474,"Longitude":-123.081444,"WheelchairAccess":1,"Distance":1931,"Routes":"025"},{"StopNo":51533,"Name":"EB E 22 AVE FS LILLOOET ST","BayNo":"N","City":"VANCOUVER","OnStreet":"E 22 AVE","AtStreet":"LILLOOET ST","Latitude":49.250534,"Longitude":-123.038651,"WheelchairAccess":0,"Distance":1941,"Routes":"025"},{"StopNo":51050,"Name":"SB RENFREW ST FS E 17 AVE","BayNo":"N","City":"VANCOUVER","OnStreet":"RENFREW ST","AtStreet":"E 17 AVE","Latitude":49.254177,"Longitude":-123.044434,"WheelchairAccess":1,"Distance":1973,"Routes":"016"},{"StopNo":60681,"Name":"SB KNIGHT ST FS E 19 AVE","BayNo":"N","City":"VANCOUVER","OnStreet":"KNIGHT ST","AtStreet":"E 19 AVE","Latitude":49.253193,"Longitude":-123.076134,"WheelchairAccess":0,"Distance":1994,"Routes":"022"},{"StopNo":51332,"Name":"NB KNIGHT ST FS E 49 AVE","BayNo":"N","City":"VANCOUVER","OnStreet":"KNIGHT ST","AtStreet":"E 49 AVE","Latitude":49.225700,"Longitude":-123.077095,"WheelchairAccess":1,"Distance":1995,"Routes":"022"}]