{
   "html_attributions" : [],
   "next_page_token" : "CvQD6gEAAHlivOP9IxZVQPQfd-utSyopg2mUozxyNeIzokHN8uEAur0wES10CDoHx-IOnr70XHlEy6fgPTPvHA3BMzei4r8IHq8ncf3wwJlPwZwFKKa9HNxXQJsH-rZBo5xoy6xTD30BDg8J0YcWpxoqXm1nf2xV_X7QNetaBCqMiOAVTt_VSJ8mOFX3FXpcpUTbQcGrKRpxw5WgVstmUDUfPqKD1TbqkEmEZumyEnL1YIuBWOEqf_WDSry5loH_nHJ_XgVFWZ2wfWh8OVipQtRLGdWorliYrnT4NbaMyjs5hwXNKypz_-xFMpuFk7YOD2Ixs9Ti5VMJLWdsW5sVEE5daF-FN0MaUhNXV4Ghz_eVtHaPxNooXVFC0KCUT-7FUBmwWqssp749LMQOrOckxWYBT0D7rzo2WSI-t3vtzPQi3m_JiwUjZbl9dlUanKF1qlgd5zw9jifkrMsbLEfPpGp30iH4ww-JrkcnNfVByUENZLgXNTULwuzDaRiI4VYB4tHAEENKQI-ZJfVya0tCRdDY_QpeYMWy_ErmmtDGtJDmFTJ6xDR1LFv1ZHe93BpVFN5fUjP6QYOvuRRM3SLwo8B-liAaZUnPyBuWCOxbX3R6T4l5rlknMgesN-972FOi4hNyOQeY4VbqpANcNJhUo9rsj__e2qsSECFx5bXqNANyyr0x2xm17QUaFKxkCXiy6AI9cdp0cjQr1y8j04CJ",
   "results" : [
      {
         "geometry" : {
            "location" : {
               "lat" : 43.76017299999999,
               "lng" : -79.316109
            },
            "viewport" : {
               "northeast" : {
                  "lat" : 43.7615219802915,
                  "lng" : -79.31476001970849
               },
               "southwest" : {
                  "lat" : 43.7588240197085,
                  "lng" : -79.31745798029151
               }
            }
         },
         "icon" : "https://maps.gstatic.com/mapfiles/place_api/icons/bus-71.png",
         "id" : "7a4210446e5689ad9041968b972aee7ad2038c94",
         "name" : "Victoria Park Ave At Paget Rd North Side",
         "place_id" : "ChIJCZsJXWzS1IkRDpkBpcN9AnU",
         "plus_code" : {
            "compound_code" : "QM6M+3H Toronto, Ontario, Canada",
            "global_code" : "87M2QM6M+3H"
         },
         "rating" : 3,
         "reference" : "ChIJCZsJXWzS1IkRDpkBpcN9AnU",
         "scope" : "GOOGLE",
         "types" : [
            "bus_station",
            "transit_station",
            "point_of_interest",
            "establishment"
         ],
         "vicinity" : "Canada"
      },
      {
         "geometry" : {
            "location" : {
               "lat" : 43.759739,
               "lng" : -79.31618499999999
            },
            "viewport" : {
               "northeast" : {
                  "lat" : 43.7610879802915,
                  "lng" : -79.31483601970849
               },
               "southwest" : {
                  "lat" : 43.7583900197085,
                  "lng" : -79.3175339802915
               }
            }
         },
         "icon" : "https://maps.gstatic.com/mapfiles/place_api/icons/bus-71.png",
         "id" : "9e30d79c89413ac547e9ef0362fdf7594ffd6a16",
         "name" : "Victoria Park Ave At Paget Rd South Side",
         "place_id" : "ChIJDwiWWmzS1IkRe4iE2590Psw",
         "plus_code" : {
            "compound_code" : "QM5M+VG Toronto, Ontario, Canada",
            "global_code" : "87M2QM5M+VG"
         },
         "reference" : "ChIJDwiWWmzS1IkRe4iE2590Psw",
         "scope" : "GOOGLE",
         "types" : [
            "bus_station",
            "transit_station",
            "point_of_interest",
            "establishment"
         ],
         "vicinity" : "Canada"
      },
      {
         "geometry" : {
            "location" : {
               "lat" : 43.762498,
               "lng" : -79.31713499999999
            },
            "viewport" : {
               "northeast" : {
                  "lat" : 43.7638469802915,
                  "lng" : -79.3157860197085
               },
               "southwest" : {
                  "lat" : 43.7611490197085,
                  "lng" : -79.3184839802915
               }
            }
         },
         "icon" : "https://maps.gstatic.com/mapfiles/place_api/icons/bus-71.png",
         "id" : "31c81909462b513ba3f425081edc3425ecf0debf",
         "name" : "Victoria Park Ave At Pachino Blvd North Side",
         "place_id" : "ChIJ_3Z062vS1IkRH0aLHVDgMbc",
         "plus_code" : {
            "compound_code" : "QM6M+X4 Toronto, Ontario, Canada",
            "global_code" : "87M2QM6M+X4"
         },
         "reference" : "ChIJ_3Z062vS1IkRH0aLHVDgMbc",
         "scope" : "GOOGLE",
         "types" : [
            "bus_station",
            "transit_station",
            "point_of_interest",
            "establishment"
         ],
         "vicinity" : "Canada"
      },
      {
         "geometry" : {
            "location" : {
               "lat" : 43.76272100000001,
               "lng" : -79.31751899999999
            },
            "viewport" : {
               "northeast" : {
                  "lat" : 43.7640699802915,
                  "lng" : -79.31617001970848
               },
               "southwest" : {
                  "lat" : 43.7613720197085,
                  "lng" : -79.3188679802915
               }
            }
         },
         "icon" : "https://maps.gstatic.com/mapfiles/place_api/icons/bus-71.png",
         "id" : "c83246abc1a065552511bf7ffd212daff100fcd5",
         "name" : "Victoria Park Ave At York Mills Rd South Side",
         "place_id" : "ChIJyQAz6GvS1IkRL5XMbAqVuIg",
         "plus_code" : {
            "compound_code" : "QM7J+3X Toronto, Ontario, Canada",
            "global_code" : "87M2QM7J+3X"
         },
         "reference" : "ChIJyQAz6GvS1IkRL5XMbAqVuIg",
         "scope" : "GOOGLE",
         "types" : [
            "bus_station",
            "transit_station",
            "point_of_interest",
            "establishment"
         ],
         "vicinity" : "Canada"
      },
      {
         "geometry" : {
            "location" : {
               "lat" : 43.75822900000001,
               "lng" : -79.31518799999999
            },
            "viewport" : {
               "northeast" : {
                  "lat" : 43.75957798029151,
                  "lng" : -79.3138390197085
               },
               "southwest" : {
                  "lat" : 43.75688001970851,
                  "lng" : -79.3165369802915
               }
            }
         },
         "icon" : "https://maps.gstatic.com/mapfiles/place_api/icons/bus-71.png",
         "id" : "ceed0f3376d92ce3a6e6f72944c00fcfe27788da",
         "name" : "Victoria Park Ave At Ellesmere Rd North Side",
         "photos" : [
            {
               "height" : 1953,
               "html_attributions" : [
                  "\u003ca href=\"https://maps.google.com/maps/contrib/107818236859486230836/photos\"\u003eUdaya Kumar\u003c/a\u003e"
               ],
               "photo_reference" : "CmRaAAAA9uqmx7785yCsGJ2FgdfolDpNiYFctvPSm2OLl-YQ5Yhou1XM4uVcpMg4h6MZ6U-hPlJxEmGZ50Nat7Ma5FfF5VL-yjHlfOJrhdGbQ35QTjITibXaL-38ePPWtAcklTiHEhAcpIVF6LlvnjA0xZkJfp-cGhSbAYZSScApKX9L4Xwql6SHbRTK1g",
               "width" : 4160
            }
         ],
         "place_id" : "ChIJva7RDm3S1IkR0kFskCvoZyw",
         "plus_code" : {
            "compound_code" : "QM5M+7W Toronto, Ontario, Canada",
            "global_code" : "87M2QM5M+7W"
         },
         "rating" : 4,
         "reference" : "ChIJva7RDm3S1IkR0kFskCvoZyw",
         "scope" : "GOOGLE",
         "types" : [
            "bus_station",
            "transit_station",
            "point_of_interest",
            "establishment"
         ],
         "vicinity" : "Canada"
      },
      {
         "geometry" : {
            "location" : {
               "lat" : 43.75805199999999,
               "lng" : -79.315461
            },
            "viewport" : {
               "northeast" : {
                  "lat" : 43.7594009802915,
                  "lng" : -79.3141120197085
               },
               "southwest" : {
                  "lat" : 43.7567030197085,
                  "lng" : -79.31680998029151
               }
            }
         },
         "icon" : "https://maps.gstatic.com/mapfiles/place_api/icons/bus-71.png",
         "id" : "ede780818c2c438c3e990ca349ed3dacfb73bf0e",
         "name" : "Victoria Park Ave At Parkwoods Village Dr",
         "place_id" : "ChIJ8dRGCm3S1IkRVbX4vWC12tM",
         "plus_code" : {
            "compound_code" : "QM5M+6R Toronto, Ontario, Canada",
            "global_code" : "87M2QM5M+6R"
         },
         "reference" : "ChIJ8dRGCm3S1IkRVbX4vWC12tM",
         "scope" : "GOOGLE",
         "types" : [
            "bus_station",
            "transit_station",
            "point_of_interest",
            "establishment"
         ],
         "vicinity" : "Canada"
      },
      {
         "geometry" : {
            "location" : {
               "lat" : 43.762871,
               "lng" : -79.31789999999999
            },
            "viewport" : {
               "northeast" : {
                  "lat" : 43.7642199802915,
                  "lng" : -79.31655101970848
               },
               "southwest" : {
                  "lat" : 43.7615220197085,
                  "lng" : -79.3192489802915
               }
            }
         },
         "icon" : "https://maps.gstatic.com/mapfiles/place_api/icons/bus-71.png",
         "id" : "a6d0d513d71851d9da1c65519b32294fe541d93f",
         "name" : "York Mills Rd At Victoria Park Ave",
         "place_id" : "ChIJaTeY3WvS1IkRP6GfStFcavI",
         "plus_code" : {
            "compound_code" : "QM7J+4R Toronto, Ontario, Canada",
            "global_code" : "87M2QM7J+4R"
         },
         "reference" : "ChIJaTeY3WvS1IkRP6GfStFcavI",
         "scope" : "GOOGLE",
         "types" : [
            "bus_station",
            "transit_station",
            "point_of_interest",
            "establishment"
         ],
         "vicinity" : "Canada"
      },
      {
         "geometry" : {
            "location" : {
               "lat" : 43.75812,
               "lng" : -79.31473
            },
            "viewport" : {
               "northeast" : {
                  "lat" : 43.75946898029149,
                  "lng" : -79.3133810197085
               },
               "southwest" : {
                  "lat" : 43.75677101970849,
                  "lng" : -79.31607898029151
               }
            }
         },
         "icon" : "https://maps.gstatic.com/mapfiles/place_api/icons/bus-71.png",
         "id" : "0eaf92fe979613067e1b9823febee4303a390356",
         "name" : "Ellesmere Rd At Victoria Park Ave",
         "place_id" : "ChIJ6xeaEW3S1IkRfT0G4espUgc",
         "plus_code" : {
            "compound_code" : "QM5P+64 Toronto, Ontario, Canada",
            "global_code" : "87M2QM5P+64"
         },
         "reference" : "ChIJ6xeaEW3S1IkRfT0G4espUgc",
         "scope" : "GOOGLE",
         "types" : [
            "bus_station",
            "transit_station",
            "point_of_interest",
            "establishment"
         ],
         "vicinity" : "Canada"
      },
      {
         "geometry" : {
            "location" : {
               "lat" : 43.757862,
               "lng" : -79.31523399999999
            },
            "viewport" : {
               "northeast" : {
                  "lat" : 43.75921098029149,
                  "lng" : -79.31388501970848
               },
               "southwest" : {
                  "lat" : 43.75651301970849,
                  "lng" : -79.31658298029149
               }
            }
         },
         "icon" : "https://maps.gstatic.com/mapfiles/place_api/icons/bus-71.png",
         "id" : "dff93af5e4a8d82287e26daff8d9b9a63ad2d558",
         "name" : "Victoria Pk At Parkwood/ellesmere",
         "place_id" : "ChIJqbtZC23S1IkRR8TgC8Wl1hQ",
         "plus_code" : {
            "compound_code" : "QM5M+4W Toronto, Ontario, Canada",
            "global_code" : "87M2QM5M+4W"
         },
         "reference" : "ChIJqbtZC23S1IkRR8TgC8Wl1hQ",
         "scope" : "GOOGLE",
         "types" : [
            "bus_station",
            "transit_station",
            "point_of_interest",
            "establishment"
         ],
         "vicinity" : "Canada"
      },
      {
         "geometry" : {
            "location" : {
               "lat" : 43.758323,
               "lng" : -79.31948799999999
            },
            "viewport" : {
               "northeast" : {
                  "lat" : 43.7596719802915,
                  "lng" : -79.31813901970848
               },
               "southwest" : {
                  "lat" : 43.7569740197085,
                  "lng" : -79.32083698029149
               }
            }
         },
         "icon" : "https://maps.gstatic.com/mapfiles/place_api/icons/bus-71.png",
         "id" : "c6b0f2d0586f0cf4514605159ecac474f020970f",
         "name" : "Parkwoods Village Dr At Combermere Dr North Side",
         "place_id" : "ChIJiXxla27S1IkRgOCFMDQEI0E",
         "plus_code" : {
            "compound_code" : "QM5J+86 Toronto, Ontario, Canada",
            "global_code" : "87M2QM5J+86"
         },
         "reference" : "ChIJiXxla27S1IkRgOCFMDQEI0E",
         "scope" : "GOOGLE",
         "types" : [
            "bus_station",
            "transit_station",
            "point_of_interest",
            "establishment"
         ],
         "vicinity" : "Canada"
      },
      {
         "geometry" : {
            "location" : {
               "lat" : 43.757893,
               "lng" : -79.31461899999999
            },
            "viewport" : {
               "northeast" : {
                  "lat" : 43.75924198029149,
                  "lng" : -79.3132700197085
               },
               "southwest" : {
                  "lat" : 43.7565440197085,
                  "lng" : -79.3159679802915
               }
            }
         },
         "icon" : "https://maps.gstatic.com/mapfiles/place_api/icons/bus-71.png",
         "id" : "5ca6239f8ff1366adb2007ccfde4e4502571f6c3",
         "name" : "Ellesmere Rd At Victoria Park Ave East Side",
         "place_id" : "ChIJ_5ILE23S1IkR63gtAqMFhTQ",
         "plus_code" : {
            "compound_code" : "QM5P+55 Toronto, Ontario, Canada",
            "global_code" : "87M2QM5P+55"
         },
         "reference" : "ChIJ_5ILE23S1IkR63gtAqMFhTQ",
         "scope" : "GOOGLE",
         "types" : [
            "bus_station",
            "transit_station",
            "point_of_interest",
            "establishment"
         ],
         "vicinity" : "Canada"
      },
      {
         "geometry" : {
            "location" : {
               "lat" : 43.75805299999999,
               "lng" : -79.319396
            },
            "viewport" : {
               "northeast" : {
                  "lat" : 43.75940198029149,
                  "lng" : -79.31804701970849
               },
               "southwest" : {
                  "lat" : 43.75670401970849,
                  "lng" : -79.32074498029149
               }
            }
         },
         "icon" : "https://maps.gstatic.com/mapfiles/place_api/icons/bus-71.png",
         "id" : "8c45cf7b4513c89d091d3155cb29fb05fa249244",
         "name" : "Parkwoods Village Dr At Combermere Dr",
         "place_id" : "ChIJS96cE27S1IkR_9_mBIQp0Ds",
         "plus_code" : {
            "compound_code" : "QM5J+66 Toronto, Ontario, Canada",
            "global_code" : "87M2QM5J+66"
         },
         "reference" : "ChIJS96cE27S1IkR_9_mBIQp0Ds",
         "scope" : "GOOGLE",
         "types" : [
            "bus_station",
            "transit_station",
            "point_of_interest",
            "establishment"
         ],
         "vicinity" : "Canada"
      },
      {
         "geometry" : {
            "location" : {
               "lat" : 43.75940099999999,
               "lng" : -79.321079
            },
            "viewport" : {
               "northeast" : {
                  "lat" : 43.76074998029149,
                  "lng" : -79.31973001970849
               },
               "southwest" : {
                  "lat" : 43.75805201970849,
                  "lng" : -79.32242798029149
               }
            }
         },
         "icon" : "https://maps.gstatic.com/mapfiles/place_api/icons/bus-71.png",
         "id" : "18be5b973bf7cb38bab7db65cc2043177ff2b08a",
         "name" : "Parkwoods Village Dr At Gailong Crt",
         "place_id" : "ChIJy7_iVG7S1IkRkcPc5q-ul8U",
         "plus_code" : {
            "compound_code" : "QM5H+QH Toronto, Ontario, Canada",
            "global_code" : "87M2QM5H+QH"
         },
         "reference" : "ChIJy7_iVG7S1IkRkcPc5q-ul8U",
         "scope" : "GOOGLE",
         "types" : [
            "bus_station",
            "transit_station",
            "point_of_interest",
            "establishment"
         ],
         "vicinity" : "Canada"
      },
      {
         "geometry" : {
            "location" : {
               "lat" : 43.7601132,
               "lng" : -79.3217334
            },
            "viewport" : {
               "northeast" : {
                  "lat" : 43.7614621802915,
                  "lng" : -79.32038441970849
               },
               "southwest" : {
                  "lat" : 43.7587642197085,
                  "lng" : -79.32308238029151
               }
            }
         },
         "icon" : "https://maps.gstatic.com/mapfiles/place_api/icons/bus-71.png",
         "id" : "2a5934516a04541aa9f7bf3ea87fc3a243b94738",
         "name" : "Gisburn Rd",
         "photos" : [
            {
               "height" : 3036,
               "html_attributions" : [
                  "\u003ca href=\"https://maps.google.com/maps/contrib/105175761337711150993/photos\"\u003eDan Levy\u003c/a\u003e"
               ],
               "photo_reference" : "CmRaAAAAIgHJF_JM3FS-tBkvSgHVWEwFbb4vfdYsXC2vAKKHmnfOqkfwk9ZLh1ODgL5Pbbja7HfuF5hV62_CUIgMQeGLhRtR99IAtv2xk6XUHgzjoc6XqTJ9Lbn8Ik67YwkLvytXEhC0ChqXfSeQ7YdvkwEIEmvoGhTyAzHfgkIr4FqnkUPaHldBOKZQxg",
               "width" : 4048
            }
         ],
         "place_id" : "ChIJi3wMBW_S1IkRjN1HwjdtwBA",
         "plus_code" : {
            "compound_code" : "QM6H+28 Toronto, Ontario, Canada",
            "global_code" : "87M2QM6H+28"
         },
         "rating" : 1,
         "reference" : "ChIJi3wMBW_S1IkRjN1HwjdtwBA",
         "scope" : "GOOGLE",
         "types" : [
            "bus_station",
            "transit_station",
            "point_of_interest",
            "establishment"
         ],
         "vicinity" : "Canada"
      },
      {
         "geometry" : {
            "location" : {
               "lat" : 43.762062,
               "lng" : -79.321505
            },
            "viewport" : {
               "northeast" : {
                  "lat" : 43.7634109802915,
                  "lng" : -79.32015601970849
               },
               "southwest" : {
                  "lat" : 43.7607130197085,
                  "lng" : -79.3228539802915
               }
            }
         },
         "icon" : "https://maps.gstatic.com/mapfiles/place_api/icons/bus-71.png",
         "id" : "ea25aac27475b5fcc465338a54f3f8dc4bafab40",
         "name" : "York Mills Rd At Rayoak Dr",
         "place_id" : "ChIJ1VeQ1GjS1IkRX-1SnKwqS0Y",
         "plus_code" : {
            "compound_code" : "QM6H+R9 Toronto, Ontario, Canada",
            "global_code" : "87M2QM6H+R9"
         },
         "reference" : "ChIJ1VeQ1GjS1IkRX-1SnKwqS0Y",
         "scope" : "GOOGLE",
         "types" : [
            "bus_station",
            "transit_station",
            "point_of_interest",
            "establishment"
         ],
         "vicinity" : "Canada"
      },
      {
         "geometry" : {
            "location" : {
               "lat" : 43.764424,
               "lng" : -79.31795099999999
            },
            "viewport" : {
               "northeast" : {
                  "lat" : 43.7657729802915,
                  "lng" : -79.31660201970848
               },
               "southwest" : {
                  "lat" : 43.7630750197085,
                  "lng" : -79.3192999802915
               }
            }
         },
         "icon" : "https://maps.gstatic.com/mapfiles/place_api/icons/bus-71.png",
         "id" : "50db640fe3011b82f2155193ff484e691befdf5b",
         "name" : "Victoria Park Ave At Terraview Blvd",
         "place_id" : "ChIJ3STeLmrS1IkRxv5MfefkMSA",
         "plus_code" : {
            "compound_code" : "QM7J+QR Toronto, Ontario, Canada",
            "global_code" : "87M2QM7J+QR"
         },
         "rating" : 5,
         "reference" : "ChIJ3STeLmrS1IkRxv5MfefkMSA",
         "scope" : "GOOGLE",
         "types" : [
            "bus_station",
            "transit_station",
            "point_of_interest",
            "establishment"
         ],
         "vicinity" : "Canada"
      },
      {
         "geometry" : {
            "location" : {
               "lat" : 43.760841,
               "lng" : -79.310992
            },
            "viewport" : {
               "northeast" : {
                  "lat" : 43.7621899802915,
                  "lng" : -79.30964301970849
               },
               "southwest" : {
                  "lat" : 43.7594920197085,
                  "lng" : -79.31234098029149
               }
            }
         },
         "icon" : "https://maps.gstatic.com/mapfiles/place_api/icons/bus-71.png",
         "id" : "e9417c1428948cbdc911fb9555b124fe7fdcb90b",
         "name" : "Pharmacy Ave At Christina Cres",
         "place_id" : "ChIJT_kpYhPS1IkRtCVLPFEubIk",
         "plus_code" : {
            "compound_code" : "QM6Q+8J Toronto, Ontario, Canada",
            "global_code" : "87M2QM6Q+8J"
         },
         "reference" : "ChIJT_kpYhPS1IkRtCVLPFEubIk",
         "scope" : "GOOGLE",
         "types" : [
            "bus_station",
            "transit_station",
            "point_of_interest",
            "establishment"
         ],
         "vicinity" : "Canada"
      },
      {
         "geometry" : {
            "location" : {
               "lat" : 43.76453900000001,
               "lng" : -79.318392
            },
            "viewport" : {
               "northeast" : {
                  "lat" : 43.7658879802915,
                  "lng" : -79.31704301970851
               },
               "southwest" : {
                  "lat" : 43.7631900197085,
                  "lng" : -79.31974098029151
               }
            }
         },
         "icon" : "https://maps.gstatic.com/mapfiles/place_api/icons/bus-71.png",
         "id" : "e5529bbd098198d632862de9c4616d929db11aed",
         "name" : "Victoria Park At Farm Greenway",
         "place_id" : "ChIJ2W2Kh2nS1IkRyM-gKg5zxPM",
         "plus_code" : {
            "compound_code" : "QM7J+RJ Toronto, Ontario, Canada",
            "global_code" : "87M2QM7J+RJ"
         },
         "reference" : "ChIJ2W2Kh2nS1IkRyM-gKg5zxPM",
         "scope" : "GOOGLE",
         "types" : [
            "bus_station",
            "transit_station",
            "point_of_interest",
            "establishment"
         ],
         "vicinity" : "Canada"
      },
      {
         "geometry" : {
            "location" : {
               "lat" : 43.76062700000001,
               "lng" : -79.310799
            },
            "viewport" : {
               "northeast" : {
                  "lat" : 43.7619759802915,
                  "lng" : -79.30945001970851
               },
               "southwest" : {
                  "lat" : 43.7592780197085,
                  "lng" : -79.31214798029151
               }
            }
         },
         "icon" : "https://maps.gstatic.com/mapfiles/place_api/icons/bus-71.png",
         "id" : "c2a28c188a94c21069457fb57eef13d1adb36d8b",
         "name" : "Pharmacy Ave At Christina Cres",
         "place_id" : "ChIJr2OGZBPS1IkRzizCJYPki9c",
         "plus_code" : {
            "compound_code" : "QM6Q+7M Toronto, Ontario, Canada",
            "global_code" : "87M2QM6Q+7M"
         },
         "reference" : "ChIJr2OGZBPS1IkRzizCJYPki9c",
         "scope" : "GOOGLE",
         "types" : [
            "bus_station",
            "transit_station",
            "point_of_interest",
            "establishment"
         ],
         "vicinity" : "Canada"
      },
      {
         "geometry" : {
            "location" : {
               "lat" : 43.762959,
               "lng" : -79.311905
            },
            "viewport" : {
               "northeast" : {
                  "lat" : 43.7643079802915,
                  "lng" : -79.31055601970849
               },
               "southwest" : {
                  "lat" : 43.7616100197085,
                  "lng" : -79.31325398029149
               }
            }
         },
         "icon" : "https://maps.gstatic.com/mapfiles/place_api/icons/bus-71.png",
         "id" : "b6715dbad545b20f61c037a3ab0d8407b5467cab",
         "name" : "Pharmacy Ave At Pachino Blvd South Side",
         "place_id" : "ChIJL9H72hTS1IkRMZu1ZJrOv5s",
         "plus_code" : {
            "compound_code" : "QM7Q+56 Toronto, Ontario, Canada",
            "global_code" : "87M2QM7Q+56"
         },
         "reference" : "ChIJL9H72hTS1IkRMZu1ZJrOv5s",
         "scope" : "GOOGLE",
         "types" : [
            "bus_station",
            "transit_station",
            "point_of_interest",
            "establishment"
         ],
         "vicinity" : "Canada"
      }
   ],
   "status" : "OK"
}
