[{"StopNo":50481,"Name":"NB CAMBIE ST FS W 12 AVE","BayNo":"N","City":"VANCOUVER","OnStreet":"CAMBIE ST","AtStreet":"W 12 AVE","Latitude":49.260757,"Longitude":-123.114830,"WheelchairAccess":1,"Distance":67,"Routes":"015, 017, N15"},{"StopNo":50414,"Name":"SB CAMBIE ST FS W 12 AVE","BayNo":"N","City":"VANCOUVER","OnStreet":"CAMBIE ST","AtStreet":"W 12 AVE","Latitude":49.260113,"Longitude":-123.115143,"WheelchairAccess":1,"Distance":123,"Routes":"015, N15"},{"StopNo":60418,"Name":"WB W 12 AVE FS CAMBIE ST","BayNo":"N","City":"VANCOUVER","OnStreet":"W 12TH AVE","AtStreet":"CAMBIE ST","Latitude":49.260483,"Longitude":-123.115593,"WheelchairAccess":1,"Distance":129,"Routes":"017"},{"StopNo":60307,"Name":"BROADWAY-CITY HALL STN BAY 3 ","BayNo":"3","City":"VANCOUVER","OnStreet":"BROADWAY-CITY HALL STN","AtStreet":"BAY 3","Latitude":49.261997,"Longitude":-123.115112,"WheelchairAccess":1,"Distance":151,"Routes":"015, 017, N15"},{"StopNo":61027,"Name":"BROADWAY-CITY HALL STN BAY 2","BayNo":"2","City":"VANCOUVER","OnStreet":"BROADWAY-CITY HALL STN","AtStreet":"BAY 2","Latitude":49.262760,"Longitude":-123.114655,"WheelchairAccess":1,"Distance":215,"Routes":"015, 017, N15"},{"StopNo":50480,"Name":"NB CAMBIE ST FS W 14 AVE","BayNo":"N","City":"VANCOUVER","OnStreet":"CAMBIE ST","AtStreet":"W 14 AVE","Latitude":49.258987,"Longitude":-123.114891,"WheelchairAccess":1,"Distance":222,"Routes":"015, N15"},{"StopNo":50413,"Name":"BROADWAY-CITY HALL STN BAY 3","BayNo":"3","City":"VANCOUVER","OnStreet":"BROADWAY-CITY HALL STN","AtStreet":"BAY 3","Latitude":49.262829,"Longitude":-123.115052,"WheelchairAccess":1,"Distance":231,"Routes":""},{"StopNo":52100,"Name":"BROADWAY-CITY HALL STN BAY 6","BayNo":"6","City":"VANCOUVER","OnStreet":"BROADWAY-CITY HALL STN","AtStreet":"BAY 6","Latitude":49.263084,"Longitude":-123.113350,"WheelchairAccess":1,"Distance":248,"Routes":"009"},{"StopNo":50875,"Name":"BROADWAY-CITY HALL STN BAY 1","BayNo":"1","City":"VANCOUVER","OnStreet":"BROADWAY-CITY HALL STN","AtStreet":"BAY 1","Latitude":49.263107,"Longitude":-123.114281,"WheelchairAccess":1,"Distance":249,"Routes":"099, N9"},{"StopNo":61369,"Name":"BROADWAY-CITY HALL STATION PLATFORM 2","BayNo":"N","City":"VANCOUVER","OnStreet":"BROADWAY-CITY HALL STATION","AtStreet":"PLATFORM 2","Latitude":49.263123,"Longitude":-123.114815,"WheelchairAccess":0,"Distance":257,"Routes":"980"},{"StopNo":61370,"Name":"BROADWAY-CITY HALL STATION PLATFORM 1","BayNo":"N","City":"VANCOUVER","OnStreet":"BROADWAY-CITY HALL STATION","AtStreet":"PLATFORM 1","Latitude":49.263138,"Longitude":-123.114693,"WheelchairAccess":0,"Distance":257,"Routes":"980"},{"StopNo":50922,"Name":"BROADWAY-CITY HALL STN BAY 5","BayNo":"5","City":"VANCOUVER","OnStreet":"BROADWAY-CITY HALL STN","AtStreet":"BAY 5","Latitude":49.263294,"Longitude":-123.113274,"WheelchairAccess":1,"Distance":272,"Routes":"009, N9"},{"StopNo":61149,"Name":"SB CAMBIE ST FS W 14 AVE","BayNo":"N","City":"VANCOUVER","OnStreet":"CAMBIE ST","AtStreet":"W 14 AVE","Latitude":49.258461,"Longitude":-123.115196,"WheelchairAccess":1,"Distance":285,"Routes":"015, N15"},{"StopNo":58501,"Name":"BROADWAY-CITY HALL STN BAY 4","BayNo":"4","City":"VANCOUVER","OnStreet":"BROADWAY-CITY HALL STN","AtStreet":"BAY 4","Latitude":49.263336,"Longitude":-123.115715,"WheelchairAccess":1,"Distance":302,"Routes":"099, N9"},{"StopNo":50482,"Name":"NB CAMBIE ST NS W 8 AVE","BayNo":"N","City":"VANCOUVER","OnStreet":"CAMBIE ST","AtStreet":"W 8 AVE","Latitude":49.263805,"Longitude":-123.114639,"WheelchairAccess":1,"Distance":329,"Routes":"017, N15"},{"StopNo":58269,"Name":"WB W BROADWAY NS ASH ST","BayNo":"N","City":"VANCOUVER","OnStreet":"W BROADWAY","AtStreet":"ASH ST","Latitude":49.263348,"Longitude":-123.116425,"WheelchairAccess":1,"Distance":329,"Routes":"009"},{"StopNo":50876,"Name":"EB W BROADWAY FS ALBERTA ST","BayNo":"N","City":"VANCOUVER","OnStreet":"W BROADWAY","AtStreet":"ALBERTA ST","Latitude":49.263050,"Longitude":-123.110550,"WheelchairAccess":1,"Distance":344,"Routes":""},{"StopNo":50921,"Name":"WB W BROADWAY FS COLUMBIA ST","BayNo":"N","City":"VANCOUVER","OnStreet":"W BROADWAY","AtStreet":"COLUMBIA ST","Latitude":49.263210,"Longitude":-123.109871,"WheelchairAccess":1,"Distance":392,"Routes":"009, N9"},{"StopNo":50924,"Name":"WB W BROADWAY FS ASH ST","BayNo":"N","City":"VANCOUVER","OnStreet":"W BROADWAY","AtStreet":"ASH ST","Latitude":49.263359,"Longitude":-123.118095,"WheelchairAccess":1,"Distance":409,"Routes":"009, N9"},{"StopNo":50412,"Name":"SB CAMBIE ST FS W 7 AVE","BayNo":"N","City":"VANCOUVER","OnStreet":"CAMBIE ST","AtStreet":"W 7 AVE","Latitude":49.264565,"Longitude":-123.114998,"WheelchairAccess":1,"Distance":417,"Routes":"015, 017, N15"},{"StopNo":50479,"Name":"NB CAMBIE ST FS W 16 AVE","BayNo":"N","City":"VANCOUVER","OnStreet":"CAMBIE ST","AtStreet":"W 16 AVE","Latitude":49.257156,"Longitude":-123.114906,"WheelchairAccess":1,"Distance":421,"Routes":"015, N15"},{"StopNo":50483,"Name":"NB CAMBIE ST NS W 7 AVE","BayNo":"N","City":"VANCOUVER","OnStreet":"CAMBIE ST","AtStreet":"W 7 AVE","Latitude":49.264648,"Longitude":-123.114624,"WheelchairAccess":1,"Distance":422,"Routes":"015, 017, N15"},{"StopNo":60006,"Name":"EB W BROADWAY FS COLUMBIA ST","BayNo":"N","City":"VANCOUVER","OnStreet":"W BROADWAY","AtStreet":"COLUMBIA ST","Latitude":49.263020,"Longitude":-123.109047,"WheelchairAccess":1,"Distance":426,"Routes":"009, N9"},{"StopNo":61121,"Name":"WB W 16 AVE FS CAMBIE ST","BayNo":"N","City":"VANCOUVER","OnStreet":"W 16 AVE","AtStreet":"CAMBIE ST","Latitude":49.257004,"Longitude":-123.115677,"WheelchairAccess":1,"Distance":450,"Routes":"033"},{"StopNo":50874,"Name":"EB W BROADWAY FS HEATHER ST","BayNo":"N","City":"VANCOUVER","OnStreet":"W BROADWAY","AtStreet":"HEATHER ST","Latitude":49.263206,"Longitude":-123.119255,"WheelchairAccess":1,"Distance":465,"Routes":"009, N9"},{"StopNo":60416,"Name":"EB W 12 AVE NS HEATHER ST","BayNo":"N","City":"VANCOUVER","OnStreet":"W 12TH AVE","AtStreet":"HEATHER ST","Latitude":49.260395,"Longitude":-123.120308,"WheelchairAccess":1,"Distance":466,"Routes":"017"},{"StopNo":60417,"Name":"WB W 12 AVE FS HEATHER ST","BayNo":"N","City":"VANCOUVER","OnStreet":"W 12TH AVE","AtStreet":"HEATHER ST","Latitude":49.260555,"Longitude":-123.120407,"WheelchairAccess":1,"Distance":472,"Routes":"017"},{"StopNo":50415,"Name":"SB CAMBIE ST FS W 16 AVE","BayNo":"N","City":"VANCOUVER","OnStreet":"CAMBIE ST","AtStreet":"W 16 AVE","Latitude":49.256554,"Longitude":-123.115250,"WheelchairAccess":1,"Distance":491,"Routes":"015, 033, N15"},{"StopNo":52099,"Name":"EB W BROADWAY NS HEATHER ST","BayNo":"N","City":"VANCOUVER","OnStreet":"W BROADWAY","AtStreet":"HEATHER ST","Latitude":49.263210,"Longitude":-123.120171,"WheelchairAccess":1,"Distance":522,"Routes":"099"},{"StopNo":59726,"Name":"EB W BROADWAY NS MANITOBA ST","BayNo":"N","City":"VANCOUVER","OnStreet":"W BROADWAY","AtStreet":"MANITOBA ST","Latitude":49.262970,"Longitude":-123.107330,"WheelchairAccess":1,"Distance":532,"Routes":""},{"StopNo":50925,"Name":"WB W BROADWAY FS HEATHER ST","BayNo":"N","City":"VANCOUVER","OnStreet":"W BROADWAY","AtStreet":"HEATHER ST","Latitude":49.263401,"Longitude":-123.120224,"WheelchairAccess":1,"Distance":536,"Routes":"009, N9"},{"StopNo":61254,"Name":"OLYMPIC VILLAGE STN BAY 3","BayNo":"3","City":"VANCOUVER","OnStreet":"OLYMPIC VILLAGE STN","AtStreet":"BAY 3","Latitude":49.265938,"Longitude":-123.116051,"WheelchairAccess":1,"Distance":583,"Routes":"015, 050"},{"StopNo":50873,"Name":"EB W BROADWAY FS WILLOW  ST","BayNo":"N","City":"VANCOUVER","OnStreet":"W BROADWAY","AtStreet":"WILLOW ST","Latitude":49.263229,"Longitude":-123.121292,"WheelchairAccess":1,"Distance":595,"Routes":"009, N9"},{"StopNo":61040,"Name":"OLYMPIC VILLAGE STN BAY 1","BayNo":"1","City":"VANCOUVER","OnStreet":"OLYMPIC VILLAGE STN","AtStreet":"BAY 1","Latitude":49.266247,"Longitude":-123.115944,"WheelchairAccess":1,"Distance":614,"Routes":"015, 050, 084"},{"StopNo":61039,"Name":"OLYMPIC VILLAGE STN BAY 2","BayNo":"2","City":"VANCOUVER","OnStreet":"OLYMPIC VILLAGE STN","AtStreet":"BAY 2","Latitude":49.266426,"Longitude":-123.114937,"WheelchairAccess":1,"Distance":621,"Routes":"084"},{"StopNo":61122,"Name":"WB W 16 AVE FS HEATHER ST","BayNo":"N","City":"VANCOUVER","OnStreet":"W 16 AVE","AtStreet":"HEATHER ST","Latitude":49.257061,"Longitude":-123.120453,"WheelchairAccess":1,"Distance":636,"Routes":"033"},{"StopNo":59755,"Name":"WB W 6 AVE FS ASH ST","BayNo":"N","City":"VANCOUVER","OnStreet":"W 6 AVE","AtStreet":"ASH ST","Latitude":49.266014,"Longitude":-123.117966,"WheelchairAccess":1,"Distance":641,"Routes":"050, 084"},{"StopNo":61367,"Name":"OLYMPIC VILLAGE STATION PLATFORM 2","BayNo":"N","City":"VANCOUVER","OnStreet":"OLYMPIC VILLAGE STATION","AtStreet":"PLATFORM 2","Latitude":49.266590,"Longitude":-123.115494,"WheelchairAccess":0,"Distance":645,"Routes":"980"},{"StopNo":50478,"Name":"NB CAMBIE ST FS W 18 AVE","BayNo":"N","City":"VANCOUVER","OnStreet":"CAMBIE ST","AtStreet":"W 18 AVE","Latitude":49.255123,"Longitude":-123.115021,"WheelchairAccess":1,"Distance":645,"Routes":"015, 033, N15"},{"StopNo":61368,"Name":"OLYMPIC VILLAGE STATION PLATFORM 1","BayNo":"N","City":"VANCOUVER","OnStreet":"OLYMPIC VILLAGE STATION","AtStreet":"PLATFORM 1","Latitude":49.266609,"Longitude":-123.115440,"WheelchairAccess":0,"Distance":646,"Routes":"980"},{"StopNo":50926,"Name":"WB W BROADWAY FS WILLOW ST-","BayNo":"N","City":"VANCOUVER","OnStreet":"W BROADWAY","AtStreet":"WILLOW ST","Latitude":49.263432,"Longitude":-123.122314,"WheelchairAccess":1,"Distance":671,"Routes":"009, N9"},{"StopNo":50920,"Name":"WB W BROADWAY FS ONTARIO ST","BayNo":"N","City":"VANCOUVER","OnStreet":"W BROADWAY","AtStreet":"ONTARIO ST","Latitude":49.263100,"Longitude":-123.105293,"WheelchairAccess":1,"Distance":673,"Routes":"009, N9"},{"StopNo":50416,"Name":"SB CAMBIE ST FS W 18 AVE","BayNo":"N","City":"VANCOUVER","OnStreet":"CAMBIE ST","AtStreet":"W 18 AVE","Latitude":49.254673,"Longitude":-123.115280,"WheelchairAccess":1,"Distance":698,"Routes":"015, 033, N15"},{"StopNo":61097,"Name":"EB W 16 AVE FS WILLOW ST","BayNo":"N","City":"VANCOUVER","OnStreet":"W 16 AVE","AtStreet":"WILLOW ST","Latitude":49.256969,"Longitude":-123.121574,"WheelchairAccess":1,"Distance":705,"Routes":"033"},{"StopNo":58502,"Name":"WB W BROADWAY FS WILLOW ST--","BayNo":"N","City":"VANCOUVER","OnStreet":"W BROADWAY","AtStreet":"WILLOW ST","Latitude":49.263435,"Longitude":-123.122864,"WheelchairAccess":1,"Distance":708,"Routes":"099"},{"StopNo":59754,"Name":"EB W 6 AVE NS HEATHER ST","BayNo":"N","City":"VANCOUVER","OnStreet":"W 6 AVE","AtStreet":"HEATHER ST","Latitude":49.265831,"Longitude":-123.120148,"WheelchairAccess":1,"Distance":712,"Routes":"084"},{"StopNo":50878,"Name":"EB E BROADWAY FS ONTARIO ST","BayNo":"N","City":"VANCOUVER","OnStreet":"E BROADWAY","AtStreet":"ONTARIO ST","Latitude":49.262913,"Longitude":-123.104469,"WheelchairAccess":1,"Distance":722,"Routes":"009, N9"},{"StopNo":60414,"Name":"EB W 12 AVE FS LAUREL ST","BayNo":"N","City":"VANCOUVER","OnStreet":"W 12TH AVE","AtStreet":"LAUREL ST","Latitude":49.260471,"Longitude":-123.123917,"WheelchairAccess":1,"Distance":726,"Routes":"017"},{"StopNo":52057,"Name":"HEATHER SQUARE BAY 1","BayNo":"1","City":"VANCOUVER","OnStreet":"HEATHER SQUARE","AtStreet":"BAY 1","Latitude":49.266190,"Longitude":-123.120110,"WheelchairAccess":1,"Distance":741,"Routes":"050"},{"StopNo":58054,"Name":"HEATHER SQUARE BAY 2","BayNo":"2","City":"VANCOUVER","OnStreet":"HEATHER SQUARE","AtStreet":"BAY 2","Latitude":49.266296,"Longitude":-123.120132,"WheelchairAccess":1,"Distance":752,"Routes":"050"},{"StopNo":50872,"Name":"EB W BROADWAY FS LAUREL ST","BayNo":"N","City":"VANCOUVER","OnStreet":"W BROADWAY","AtStreet":"LAUREL ST","Latitude":49.263268,"Longitude":-123.123650,"WheelchairAccess":1,"Distance":754,"Routes":"009, N9"},{"StopNo":60415,"Name":"WB W 12 AVE FS LAUREL ST","BayNo":"N","City":"VANCOUVER","OnStreet":"W 12TH AVE","AtStreet":"LAUREL ST","Latitude":49.260620,"Longitude":-123.124664,"WheelchairAccess":1,"Distance":780,"Routes":"017"},{"StopNo":61985,"Name":"WB W 2 AVE FS CROWE ST","BayNo":"N","City":"VANCOUVER","OnStreet":"W 2 AVE","AtStreet":"CROWE ST","Latitude":49.268177,"Longitude":-123.111984,"WheelchairAccess":1,"Distance":823,"Routes":"084"},{"StopNo":58500,"Name":"WB E BROADWAY FS MAIN ST--","BayNo":"N","City":"VANCOUVER","OnStreet":"E BROADWAY","AtStreet":"MAIN ST","Latitude":49.263058,"Longitude":-123.102676,"WheelchairAccess":1,"Distance":851,"Routes":"099"},{"StopNo":50477,"Name":"NB CAMBIE ST FS W 20 AVE","BayNo":"N","City":"VANCOUVER","OnStreet":"CAMBIE ST","AtStreet":"W 20 AVE","Latitude":49.253242,"Longitude":-123.115105,"WheelchairAccess":1,"Distance":854,"Routes":"015, 033, N15"},{"StopNo":60413,"Name":"EB W 12 AVE FS OAK ST","BayNo":"N","City":"VANCOUVER","OnStreet":"W 12 AVE","AtStreet":"OAK ST","Latitude":49.260483,"Longitude":-123.126038,"WheelchairAccess":1,"Distance":880,"Routes":"017"},{"StopNo":59440,"Name":"EB W BROADWAY FS OAK ST ","BayNo":"N","City":"VANCOUVER","OnStreet":"W BROADWAY","AtStreet":"OAK ST","Latitude":49.263283,"Longitude":-123.125870,"WheelchairAccess":1,"Distance":907,"Routes":"009, N9"},{"StopNo":50417,"Name":"SB CAMBIE ST FS W 20 AVE","BayNo":"N","City":"VANCOUVER","OnStreet":"CAMBIE ST","AtStreet":"W 20 AVE","Latitude":49.252766,"Longitude":-123.115379,"WheelchairAccess":1,"Distance":909,"Routes":"015, 033, N15"},{"StopNo":50461,"Name":"NB OAK ST FS W 12 AVE","BayNo":"N","City":"VANCOUVER","OnStreet":"OAK ST","AtStreet":"W 12 AVE","Latitude":49.260924,"Longitude":-123.126566,"WheelchairAccess":1,"Distance":917,"Routes":""},{"StopNo":50881,"Name":"WB E BROADWAY FS MAIN ST-","BayNo":"N","City":"VANCOUVER","OnStreet":"E BROADWAY","AtStreet":"MAIN ST","Latitude":49.263020,"Longitude":-123.101631,"WheelchairAccess":1,"Distance":923,"Routes":"009, N9"},{"StopNo":50240,"Name":"SB MAIN ST FS E 12 AVE","BayNo":"N","City":"VANCOUVER","OnStreet":"MAIN ST","AtStreet":"E 12 AVE","Latitude":49.259888,"Longitude":-123.101273,"WheelchairAccess":1,"Distance":925,"Routes":"003"},{"StopNo":60266,"Name":"NB OAK ST NS W 10 AVE","BayNo":"N","City":"VANCOUVER","OnStreet":"OAK ST","AtStreet":"W 10 AVE","Latitude":49.262225,"Longitude":-123.126530,"WheelchairAccess":1,"Distance":927,"Routes":""},{"StopNo":59412,"Name":"NB OAK ST FS W 10 AVE","BayNo":"N","City":"VANCOUVER","OnStreet":"OAK ST","AtStreet":"W 10 AVE","Latitude":49.262652,"Longitude":-123.126500,"WheelchairAccess":0,"Distance":933,"Routes":""},{"StopNo":50331,"Name":"SB OAK ST FS W 12 AVE","BayNo":"N","City":"VANCOUVER","OnStreet":"OAK ST","AtStreet":"W 12 AVE","Latitude":49.260307,"Longitude":-123.126816,"WheelchairAccess":1,"Distance":938,"Routes":"017"},{"StopNo":50879,"Name":"EB E BROADWAY NS MAIN ST","BayNo":"N","City":"VANCOUVER","OnStreet":"E BROADWAY","AtStreet":"MAIN ST","Latitude":49.262830,"Longitude":-123.101340,"WheelchairAccess":1,"Distance":939,"Routes":""},{"StopNo":60267,"Name":"SB OAK ST FS W 10 AVE","BayNo":"N","City":"VANCOUVER","OnStreet":"OAK ST","AtStreet":"W 10 AVE","Latitude":49.262196,"Longitude":-123.126721,"WheelchairAccess":1,"Distance":940,"Routes":""},{"StopNo":50460,"Name":"NB OAK ST FS W 14 AVE","BayNo":"N","City":"VANCOUVER","OnStreet":"OAK ST","AtStreet":"W 14 AVE","Latitude":49.259125,"Longitude":-123.126633,"WheelchairAccess":1,"Distance":943,"Routes":"017"},{"StopNo":50238,"Name":"SB MAIN ST FS E BROADWAY","BayNo":"N","City":"VANCOUVER","OnStreet":"MAIN ST","AtStreet":"E BROADWAY","Latitude":49.262540,"Longitude":-123.101140,"WheelchairAccess":1,"Distance":946,"Routes":""},{"StopNo":50174,"Name":"NB MAIN ST FS E 12 AVE","BayNo":"N","City":"VANCOUVER","OnStreet":"MAIN ST","AtStreet":"E 12 AVE","Latitude":49.260529,"Longitude":-123.100891,"WheelchairAccess":1,"Distance":947,"Routes":"003"},{"StopNo":59758,"Name":"EB W 2 AVE NS COLUMBIA ST","BayNo":"N","City":"VANCOUVER","OnStreet":"W 2 AVE","AtStreet":"COLUMBIA ST","Latitude":49.269028,"Longitude":-123.109734,"WheelchairAccess":1,"Distance":955,"Routes":"084"},{"StopNo":60517,"Name":"SB MAIN ST NS E BROADWAY","BayNo":"N","City":"VANCOUVER","OnStreet":"MAIN ST","AtStreet":"E BROADWAY","Latitude":49.263081,"Longitude":-123.101143,"WheelchairAccess":-1,"Distance":959,"Routes":"003"},{"StopNo":50330,"Name":"SB OAK ST FS W BROADWAY","BayNo":"N","City":"VANCOUVER","OnStreet":"OAK ST","AtStreet":"W BROADWAY","Latitude":49.263054,"Longitude":-123.126731,"WheelchairAccess":1,"Distance":960,"Routes":""},{"StopNo":50241,"Name":"SB MAIN ST FS E 14 AVE","BayNo":"N","City":"VANCOUVER","OnStreet":"MAIN ST","AtStreet":"E 14 AVE","Latitude":49.258083,"Longitude":-123.101303,"WheelchairAccess":1,"Distance":968,"Routes":"003"},{"StopNo":59582,"Name":"NB MAIN ST FS E 14 AVE","BayNo":"N","City":"VANCOUVER","OnStreet":"MAIN ST","AtStreet":"E 14 AVE","Latitude":49.258781,"Longitude":-123.100990,"WheelchairAccess":1,"Distance":968,"Routes":"003"},{"StopNo":59757,"Name":"WB W 2 AVE FS COLUMBIA ST","BayNo":"N","City":"VANCOUVER","OnStreet":"W 2 AVE","AtStreet":"COLUMBIA ST","Latitude":49.269190,"Longitude":-123.109900,"WheelchairAccess":1,"Distance":969,"Routes":""},{"StopNo":50329,"Name":"EB W BROADWAY NS OAK ST","BayNo":"N","City":"VANCOUVER","OnStreet":"W BROADWAY","AtStreet":"OAK ST","Latitude":49.263313,"Longitude":-123.126858,"WheelchairAccess":0,"Distance":976,"Routes":""},{"StopNo":50332,"Name":"SB OAK ST FS W 14 AVE","BayNo":"N","City":"VANCOUVER","OnStreet":"OAK ST","AtStreet":"W 14 AVE","Latitude":49.258518,"Longitude":-123.126900,"WheelchairAccess":1,"Distance":978,"Routes":"017"},{"StopNo":50176,"Name":"NB MAIN ST FS E BROADWAY","BayNo":"N","City":"VANCOUVER","OnStreet":"MAIN ST","AtStreet":"E BROADWAY","Latitude":49.263233,"Longitude":-123.100792,"WheelchairAccess":1,"Distance":988,"Routes":"003"},{"StopNo":50237,"Name":"SB MAIN ST NS E 8 AVE","BayNo":"N","City":"VANCOUVER","OnStreet":"MAIN ST","AtStreet":"E 8 AVE","Latitude":49.263880,"Longitude":-123.101090,"WheelchairAccess":1,"Distance":989,"Routes":""},{"StopNo":52101,"Name":"EB E BROADWAY FS MAIN ST","BayNo":"N","City":"VANCOUVER","OnStreet":"E BROADWAY","AtStreet":"MAIN ST","Latitude":49.262802,"Longitude":-123.100418,"WheelchairAccess":1,"Distance":1003,"Routes":"099"},{"StopNo":50463,"Name":"WB W BROADWAY FS OAK ST","BayNo":"N","City":"VANCOUVER","OnStreet":"W BROADWAY","AtStreet":"OAK ST","Latitude":49.263531,"Longitude":-123.127304,"WheelchairAccess":1,"Distance":1014,"Routes":"009, N9"},{"StopNo":61124,"Name":"WB W 16 AVE NS OAK ST","BayNo":"N","City":"VANCOUVER","OnStreet":"W 16 AVE","AtStreet":"OAK ST","Latitude":49.257179,"Longitude":-123.126877,"WheelchairAccess":1,"Distance":1026,"Routes":"033"},{"StopNo":50771,"Name":"EB KINGSWAY FS MAIN ST ","BayNo":"N","City":"VANCOUVER","OnStreet":"KINGSWAY","AtStreet":"MAIN ST","Latitude":49.263824,"Longitude":-123.100517,"WheelchairAccess":1,"Distance":1027,"Routes":"008, 019, N19, N8"},{"StopNo":59581,"Name":"NB MAIN ST FS E 16 AVE","BayNo":"N","City":"VANCOUVER","OnStreet":"MAIN ST","AtStreet":"E 16 AVE","Latitude":49.256943,"Longitude":-123.101067,"WheelchairAccess":1,"Distance":1031,"Routes":"003"},{"StopNo":50242,"Name":"SB MAIN ST FS E 16 AVE","BayNo":"N","City":"VANCOUVER","OnStreet":"MAIN ST","AtStreet":"E 16 AVE","Latitude":49.256252,"Longitude":-123.101387,"WheelchairAccess":1,"Distance":1046,"Routes":"003"},{"StopNo":50880,"Name":"EB E BROADWAY NS KINGSWAY","BayNo":"N","City":"VANCOUVER","OnStreet":"E BROADWAY","AtStreet":"KINGSWAY ST","Latitude":49.262779,"Longitude":-123.099815,"WheelchairAccess":1,"Distance":1046,"Routes":"009, N9"},{"StopNo":58953,"Name":"WB E 10 AVE FS KINGSWAY","BayNo":"N","City":"VANCOUVER","OnStreet":"E 10 AVE","AtStreet":"KINGSWAY","Latitude":49.262032,"Longitude":-123.099602,"WheelchairAccess":0,"Distance":1047,"Routes":""},{"StopNo":50476,"Name":"NB CAMBIE ST FS W 22 AVE","BayNo":"N","City":"VANCOUVER","OnStreet":"CAMBIE ST","AtStreet":"W 22 AVE","Latitude":49.251472,"Longitude":-123.115166,"WheelchairAccess":1,"Distance":1050,"Routes":"015, 033, N15"},{"StopNo":58145,"Name":"WB KINGSWAY FS E BROADWAY","BayNo":"N","City":"VANCOUVER","OnStreet":"KINGSWAY","AtStreet":"E BROADWAY","Latitude":49.263294,"Longitude":-123.099678,"WheelchairAccess":1,"Distance":1068,"Routes":"008, 019, N19, N8"},{"StopNo":51134,"Name":"EB KINGSWAY FS E BROADWAY","BayNo":"N","City":"VANCOUVER","OnStreet":"KINGSWAY","AtStreet":"E BROADWAY","Latitude":49.262550,"Longitude":-123.099411,"WheelchairAccess":1,"Distance":1070,"Routes":"019, N19"},{"StopNo":61954,"Name":"WB W 2 AVE FS MANITOBA ST","BayNo":"N","City":"VANCOUVER","OnStreet":"W 2 AVE","AtStreet":"MANITOBA ST","Latitude":49.269375,"Longitude":-123.106995,"WheelchairAccess":1,"Distance":1070,"Routes":"084"},{"StopNo":50459,"Name":"NB OAK ST FS W 17 AVE","BayNo":"N","City":"VANCOUVER","OnStreet":"OAK ST","AtStreet":"W 17 AVE","Latitude":49.256577,"Longitude":-123.127106,"WheelchairAccess":1,"Distance":1070,"Routes":"017"},{"StopNo":50333,"Name":"SB OAK ST FS W 16 AVE","BayNo":"N","City":"VANCOUVER","OnStreet":"OAK ST","AtStreet":"W 16 AVE","Latitude":49.256752,"Longitude":-123.127350,"WheelchairAccess":1,"Distance":1077,"Routes":"017"},{"StopNo":50177,"Name":"NB MAIN ST NS E 6 AVE","BayNo":"N","City":"VANCOUVER","OnStreet":"MAIN ST","AtStreet":"E 6 AVE","Latitude":49.265339,"Longitude":-123.100685,"WheelchairAccess":1,"Distance":1081,"Routes":"003, 008, 019, N19, N8"},{"StopNo":50236,"Name":"SB MAIN ST FS E 5 AVE--","BayNo":"N","City":"VANCOUVER","OnStreet":"MAIN ST","AtStreet":"E 5 AVE","Latitude":49.265850,"Longitude":-123.100990,"WheelchairAccess":1,"Distance":1089,"Routes":"003"},{"StopNo":61096,"Name":"EB W 16 AVE NS OAK ST","BayNo":"N","City":"VANCOUVER","OnStreet":"W 16 AVE","AtStreet":"OAK ST","Latitude":49.256969,"Longitude":-123.127708,"WheelchairAccess":1,"Distance":1091,"Routes":"033"},{"StopNo":58510,"Name":"SB MAIN ST FS E 5 AVE-","BayNo":"N","City":"VANCOUVER","OnStreet":"MAIN ST","AtStreet":"E 5 AVE","Latitude":49.266106,"Longitude":-123.100975,"WheelchairAccess":1,"Distance":1105,"Routes":"008, 019, N19, N8"},{"StopNo":50418,"Name":"SB CAMBIE ST FS W 22 AVE","BayNo":"N","City":"VANCOUVER","OnStreet":"CAMBIE ST","AtStreet":"W 22 AVE","Latitude":49.250984,"Longitude":-123.115448,"WheelchairAccess":1,"Distance":1106,"Routes":"015, 033, N15"},{"StopNo":50850,"Name":"WB E BROADWAY NS SCOTIA ST","BayNo":"N","City":"VANCOUVER","OnStreet":"E BROADWAY","AtStreet":"SCOTIA ST","Latitude":49.262924,"Longitude":-123.098694,"WheelchairAccess":1,"Distance":1128,"Routes":"008, 009, N8, N9"},{"StopNo":59759,"Name":"WB W 2 AVE FS ONTARIO ST","BayNo":"N","City":"VANCOUVER","OnStreet":"W 2 AVE","AtStreet":"ONTARIO ST","Latitude":49.269360,"Longitude":-123.105040,"WheelchairAccess":1,"Distance":1142,"Routes":""},{"StopNo":59835,"Name":"NB MAIN ST FS E 18 AVE","BayNo":"N","City":"VANCOUVER","OnStreet":"MAIN ST","AtStreet":"E 18 AVE","Latitude":49.255005,"Longitude":-123.100983,"WheelchairAccess":1,"Distance":1144,"Routes":"003"},{"StopNo":50464,"Name":"WB W BROADWAY FS SPRUCE ST","BayNo":"N","City":"VANCOUVER","OnStreet":"W BROADWAY","AtStreet":"SPRUCE ST","Latitude":49.263538,"Longitude":-123.129372,"WheelchairAccess":1,"Distance":1159,"Routes":"009, N9"},{"StopNo":59760,"Name":"EB E 2 AVE FS ONTARIO ST","BayNo":"N","City":"VANCOUVER","OnStreet":"E 2 AVE","AtStreet":"ONTARIO ST","Latitude":49.269127,"Longitude":-123.104156,"WheelchairAccess":1,"Distance":1159,"Routes":"084"},{"StopNo":50178,"Name":"NB MAIN ST FS E 5 AVE","BayNo":"N","City":"VANCOUVER","OnStreet":"MAIN ST","AtStreet":"E 5 AVE","Latitude":49.266720,"Longitude":-123.100662,"WheelchairAccess":1,"Distance":1161,"Routes":"003, 008, 019, N19, N8"},{"StopNo":50772,"Name":"EB E BROADWAY FS KINGSWAY","BayNo":"N","City":"VANCOUVER","OnStreet":"E BROADWAY","AtStreet":"KINGSWAY","Latitude":49.262718,"Longitude":-123.098053,"WheelchairAccess":1,"Distance":1170,"Routes":"008, 009, N8, N9"},{"StopNo":58307,"Name":"SB MAIN ST FS E 18 AVE","BayNo":"N","City":"VANCOUVER","OnStreet":"MAIN ST","AtStreet":"E 18 AVE","Latitude":49.254337,"Longitude":-123.100960,"WheelchairAccess":1,"Distance":1190,"Routes":"003"},{"StopNo":51135,"Name":"EB KINGSWAY NS E 12 AVE","BayNo":"N","City":"VANCOUVER","OnStreet":"KINGSWAY","AtStreet":"E 12 AVE","Latitude":49.260193,"Longitude":-123.097099,"WheelchairAccess":1,"Distance":1224,"Routes":"019, N19"},{"StopNo":50235,"Name":"SB MAIN ST FS E 3 AVE","BayNo":"N","City":"VANCOUVER","OnStreet":"MAIN ST","AtStreet":"E 3 AVE","Latitude":49.267998,"Longitude":-123.100945,"WheelchairAccess":1,"Distance":1230,"Routes":"003, 008, 019, N19, N8"},{"StopNo":52069,"Name":"EB LAMEY'S MILL RD AT SITKA SQUARE","BayNo":"N","City":"VANCOUVER","OnStreet":"LAMEY'S MILL RD","AtStreet":"SITKA SQUARE","Latitude":49.266319,"Longitude":-123.128700,"WheelchairAccess":1,"Distance":1231,"Routes":"050"},{"StopNo":50335,"Name":"SB OAK ST FS DOUGLAS CRES","BayNo":"N","City":"VANCOUVER","OnStreet":"OAK ST","AtStreet":"DOUGLAS CRES","Latitude":49.254124,"Longitude":-123.127472,"WheelchairAccess":1,"Distance":1237,"Routes":"017"},{"StopNo":50458,"Name":"NB OAK ST FS W 20 AVE","BayNo":"N","City":"VANCOUVER","OnStreet":"OAK ST","AtStreet":"W 20 AVE","Latitude":49.253937,"Longitude":-123.127235,"WheelchairAccess":1,"Distance":1237,"Routes":"017"},{"StopNo":51199,"Name":"WB KINGSWAY FS E 12 AVE","BayNo":"N","City":"VANCOUVER","OnStreet":"KINGSWAY","AtStreet":"E 12 AVE","Latitude":49.260170,"Longitude":-123.096664,"WheelchairAccess":1,"Distance":1255,"Routes":"019, N19"},{"StopNo":50328,"Name":"EB W BROADWAY FS ALDER ST","BayNo":"N","City":"VANCOUVER","OnStreet":"W BROADWAY","AtStreet":"ALDER ST","Latitude":49.263382,"Longitude":-123.130981,"WheelchairAccess":1,"Distance":1268,"Routes":"009, N9"},{"StopNo":52058,"Name":"WB LAMEY'S MILL RD FS SITKA SQUARE","BayNo":"N","City":"VANCOUVER","OnStreet":"LAMEY'S MILL RD","AtStreet":"SITKA SQUARE","Latitude":49.266460,"Longitude":-123.129349,"WheelchairAccess":1,"Distance":1279,"Routes":"050"},{"StopNo":50475,"Name":"KING EDWARD STN BAY 2","BayNo":"2","City":"VANCOUVER","OnStreet":"KING EDWARD STN","AtStreet":"BAY 2","Latitude":49.249416,"Longitude":-123.115242,"WheelchairAccess":1,"Distance":1279,"Routes":"015, 033, N15"},{"StopNo":59836,"Name":"NB MAIN ST FS E 20 AVE","BayNo":"N","City":"VANCOUVER","OnStreet":"MAIN ST","AtStreet":"E 20 AVE","Latitude":49.253227,"Longitude":-123.100761,"WheelchairAccess":1,"Distance":1280,"Routes":"003"},{"StopNo":50849,"Name":"WB E BROADWAY FS PRINCE EDWARD ST","BayNo":"N","City":"VANCOUVER","OnStreet":"E BROADWAY","AtStreet":"PRINCE EDWARD ST","Latitude":49.262836,"Longitude":-123.096512,"WheelchairAccess":1,"Distance":1282,"Routes":"008, 009, N8, N9"},{"StopNo":59580,"Name":"SB MAIN ST FS E 2 AVE","BayNo":"N","City":"VANCOUVER","OnStreet":"MAIN ST","AtStreet":"E 2 AVE","Latitude":49.268688,"Longitude":-123.100898,"WheelchairAccess":1,"Distance":1283,"Routes":""},{"StopNo":59761,"Name":"WB E 2 AVE FS MAIN ST","BayNo":"N","City":"VANCOUVER","OnStreet":"E 2 AVE","AtStreet":"MAIN ST","Latitude":49.269283,"Longitude":-123.101219,"WheelchairAccess":1,"Distance":1312,"Routes":"084"},{"StopNo":61371,"Name":"KING EDWARD STATION PLATFORM 2","BayNo":"N","City":"VANCOUVER","OnStreet":"KING EDWARD STATION","AtStreet":"PLATFORM 2","Latitude":49.249100,"Longitude":-123.115601,"WheelchairAccess":0,"Distance":1316,"Routes":"980"},{"StopNo":61372,"Name":"KING EDWARD STATION PLATFORM 1","BayNo":"N","City":"VANCOUVER","OnStreet":"KING EDWARD STATION","AtStreet":"PLATFORM 1","Latitude":49.249100,"Longitude":-123.115547,"WheelchairAccess":0,"Distance":1316,"Routes":"980"},{"StopNo":51574,"Name":"KING EDWARD STN BAY 1","BayNo":"1","City":"VANCOUVER","OnStreet":"KING EDWARD STN","AtStreet":"BAY 1","Latitude":49.249126,"Longitude":-123.116020,"WheelchairAccess":1,"Distance":1316,"Routes":"025"},{"StopNo":50244,"Name":"SB MAIN ST FS E 20 AVE","BayNo":"N","City":"VANCOUVER","OnStreet":"MAIN ST","AtStreet":"E 20 AVE","Latitude":49.252396,"Longitude":-123.101097,"WheelchairAccess":1,"Distance":1326,"Routes":"003"},{"StopNo":50465,"Name":"WB W BROADWAY FS ALDER ST","BayNo":"N","City":"VANCOUVER","OnStreet":"W BROADWAY","AtStreet":"ALDER ST","Latitude":49.263577,"Longitude":-123.131744,"WheelchairAccess":1,"Distance":1327,"Routes":"009, N9"},{"StopNo":59762,"Name":"EB E 2 AVE FS MAIN ST","BayNo":"N","City":"VANCOUVER","OnStreet":"E 2 AVE","AtStreet":"MAIN ST","Latitude":49.268684,"Longitude":-123.100067,"WheelchairAccess":1,"Distance":1328,"Routes":"084"},{"StopNo":51513,"Name":"KING EDWARD STN BAY 3","BayNo":"3","City":"VANCOUVER","OnStreet":"KING EDWARD STN","AtStreet":"BAY 3","Latitude":49.248867,"Longitude":-123.114708,"WheelchairAccess":1,"Distance":1337,"Routes":"025"},{"StopNo":51573,"Name":"WB W KING EDWARD AVE FS COLUMBIA ST","BayNo":"N","City":"VANCOUVER","OnStreet":"W KING EDWARD AVE","AtStreet":"COLUMBIA ST","Latitude":49.249023,"Longitude":-123.110519,"WheelchairAccess":1,"Distance":1342,"Routes":"025"},{"StopNo":50773,"Name":"EB E BROADWAY FS PRINCE EDWARD ST","BayNo":"N","City":"VANCOUVER","OnStreet":"E BROADWAY","AtStreet":"PRINCE EDWARD ST","Latitude":49.262455,"Longitude":-123.095528,"WheelchairAccess":1,"Distance":1347,"Routes":"008, 009, N8, N9"},{"StopNo":51514,"Name":"EB W KING EDWARD AVE FS YUKON ST","BayNo":"N","City":"VANCOUVER","OnStreet":"W KING EDWARD AVE","AtStreet":"YUKON ST","Latitude":49.248820,"Longitude":-123.111720,"WheelchairAccess":1,"Distance":1351,"Routes":""},{"StopNo":51136,"Name":"EB KINGSWAY FS E 13 AVE","BayNo":"N","City":"VANCOUVER","OnStreet":"KINGSWAY","AtStreet":"E 13 AVE","Latitude":49.258949,"Longitude":-123.095428,"WheelchairAccess":1,"Distance":1360,"Routes":"019, N19"},{"StopNo":51512,"Name":"EB W KING EDWARD AVE FS ASH ST","BayNo":"N","City":"VANCOUVER","OnStreet":"W KING EDWARD AVE","AtStreet":"ASH ST","Latitude":49.248917,"Longitude":-123.117943,"WheelchairAccess":0,"Distance":1362,"Routes":"025"},{"StopNo":50179,"Name":"NB MAIN ST FS E 2 AVE","BayNo":"N","City":"VANCOUVER","OnStreet":"MAIN ST","AtStreet":"E 2 AVE","Latitude":49.269455,"Longitude":-123.100502,"WheelchairAccess":1,"Distance":1363,"Routes":"003, 008, 019, N19, N8"},{"StopNo":50419,"Name":"KING EDWARD STN BAY 4","BayNo":"4","City":"VANCOUVER","OnStreet":"KING EDWARD STN","AtStreet":"BAY 4","Latitude":49.248634,"Longitude":-123.115723,"WheelchairAccess":1,"Distance":1368,"Routes":"015, 033, N15"},{"StopNo":61694,"Name":"SB MAIN ST FS E 1 AV","BayNo":"N","City":"VANCOUVER","OnStreet":"MAIN ST","AtStreet":"E 1 AV","Latitude":49.269830,"Longitude":-123.100840,"WheelchairAccess":1,"Distance":1375,"Routes":""},{"StopNo":50457,"Name":"NB OAK ST FS W 22 AVE","BayNo":"N","City":"VANCOUVER","OnStreet":"OAK ST","AtStreet":"W 22 AVE","Latitude":49.251968,"Longitude":-123.127312,"WheelchairAccess":1,"Distance":1388,"Routes":"017"},{"StopNo":51575,"Name":"WB W KING EDWARD AVE FS HEATHER ST","BayNo":"N","City":"VANCOUVER","OnStreet":"W KING EDWARD AVE","AtStreet":"HEATHER ST","Latitude":49.249207,"Longitude":-123.120842,"WheelchairAccess":1,"Distance":1392,"Routes":"025"},{"StopNo":59837,"Name":"NB MAIN ST FS E 22 AVE","BayNo":"N","City":"VANCOUVER","OnStreet":"MAIN ST","AtStreet":"E 22 AVE","Latitude":49.251453,"Longitude":-123.100868,"WheelchairAccess":1,"Distance":1413,"Routes":"003"},{"StopNo":59752,"Name":"EB W 6 AVE FS ALDER CROSSING","BayNo":"N","City":"VANCOUVER","OnStreet":"W 6 AVE","AtStreet":"ALDER CROSSING","Latitude":49.266026,"Longitude":-123.131767,"WheelchairAccess":1,"Distance":1415,"Routes":"084"},{"StopNo":52068,"Name":"EB LAMEY'S MILL RD FS ALDER CROSSING  ","BayNo":"N","City":"VANCOUVER","OnStreet":"LAMEY'S MILL RD","AtStreet":"ALDER CROSSING","Latitude":49.266544,"Longitude":-123.131645,"WheelchairAccess":0,"Distance":1431,"Routes":"050"},{"StopNo":51516,"Name":"EB W KING EDWARD AVE FS MANITOBA ST","BayNo":"N","City":"VANCOUVER","OnStreet":"W KING EDWARD AVE","AtStreet":"MANITOBA ST","Latitude":49.248817,"Longitude":-123.107040,"WheelchairAccess":1,"Distance":1432,"Routes":"025"},{"StopNo":50234,"Name":"SB MAIN ST FS SWITCHMEN ST","BayNo":"N","City":"VANCOUVER","OnStreet":"MAIN ST","AtStreet":"SWITCHMEN ST","Latitude":49.270622,"Longitude":-123.100822,"WheelchairAccess":1,"Distance":1441,"Routes":"003, 008, 019, N19, N8"},{"StopNo":51511,"Name":"EB W KING EDWARD AVE FS WILLOW ST","BayNo":"N","City":"VANCOUVER","OnStreet":"W KING EDWARD AVE","AtStreet":"WILLOW ST","Latitude":49.248989,"Longitude":-123.121933,"WheelchairAccess":1,"Distance":1445,"Routes":"025"},{"StopNo":50336,"Name":"SB OAK ST FS BALFOUR AVE","BayNo":"N","City":"VANCOUVER","OnStreet":"OAK ST","AtStreet":"BALFOUR AVE","Latitude":49.251423,"Longitude":-123.127586,"WheelchairAccess":1,"Distance":1445,"Routes":"017"},{"StopNo":50848,"Name":"WB E BROADWAY FS SAINT GEORGE ST","BayNo":"N","City":"VANCOUVER","OnStreet":"E BROADWAY","AtStreet":"SAINT GEORGE ST","Latitude":49.262592,"Longitude":-123.093956,"WheelchairAccess":1,"Distance":1462,"Routes":"008, 009, N8, N9"},{"StopNo":59763,"Name":"EB GREAT NORTHERN WAY FS BRUNSWICK ST ","BayNo":"N","City":"VANCOUVER","OnStreet":"GREAT NORTHERN WAY","AtStreet":"BRUNSWICK ST","Latitude":49.266747,"Longitude":-123.095825,"WheelchairAccess":1,"Distance":1466,"Routes":"084"},{"StopNo":51572,"Name":"WB W KING EDWARD AVE FS ONTARIO ST","BayNo":"N","City":"VANCOUVER","OnStreet":"W KING EDWARD AVE","AtStreet":"ONTARIO ST","Latitude":49.248920,"Longitude":-123.105385,"WheelchairAccess":1,"Distance":1468,"Routes":"025"},{"StopNo":50245,"Name":"SB MAIN ST FS E 22 AVE","BayNo":"N","City":"VANCOUVER","OnStreet":"MAIN ST","AtStreet":"E 22 AVE","Latitude":49.250675,"Longitude":-123.101089,"WheelchairAccess":1,"Distance":1469,"Routes":"003"},{"StopNo":50180,"Name":"NB MAIN ST FS INDUSTRIAL AVE","BayNo":"N","City":"VANCOUVER","OnStreet":"MAIN ST","AtStreet":"INDUSTRIAL AVE","Latitude":49.270802,"Longitude":-123.100433,"WheelchairAccess":1,"Distance":1475,"Routes":"003, 008, 019, N19, N8"},{"StopNo":59751,"Name":"WB W 6 AVE FS ALDER CROSSING","BayNo":"N","City":"VANCOUVER","OnStreet":"W 6 AVE","AtStreet":"ALDER CROSSING","Latitude":49.266197,"Longitude":-123.132576,"WheelchairAccess":1,"Distance":1477,"Routes":"084"},{"StopNo":59918,"Name":"EB PACIFIC BLVD FS MARINASIDE CRES","BayNo":"N","City":"VANCOUVER","OnStreet":"PACIFIC BLVD","AtStreet":"MARINASIDE CRES","Latitude":49.274212,"Longitude":-123.114449,"WheelchairAccess":1,"Distance":1482,"Routes":"023"},{"StopNo":52059,"Name":"WB LAMEY'S MILL RD FS ALDER CROSSING","BayNo":"N","City":"VANCOUVER","OnStreet":"LAMEY'S MILL RD","AtStreet":"ALDER CROSSING","Latitude":49.266830,"Longitude":-123.132523,"WheelchairAccess":0,"Distance":1503,"Routes":"050"},{"StopNo":60335,"Name":"EB E KING EDWARD AVE FS ONTARIO ST","BayNo":"N","City":"VANCOUVER","OnStreet":"E KING EDWARD AVE","AtStreet":"ONTARIO ST","Latitude":49.248772,"Longitude":-123.104630,"WheelchairAccess":1,"Distance":1506,"Routes":"025"},{"StopNo":59916,"Name":"EB PACIFIC BLVD NS BOATHOUSE MEWS","BayNo":"N","City":"VANCOUVER","OnStreet":"PACIFIC BLVD","AtStreet":"BOATHOUSE MEWS","Latitude":49.274212,"Longitude":-123.117630,"WheelchairAccess":1,"Distance":1506,"Routes":"023"},{"StopNo":51198,"Name":"WB KINGSWAY FS SAINT GEORGE ST","BayNo":"N","City":"VANCOUVER","OnStreet":"KINGSWAY","AtStreet":"SAINT GEORGE ST","Latitude":49.258171,"Longitude":-123.093582,"WheelchairAccess":1,"Distance":1507,"Routes":"019, N19"},{"StopNo":59764,"Name":"WB GREAT NORTHERN NS PRINCE EDWARD ","BayNo":"N","City":"VANCOUVER","OnStreet":"GREAT NORTHERN WAY","AtStreet":"PRINCE EDWARD ST","Latitude":49.266890,"Longitude":-123.095260,"WheelchairAccess":1,"Distance":1510,"Routes":""},{"StopNo":61253,"Name":"NB CAMBIE ST FS W 27 AVE","BayNo":"N","City":"VANCOUVER","OnStreet":"CAMBIE ST","AtStreet":"W 27 AVE","Latitude":49.247292,"Longitude":-123.115173,"WheelchairAccess":1,"Distance":1514,"Routes":"015, 033, N15"},{"StopNo":61125,"Name":"WB W 15 AVE FS BIRCH ST","BayNo":"N","City":"VANCOUVER","OnStreet":"W 15 AVE","AtStreet":"BIRCH ST","Latitude":49.257965,"Longitude":-123.134407,"WheelchairAccess":0,"Distance":1521,"Routes":"033"},{"StopNo":51576,"Name":"WB W KING EDWARD AVE FS LAUREL ST","BayNo":"N","City":"VANCOUVER","OnStreet":"W KING EDWARD AVE","AtStreet":"LAUREL ST","Latitude":49.249302,"Longitude":-123.125107,"WheelchairAccess":1,"Distance":1522,"Routes":"025"},{"StopNo":61684,"Name":"WB GREAT NORTHERN WAY NS THORNTON ST","BayNo":"N","City":"VANCOUVER","OnStreet":"GREAT NORTHERN WAY","AtStreet":"THORNTON ST","Latitude":49.266911,"Longitude":-123.094727,"WheelchairAccess":1,"Distance":1546,"Routes":"084"},{"StopNo":50016,"Name":"YALETOWN-ROUNDHOUSE STN BAY 4","BayNo":"4","City":"VANCOUVER","OnStreet":"YALETOWN-ROUNDHOUSE STN","AtStreet":"BAY 4","Latitude":49.274036,"Longitude":-123.120842,"WheelchairAccess":1,"Distance":1546,"Routes":"023"},{"StopNo":50015,"Name":"EB PACIFIC BLVD FS DRAKE ST","BayNo":"N","City":"VANCOUVER","OnStreet":"PACIFIC BLVD","AtStreet":"DRAKE ST","Latitude":49.273430,"Longitude":-123.123138,"WheelchairAccess":1,"Distance":1547,"Routes":"023"},{"StopNo":60014,"Name":"WB EXPO BLVD FS NELSON ST","BayNo":"N","City":"VANCOUVER","OnStreet":"EXPO BLVD","AtStreet":"NELSON ST","Latitude":49.274765,"Longitude":-123.116234,"WheelchairAccess":1,"Distance":1553,"Routes":"023"},{"StopNo":50774,"Name":"EB E BROADWAY FS SAINT GEORGE ST","BayNo":"N","City":"VANCOUVER","OnStreet":"E BROADWAY","AtStreet":"SAINT GEORGE ST","Latitude":49.262402,"Longitude":-123.092514,"WheelchairAccess":1,"Distance":1563,"Routes":"008, 009, N8, N9"},{"StopNo":50420,"Name":"SB CAMBIE ST FS W 27 AVE","BayNo":"N","City":"VANCOUVER","OnStreet":"CAMBIE ST","AtStreet":"W 27 AVE","Latitude":49.246788,"Longitude":-123.115814,"WheelchairAccess":1,"Distance":1573,"Routes":"015, 033, N15"},{"StopNo":50085,"Name":"YALETOWN-ROUNDHOUSE STN BAY 3","BayNo":"3","City":"VANCOUVER","OnStreet":"YALETOWN-ROUNDHOUSE STN","AtStreet":"BAY 3","Latitude":49.274063,"Longitude":-123.121895,"WheelchairAccess":1,"Distance":1575,"Routes":"023"},{"StopNo":51517,"Name":"EB E KING EDWARD AVE FS QUEBEC ST","BayNo":"N","City":"VANCOUVER","OnStreet":"E KING EDWARD AVE","AtStreet":"QUEBEC ST","Latitude":49.248736,"Longitude":-123.102742,"WheelchairAccess":0,"Distance":1576,"Routes":""},{"StopNo":50086,"Name":"WB PACIFIC BLVD FS DRAKE ST","BayNo":"N","City":"VANCOUVER","OnStreet":"PACIFIC BLVD","AtStreet":"DRAKE ST","Latitude":49.273418,"Longitude":-123.124214,"WheelchairAccess":1,"Distance":1581,"Routes":"023"},{"StopNo":59914,"Name":"WB PACIFIC BLVD FS CAMBIE ST","BayNo":"N","City":"VANCOUVER","OnStreet":"PACIFIC BLVD","AtStreet":"CAMBIE ST","Latitude":49.274605,"Longitude":-123.119682,"WheelchairAccess":1,"Distance":1582,"Routes":"023"},{"StopNo":50014,"Name":"EB PACIFIC BLVD FS HOMER ST","BayNo":"N","City":"VANCOUVER","OnStreet":"PACIFIC BLVD","AtStreet":"HOMER ST","Latitude":49.272930,"Longitude":-123.125549,"WheelchairAccess":1,"Distance":1583,"Routes":"023"},{"StopNo":50456,"Name":"NB OAK ST FS W KING EDWARD AVE","BayNo":"N","City":"VANCOUVER","OnStreet":"OAK ST","AtStreet":"W KING EDWARD AVE","Latitude":49.249634,"Longitude":-123.127357,"WheelchairAccess":1,"Distance":1586,"Routes":"017"},{"StopNo":50327,"Name":"EB W BROADWAY FS HEMLOCK ST","BayNo":"N","City":"VANCOUVER","OnStreet":"W BROADWAY","AtStreet":"HEMLOCK ST","Latitude":49.263470,"Longitude":-123.135536,"WheelchairAccess":1,"Distance":1594,"Routes":"009, N9"},{"StopNo":61408,"Name":"WB DAVIE ST FS PACIFIC BLVD","BayNo":"N","City":"VANCOUVER","OnStreet":"DAVIE ST","AtStreet":"PACIFIC BLVD","Latitude":49.274330,"Longitude":-123.121710,"WheelchairAccess":1,"Distance":1598,"Routes":""},{"StopNo":61366,"Name":"YALETOWN-ROUNDHOUSE STATION PLATFORM 1","BayNo":"N","City":"VANCOUVER","OnStreet":"YALETOWN-ROUNDHOUSE STATION","AtStreet":"PLATFORM 1","Latitude":49.274357,"Longitude":-123.121803,"WheelchairAccess":0,"Distance":1603,"Routes":"980"},{"StopNo":61365,"Name":"YALETOWN-ROUNDHOUSE STATION PLATFORM 2","BayNo":"N","City":"VANCOUVER","OnStreet":"YALETOWN-ROUNDHOUSE STATION","AtStreet":"PLATFORM 2","Latitude":49.274357,"Longitude":-123.121841,"WheelchairAccess":0,"Distance":1604,"Routes":"980"},{"StopNo":61215,"Name":"YALETOWN-ROUNDHOUSE STN BAY 2","BayNo":"2","City":"VANCOUVER","OnStreet":"YALETOWN-ROUNDHOUSE STN","AtStreet":"BAY 2","Latitude":49.274323,"Longitude":-123.122009,"WheelchairAccess":1,"Distance":1605,"Routes":"006"},{"StopNo":51571,"Name":"WB E KING EDWARD AVE FS MAIN ST","BayNo":"N","City":"VANCOUVER","OnStreet":"E KING EDWARD AVE","AtStreet":"MAIN ST","Latitude":49.248867,"Longitude":-123.101631,"WheelchairAccess":1,"Distance":1607,"Routes":"025"},{"StopNo":51137,"Name":"EB KINGSWAY NS CAROLINA ST","BayNo":"N","City":"VANCOUVER","OnStreet":"KINGSWAY","AtStreet":"CAROLINA ST","Latitude":49.257420,"Longitude":-123.092369,"WheelchairAccess":1,"Distance":1611,"Routes":"019, N19"},{"StopNo":50169,"Name":"NB MAIN ST FS E KING EDWARD AVE","BayNo":"N","City":"VANCOUVER","OnStreet":"MAIN ST","AtStreet":"E KING EDWARD AVE","Latitude":49.249054,"Longitude":-123.100937,"WheelchairAccess":1,"Distance":1618,"Routes":"003"},{"StopNo":51510,"Name":"EB W KING EDWARD AVE FS OAK ST","BayNo":"N","City":"VANCOUVER","OnStreet":"W KING EDWARD AVE","AtStreet":"OAK ST","Latitude":49.249088,"Longitude":-123.126999,"WheelchairAccess":1,"Distance":1619,"Routes":"025"},{"StopNo":51577,"Name":"WB W KING EDWARD AVE FS OAK ST","BayNo":"N","City":"VANCOUVER","OnStreet":"W KING EDWARD AVE","AtStreet":"OAK ST","Latitude":49.249374,"Longitude":-123.128075,"WheelchairAccess":1,"Distance":1641,"Routes":"025"},{"StopNo":50484,"Name":"NB SMITHE ST NS EXPO BLVD","BayNo":"N","City":"VANCOUVER","OnStreet":"SMITHE ST","AtStreet":"EXPO BLVD","Latitude":49.275660,"Longitude":-123.114570,"WheelchairAccess":1,"Distance":1644,"Routes":""},{"StopNo":60289,"Name":"WB E KING EDWARD AVE NS MAIN ST","BayNo":"N","City":"VANCOUVER","OnStreet":"E KING EDWARD AVE","AtStreet":"MAIN ST","Latitude":49.248850,"Longitude":-123.100621,"WheelchairAccess":1,"Distance":1650,"Routes":""},{"StopNo":52060,"Name":"WB LAMEY'S MILL RD AT 1300 BLOCK","BayNo":"N","City":"VANCOUVER","OnStreet":"LAMEY'S MILL RD","AtStreet":"1300 BLOCK","Latitude":49.267338,"Longitude":-123.134422,"WheelchairAccess":1,"Distance":1651,"Routes":"050"},{"StopNo":59925,"Name":"NB QUEBEC ST FS TERMINAL AVE","BayNo":"N","City":"VANCOUVER","OnStreet":"QUEBEC ST","AtStreet":"TERMINAL AVE","Latitude":49.273357,"Longitude":-123.101524,"WheelchairAccess":1,"Distance":1653,"Routes":"023"},{"StopNo":50246,"Name":"SB MAIN ST FS E KING EDWARD AVE","BayNo":"N","City":"VANCOUVER","OnStreet":"MAIN ST","AtStreet":"E KING EDWARD AVE","Latitude":49.248466,"Longitude":-123.101196,"WheelchairAccess":1,"Distance":1661,"Routes":"003"},{"StopNo":51518,"Name":"EB E KING EDWARD AVE FS MAIN ST","BayNo":"N","City":"VANCOUVER","OnStreet":"E KING EDWARD AVE","AtStreet":"MAIN ST","Latitude":49.248695,"Longitude":-123.100555,"WheelchairAccess":0,"Distance":1667,"Routes":"025"},{"StopNo":57968,"Name":"MAIN STREET-SCIENCE WORLD STATION PLATFORM 2","BayNo":"N","City":"VANCOUVER","OnStreet":"MAIN STREET-SCIENCE WORLD STATION","AtStreet":"PLATFORM 2","Latitude":49.273098,"Longitude":-123.100395,"WheelchairAccess":0,"Distance":1676,"Routes":"992"},{"StopNo":60341,"Name":"SB HEMLOCK ST FS W 7 AV","BayNo":"N","City":"VANCOUVER","OnStreet":"HEMLOCK ST","AtStreet":"W 7 AV","Latitude":49.265050,"Longitude":-123.136130,"WheelchairAccess":0,"Distance":1676,"Routes":""},{"StopNo":50023,"Name":"YALETOWN-ROUNDHOUSE STN BAY 1","BayNo":"1","City":"VANCOUVER","OnStreet":"YALETOWN-ROUNDHOUSE STN","AtStreet":"BAY 1","Latitude":49.274868,"Longitude":-123.122536,"WheelchairAccess":1,"Distance":1676,"Routes":"006"},{"StopNo":50411,"Name":"EB NELSON ST FS CAMBIE ST","BayNo":"N","City":"VANCOUVER","OnStreet":"NELSON ST","AtStreet":"CAMBIE ST","Latitude":49.275791,"Longitude":-123.117737,"WheelchairAccess":1,"Distance":1680,"Routes":"017, N15"},{"StopNo":50233,"Name":"MAIN STREET-SCIENCE WORLD STN BAY 1","BayNo":"1","City":"VANCOUVER","OnStreet":"MAIN STREET-SCIENCE WORLD STN","AtStreet":"BAY 1","Latitude":49.273071,"Longitude":-123.100189,"WheelchairAccess":1,"Distance":1682,"Routes":"003, 008, 019, N19, N8"},{"StopNo":57999,"Name":"MAIN STREET-SCIENCE WORLD STATION PLATFORM 1","BayNo":"N","City":"VANCOUVER","OnStreet":"MAIN STREET-SCIENCE WORLD STATION","AtStreet":"PLATFORM 1","Latitude":49.273170,"Longitude":-123.100349,"WheelchairAccess":0,"Distance":1684,"Routes":"992"},{"StopNo":51275,"Name":"EB TERMINAL AVE FS WESTERN ST","BayNo":"N","City":"VANCOUVER","OnStreet":"TERMINAL AVE","AtStreet":"WESTERN ST","Latitude":49.272476,"Longitude":-123.098892,"WheelchairAccess":0,"Distance":1689,"Routes":"022"},{"StopNo":50337,"Name":"SB OAK ST FS W KING EDWARD AVE","BayNo":"N","City":"VANCOUVER","OnStreet":"OAK ST","AtStreet":"W KING EDWARD AVE","Latitude":49.248653,"Longitude":-123.127716,"WheelchairAccess":1,"Distance":1689,"Routes":"017"},{"StopNo":61810,"Name":"NB SMITHE ST FS EXPO BLVD","BayNo":"N","City":"VANCOUVER","OnStreet":"SMITHE ST","AtStreet":"EXPO BLVD","Latitude":49.276112,"Longitude":-123.114937,"WheelchairAccess":1,"Distance":1695,"Routes":"017, N15"},{"StopNo":52067,"Name":"EB LAMEY'S MILL RD FS FOUNTAIN WAY COURT","BayNo":"N","City":"VANCOUVER","OnStreet":"LAMEY'S MILL RD","AtStreet":"FOUNTAIN WAY COURT","Latitude":49.267429,"Longitude":-123.135139,"WheelchairAccess":1,"Distance":1703,"Routes":"050"},{"StopNo":60102,"Name":"SB CAMBIE ST FS NELSON ST","BayNo":"N","City":"VANCOUVER","OnStreet":"CAMBIE ST","AtStreet":"NELSON ST","Latitude":49.275955,"Longitude":-123.118439,"WheelchairAccess":1,"Distance":1707,"Routes":"006"},{"StopNo":50087,"Name":"WB PACIFIC ST NS RICHARDS ST","BayNo":"N","City":"VANCOUVER","OnStreet":"PACIFIC ST","AtStreet":"RICHARDS ST","Latitude":49.273624,"Longitude":-123.127083,"WheelchairAccess":1,"Distance":1708,"Routes":"023"},{"StopNo":61608,"Name":"NB MAIN ST FS E 26 AV","BayNo":"N","City":"VANCOUVER","OnStreet":"MAIN ST","AtStreet":"E 26 AVE","Latitude":49.248070,"Longitude":-123.100950,"WheelchairAccess":1,"Distance":1708,"Routes":""},{"StopNo":50013,"Name":"EB PACIFIC ST FS RICHARDS ST","BayNo":"N","City":"VANCOUVER","OnStreet":"PACIFIC ST","AtStreet":"RICHARDS ST","Latitude":49.273529,"Longitude":-123.127319,"WheelchairAccess":1,"Distance":1709,"Routes":"023"},{"StopNo":61252,"Name":"NB CAMBIE ST FS W 29 AVE","BayNo":"N","City":"VANCOUVER","OnStreet":"CAMBIE ST","AtStreet":"W 29 AVE","Latitude":49.245537,"Longitude":-123.115250,"WheelchairAccess":1,"Distance":1709,"Routes":"015, 033, N15"},{"StopNo":51509,"Name":"EB W KING EDWARD AVE FS OSLER ST","BayNo":"N","City":"VANCOUVER","OnStreet":"W KING EDWARD AVE","AtStreet":"OSLER ST","Latitude":49.249119,"Longitude":-123.129379,"WheelchairAccess":1,"Distance":1723,"Routes":"025"},{"StopNo":50181,"Name":"MAIN STREET-SCIENCE WORLD STN BAY 2","BayNo":"2","City":"VANCOUVER","OnStreet":"MAIN STREET-SCIENCE WORLD STN","AtStreet":"BAY 2","Latitude":49.273396,"Longitude":-123.099831,"WheelchairAccess":1,"Distance":1727,"Routes":"003, 008, 019, 022, N19, N8"},{"StopNo":58286,"Name":"SB CAMBIE ST NS W 29 AVE","BayNo":"N","City":"VANCOUVER","OnStreet":"CAMBIE ST","AtStreet":"W 29 AVE","Latitude":49.245384,"Longitude":-123.115868,"WheelchairAccess":1,"Distance":1729,"Routes":"015, N15"},{"StopNo":60103,"Name":"NB CAMBIE ST FS NELSON ST","BayNo":"N","City":"VANCOUVER","OnStreet":"CAMBIE ST","AtStreet":"NELSON ST","Latitude":49.276260,"Longitude":-123.117760,"WheelchairAccess":1,"Distance":1732,"Routes":"006"},{"StopNo":61099,"Name":"EB W 29 AVE FS CAMBIE ST","BayNo":"N","City":"VANCOUVER","OnStreet":"E 29 AVE","AtStreet":"CAMBIE ST","Latitude":49.245110,"Longitude":-123.114571,"WheelchairAccess":1,"Distance":1755,"Routes":"033"},{"StopNo":59929,"Name":"MAIN STREET-SCIENCE WORLD STN BAY 3","BayNo":"3","City":"VANCOUVER","OnStreet":"MAIN STREET-SCIENCE WORLD STN","AtStreet":"BAY 3","Latitude":49.273163,"Longitude":-123.098686,"WheelchairAccess":1,"Distance":1757,"Routes":"023"},{"StopNo":60049,"Name":"SB CAMBIE ST NS NELSON ST","BayNo":"N","City":"VANCOUVER","OnStreet":"CAMBIE ST","AtStreet":"NELSON ST","Latitude":49.276601,"Longitude":-123.117499,"WheelchairAccess":1,"Distance":1767,"Routes":""},{"StopNo":50455,"Name":"NB OAK ST FS W 27 AVE","BayNo":"N","City":"VANCOUVER","OnStreet":"OAK ST","AtStreet":"W 27 AVE","Latitude":49.247505,"Longitude":-123.127487,"WheelchairAccess":1,"Distance":1784,"Routes":"017"},{"StopNo":58280,"Name":"WB TERMINAL AVE AT 300 BLOCK","BayNo":"N","City":"VANCOUVER","OnStreet":"TERMINAL AVE","AtStreet":"300 BLOCK","Latitude":49.272362,"Longitude":-123.096642,"WheelchairAccess":1,"Distance":1789,"Routes":"022"},{"StopNo":59926,"Name":"EB NATIONAL AVE FS QUEBEC ST","BayNo":"N","City":"VANCOUVER","OnStreet":"NATIONAL AVE","AtStreet":"QUEBEC ST","Latitude":49.274872,"Longitude":-123.101463,"WheelchairAccess":1,"Distance":1799,"Routes":"023"},{"StopNo":59397,"Name":"EB DAVIE ST FS RICHARDS ST","BayNo":"N","City":"VANCOUVER","OnStreet":"DAVIE ST","AtStreet":"RICHARDS ST","Latitude":49.275700,"Longitude":-123.124080,"WheelchairAccess":1,"Distance":1805,"Routes":""},{"StopNo":50485,"Name":"WB SMITHE ST NS CAMBIE ST","BayNo":"N","City":"VANCOUVER","OnStreet":"SMITHE ST","AtStreet":"CAMBIE ST","Latitude":49.277050,"Longitude":-123.116260,"WheelchairAccess":1,"Distance":1806,"Routes":""},{"StopNo":50232,"Name":"SB MAIN ST FS NATIONAL AVE","BayNo":"N","City":"VANCOUVER","OnStreet":"MAIN ST","AtStreet":"NATIONAL AVE","Latitude":49.274506,"Longitude":-123.100143,"WheelchairAccess":1,"Distance":1815,"Routes":"003, 008, 019, 022, N19, N8"},{"StopNo":51570,"Name":"WB E KING EDWARD AVE FS PRINCE EDWARD ST","BayNo":"N","City":"VANCOUVER","OnStreet":"E KING EDWARD AVE","AtStreet":"PRINCE EDWARD ST","Latitude":49.248783,"Longitude":-123.097122,"WheelchairAccess":1,"Distance":1816,"Routes":"025"},{"StopNo":60351,"Name":"SB STATION ST FS NATIONAL AVE","BayNo":"N","City":"VANCOUVER","OnStreet":"STATION ST","AtStreet":"NATIONAL AVE","Latitude":49.273853,"Longitude":-123.098650,"WheelchairAccess":1,"Distance":1819,"Routes":""},{"StopNo":59927,"Name":"NB QUEBEC ST FS NATIONAL AVE","BayNo":"N","City":"VANCOUVER","OnStreet":"QUEBEC ST","AtStreet":"NATIONAL AVE","Latitude":49.275246,"Longitude":-123.101807,"WheelchairAccess":1,"Distance":1823,"Routes":"023"},{"StopNo":59860,"Name":"EB DAVIE ST NS RICHARDS ST","BayNo":"N","City":"VANCOUVER","OnStreet":"DAVIE ST","AtStreet":"RICHARDS ST","Latitude":49.275963,"Longitude":-123.124481,"WheelchairAccess":1,"Distance":1843,"Routes":"006"},{"StopNo":51578,"Name":"WB W KING EDWARD AVE FS SELKIRK ST","BayNo":"N","City":"VANCOUVER","OnStreet":"W KING EDWARD AVE","AtStreet":"SELKIRK ST","Latitude":49.249451,"Longitude":-123.132500,"WheelchairAccess":1,"Distance":1853,"Routes":"025"},{"StopNo":50024,"Name":"WB DAVIE ST FS RICHARDS ST","BayNo":"N","City":"VANCOUVER","OnStreet":"DAVIE ST","AtStreet":"RICHARDS ST","Latitude":49.276180,"Longitude":-123.124557,"WheelchairAccess":1,"Distance":1868,"Routes":"006"},{"StopNo":51519,"Name":"EB E KING EDWARD AVE FS PRINCE EDWARD ST","BayNo":"N","City":"VANCOUVER","OnStreet":"E KING EDWARD AVE","AtStreet":"PRINCE EDWARD ST","Latitude":49.248638,"Longitude":-123.096184,"WheelchairAccess":1,"Distance":1874,"Routes":"025"},{"StopNo":59928,"Name":"EB NATIONAL AVE FS MAIN ST","BayNo":"N","City":"VANCOUVER","OnStreet":"NATIONAL AVE","AtStreet":"MAIN ST","Latitude":49.274845,"Longitude":-123.099442,"WheelchairAccess":1,"Distance":1875,"Routes":"023"},{"StopNo":50247,"Name":"SB MAIN ST NS E 28 AV","BayNo":"N","City":"VANCOUVER","OnStreet":"MAIN ST","AtStreet":"E 28 AVE","Latitude":49.246140,"Longitude":-123.101380,"WheelchairAccess":1,"Distance":1875,"Routes":""},{"StopNo":51276,"Name":"EB TERMINAL AVE NS THORNTON ST","BayNo":"N","City":"VANCOUVER","OnStreet":"TERMINAL AVE","AtStreet":"THORNTON ST","Latitude":49.271618,"Longitude":-123.093948,"WheelchairAccess":1,"Distance":1878,"Routes":"022"},{"StopNo":59919,"Name":"NB PAT QUINN WAY FS PACIFIC BLVD","BayNo":"N","City":"VANCOUVER","OnStreet":"PAT QUINN WAY","AtStreet":"PACIFIC BLVD","Latitude":49.277431,"Longitude":-123.107544,"WheelchairAccess":1,"Distance":1897,"Routes":"023"},{"StopNo":50167,"Name":"NB MAIN ST FS E 28 AVE","BayNo":"N","City":"VANCOUVER","OnStreet":"MAIN ST","AtStreet":"E 28 AVE","Latitude":49.245968,"Longitude":-123.101105,"WheelchairAccess":1,"Distance":1902,"Routes":"003"},{"StopNo":61073,"Name":"SB CAMBIE ST FS ROBSON ST","BayNo":"N","City":"VANCOUVER","OnStreet":"CAMBIE ST","AtStreet":"ROBSON ST","Latitude":49.278000,"Longitude":-123.115402,"WheelchairAccess":1,"Distance":1906,"Routes":"006, 017, N15"},{"StopNo":50182,"Name":"NB MAIN ST FS NATIONAL AVE","BayNo":"N","City":"VANCOUVER","OnStreet":"MAIN ST","AtStreet":"NATIONAL AVE","Latitude":49.275322,"Longitude":-123.099747,"WheelchairAccess":1,"Distance":1907,"Routes":"003, 008, 019, 022, N19, N8"},{"StopNo":51004,"Name":"NB SEYMOUR ST FS DAVIE ST ","BayNo":"N","City":"VANCOUVER","OnStreet":"SEYMOUR ST","AtStreet":"DAVIE ST","Latitude":49.276810,"Longitude":-123.124626,"WheelchairAccess":1,"Distance":1934,"Routes":"N10, N17, N9"},{"StopNo":51354,"Name":"WB TERMINAL AVE NS THORNTON ST","BayNo":"N","City":"VANCOUVER","OnStreet":"TERMINAL AVE","AtStreet":"THORNTON ST","Latitude":49.271778,"Longitude":-123.093109,"WheelchairAccess":1,"Distance":1936,"Routes":"022"},{"StopNo":50338,"Name":"SB OAK ST FS NANTON AVE","BayNo":"N","City":"VANCOUVER","OnStreet":"OAK ST","AtStreet":"NANTON AVE","Latitude":49.245987,"Longitude":-123.127792,"WheelchairAccess":0,"Distance":1938,"Routes":"017"},{"StopNo":60104,"Name":"NB CAMBIE ST FS ROBSON ST","BayNo":"N","City":"VANCOUVER","OnStreet":"CAMBIE ST","AtStreet":"ROBSON ST","Latitude":49.278324,"Longitude":-123.114670,"WheelchairAccess":1,"Distance":1940,"Routes":"006"},{"StopNo":51508,"Name":"EB W KING EDWARD AVE FS HUDSON ST","BayNo":"N","City":"VANCOUVER","OnStreet":"W KING EDWARD AVE","AtStreet":"HUDSON ST","Latitude":49.249191,"Longitude":-123.133896,"WheelchairAccess":1,"Distance":1947,"Routes":"025"},{"StopNo":59536,"Name":"SB MAIN ST FS E 28 AVE","BayNo":"N","City":"VANCOUVER","OnStreet":"MAIN ST","AtStreet":"E 28 AVE","Latitude":49.245407,"Longitude":-123.101395,"WheelchairAccess":1,"Distance":1947,"Routes":"003"},{"StopNo":51569,"Name":"WB E KING EDWARD AVE FS SAINT GEORGE ST","BayNo":"N","City":"VANCOUVER","OnStreet":"E KING EDWARD AVE","AtStreet":"SAINT GEORGE ST","Latitude":49.248753,"Longitude":-123.094414,"WheelchairAccess":1,"Distance":1956,"Routes":"025"},{"StopNo":50536,"Name":"SB GRANVILLE ST FS DRAKE ST","BayNo":"N","City":"VANCOUVER","OnStreet":"GRANVILLE ST","AtStreet":"DRAKE ST","Latitude":49.275860,"Longitude":-123.128387,"WheelchairAccess":0,"Distance":1968,"Routes":"004, 007, 010, 014, 016, 050"},{"StopNo":58593,"Name":"NB GRANVILLE ST FS DRAKE ST","BayNo":"N","City":"VANCOUVER","OnStreet":"GRANVILLE ST","AtStreet":"DRAKE ST","Latitude":49.276485,"Longitude":-123.127090,"WheelchairAccess":1,"Distance":1980,"Routes":"004, 007, 010, 014, 016, 050"},{"StopNo":61120,"Name":"WB MIDLOTHIAN AVE FS CLANCY LORANGER WAY","BayNo":"N","City":"VANCOUVER","OnStreet":"MIDLOTHIAN AVE","AtStreet":"CLANCY LORANGER WAY","Latitude":49.243313,"Longitude":-123.109291,"WheelchairAccess":1,"Distance":1983,"Routes":"033"},{"StopNo":60116,"Name":"EB DAVIE ST FS GRANVILLE ST","BayNo":"N","City":"VANCOUVER","OnStreet":"DAVIE ST","AtStreet":"GRANVILLE ST","Latitude":49.276924,"Longitude":-123.125992,"WheelchairAccess":1,"Distance":1987,"Routes":"006"}]