{
   "html_attributions" : [],
   "next_page_token" : "CvQD6gEAAJ7xOaPpQFlF1yEvDj2hn2R3lzbRAQ1ZG1abUou_EgoeZpDi2zTmczmv_Q4qpqE6LDaLXEYiohcQv-uhy9az0krhOBLg3CrzKi5G7QsxtyVHTi_A6QzTOKsjZw3FlqFzZ1WLeBkmRsbxz2QBkuKiHbO5eDfFdvSc_ENby5ZSr-Opv8iC0Tw167VNP6N-mF0LPmGNqw6v6P6iV63aLDtSsJu6JbGR_fstT4Op89v2bz7vuOWuTbUNFj88xZUYGBsLosioQgyOwm9IoicWHtZ1XCmdKHA0mrRK9JTVIVLerjcbvrWdLEOg5mXfW0kJctvalc1nNDx97YV-HMZeX595hdCvM_cife3iStwATeBTEEntvfh7w4wOqGp7wIcgnBQ01CcHvng-5eDMGwy9U8ZbiX_RfoHewc7Adst05Et7rr6lDA2OHsQZIjRMrwfOxu1oEgh55VBYuo79TzjgY--EOvB0xuPWXwc4xV39f4Mpm13hzIUmv8-njKQVno8I4d9RQ59Cd8F0N62cRTVcmTx6ufT3KFWzsR_ixmYlD1rKglxyYUWYQJLO0NbC7RfKQUfm4biwDsPJsUAOvrECrY8sb5154wFid1dcZA63vBdUDowI1jUlSXTbb6Mo8IjQws7MVBT-a1AYpnojn7qRcafDffkSEDWpQ8Ee5OjkG85AsxTiBVIaFJvHOJXC7kKG_uhOJTuwP40CuGSh",
   "results" : [
      {
         "geometry" : {
            "location" : {
               "lat" : 43.69385399999999,
               "lng" : -79.310524
            },
            "viewport" : {
               "northeast" : {
                  "lat" : 43.6952029802915,
                  "lng" : -79.30917501970849
               },
               "southwest" : {
                  "lat" : 43.6925050197085,
                  "lng" : -79.31187298029151
               }
            }
         },
         "icon" : "https://maps.gstatic.com/mapfiles/place_api/icons/bus-71.png",
         "id" : "13ac39733c7e725b2789abc8115e44745dcdcf50",
         "name" : "Lumsden Ave at Oak Park Ave",
         "place_id" : "ChIJl07iJD_M1IkR7JWKmNPLzVA",
         "plus_code" : {
            "compound_code" : "MMVQ+GQ Toronto, Ontario, Canada",
            "global_code" : "87M2MMVQ+GQ"
         },
         "reference" : "CmRRAAAAAFGOjiO9sjlw4hohaHHlhx8wbJyXPBbSmdFqJRo5qCUab0POb8-lmI_BKTernTjs_n7Icsu0A-k0whDjh9QlHaXh68SJ7ZWX7AbbbvU7a_yJKwD5bq23kNH62AHNL0YTEhBzN5OYEz7j8u6TyA-i_P6ZGhTW6bL6bomJANk2nNcUE936M5HIbQ",
         "scope" : "GOOGLE",
         "types" : [
            "bus_station",
            "transit_station",
            "point_of_interest",
            "establishment"
         ],
         "vicinity" : "Canada"
      },
      {
         "geometry" : {
            "location" : {
               "lat" : 43.694286,
               "lng" : -79.308638
            },
            "viewport" : {
               "northeast" : {
                  "lat" : 43.6956349802915,
                  "lng" : -79.30728901970849
               },
               "southwest" : {
                  "lat" : 43.6929370197085,
                  "lng" : -79.3099869802915
               }
            }
         },
         "icon" : "https://maps.gstatic.com/mapfiles/place_api/icons/bus-71.png",
         "id" : "f06094a29ba5b72ad0fd931f0861b9e5e56200b0",
         "name" : "Lumsden Ave at Westlake Ave",
         "place_id" : "ChIJyyr0yj7M1IkR-eTPwl8jHug",
         "plus_code" : {
            "compound_code" : "MMVR+PG Toronto, Ontario, Canada",
            "global_code" : "87M2MMVR+PG"
         },
         "reference" : "CmRSAAAADA8A2ilHmw8vTMzo4h6lEMV4QdOz706tCSq9kmUoJYR8vkwVPU6xTDuvGiIc-mbPorLCUQb4edLR-PX8bpTkvk5wd4jG1YoZSk1PasASpG_Abr1fCvAFdzqbUu36qSK3EhC7mpc-NLIFuYvct1Cg3D0IGhQwIChHujfsK0vvhKFyyOhxInPaaA",
         "scope" : "GOOGLE",
         "types" : [
            "bus_station",
            "transit_station",
            "point_of_interest",
            "establishment"
         ],
         "vicinity" : "Canada"
      },
      {
         "geometry" : {
            "location" : {
               "lat" : 43.693839,
               "lng" : -79.310947
            },
            "viewport" : {
               "northeast" : {
                  "lat" : 43.6951879802915,
                  "lng" : -79.30959801970849
               },
               "southwest" : {
                  "lat" : 43.6924900197085,
                  "lng" : -79.31229598029149
               }
            }
         },
         "icon" : "https://maps.gstatic.com/mapfiles/place_api/icons/bus-71.png",
         "id" : "1fc30f43f4ccc0697ecc43654c6fafe51e54bf75",
         "name" : "Lumsden Ave at Gledhill Ave",
         "place_id" : "ChIJky_DOz_M1IkRwoIUFd93xFA",
         "plus_code" : {
            "compound_code" : "MMVQ+GJ Toronto, Ontario, Canada",
            "global_code" : "87M2MMVQ+GJ"
         },
         "reference" : "CmRRAAAAHWAQve5J2FxCRClO3Q8bswO6ie69_P7nIqQ6LPoZcwh_wYGlh6D-DBBI_Fy1wbszJm9NpSjqnA3VVKdTPkDNQ7lhA7EG5YXkLmCJCp-oBhwFa3TIAJ3uA9LB8PLbvdj7EhAbirvVDK4huu5U7Ol61rYkGhQXvJO9aBaPb7W8xeyO1Tv2OZKmTA",
         "scope" : "GOOGLE",
         "types" : [
            "bus_station",
            "transit_station",
            "point_of_interest",
            "establishment"
         ],
         "vicinity" : "Canada"
      },
      {
         "geometry" : {
            "location" : {
               "lat" : 43.694499,
               "lng" : -79.308347
            },
            "viewport" : {
               "northeast" : {
                  "lat" : 43.6958479802915,
                  "lng" : -79.30699801970849
               },
               "southwest" : {
                  "lat" : 43.6931500197085,
                  "lng" : -79.30969598029149
               }
            }
         },
         "icon" : "https://maps.gstatic.com/mapfiles/place_api/icons/bus-71.png",
         "id" : "a18c17b760b070ae2353d7334f600ed71bb6f45f",
         "name" : "Westlake Ave at Lumsden Ave",
         "place_id" : "ChIJ6Z8dSznM1IkRogQ1bu2__YY",
         "plus_code" : {
            "compound_code" : "MMVR+QM Toronto, Ontario, Canada",
            "global_code" : "87M2MMVR+QM"
         },
         "reference" : "CmRSAAAArEF4rbovAN0Je1DgYwja8xyS0PAWGOSMP9Bw__Z_8-J7qC-WjYKeMLpUVdNcLJo-fF2jw9fjRHIP9uQVxCXgn1Rf80-qKnfPo6zqiC9pCE54U8jyXq55pKIveGIm5F4lEhARba-gJ9lZB0yqbRguEUGRGhS1puX6nLz4dLdWpQrhMp5nR24u1w",
         "scope" : "GOOGLE",
         "types" : [
            "bus_station",
            "transit_station",
            "point_of_interest",
            "establishment"
         ],
         "vicinity" : "Canada"
      },
      {
         "geometry" : {
            "location" : {
               "lat" : 43.69455199999999,
               "lng" : -79.30784799999999
            },
            "viewport" : {
               "northeast" : {
                  "lat" : 43.6959009802915,
                  "lng" : -79.30649901970848
               },
               "southwest" : {
                  "lat" : 43.6932030197085,
                  "lng" : -79.3091969802915
               }
            }
         },
         "icon" : "https://maps.gstatic.com/mapfiles/place_api/icons/bus-71.png",
         "id" : "95186a1c57261206f3a55d6d33d0653ac317b127",
         "name" : "Lumsden Ave at Westlake Ave",
         "place_id" : "ChIJS66OTTnM1IkRNS2vJgU9PsY",
         "plus_code" : {
            "compound_code" : "MMVR+RV Toronto, Ontario, Canada",
            "global_code" : "87M2MMVR+RV"
         },
         "rating" : 5,
         "reference" : "CmRSAAAAtb0ce-bcqe_mJdX8lVoEDadYfZhrbCksBR05wwIL3W1_utFDqk2kHXyG2-cf0dvRT6867b0Tdi12ySItthW1kZ7iW7nPYpTq1zlc6BdIqiOALI7tQ_uj7LnOWEPZDygWEhABXHAb01UuUyLAuZ-VUHInGhSn5uIHBvysKrtQUcgluHm0RU6JOA",
         "scope" : "GOOGLE",
         "types" : [
            "bus_station",
            "transit_station",
            "point_of_interest",
            "establishment"
         ],
         "vicinity" : "Canada"
      },
      {
         "geometry" : {
            "location" : {
               "lat" : 43.695033,
               "lng" : -79.308458
            },
            "viewport" : {
               "northeast" : {
                  "lat" : 43.69638198029149,
                  "lng" : -79.30710901970849
               },
               "southwest" : {
                  "lat" : 43.6936840197085,
                  "lng" : -79.30980698029151
               }
            }
         },
         "icon" : "https://maps.gstatic.com/mapfiles/place_api/icons/bus-71.png",
         "id" : "4cd3113255a2ec57b15b90ddb1855a470e794ec7",
         "name" : "Westlake Ave at Wallington Ave",
         "place_id" : "ChIJpRTmRznM1IkRmxRee9bsef8",
         "plus_code" : {
            "compound_code" : "MMWR+2J Toronto, Ontario, Canada",
            "global_code" : "87M2MMWR+2J"
         },
         "reference" : "CmRSAAAA1qbuoVBjs9Hp9VrpftBFXaB886-JG7aeh6bNlYxnGIoLQPy1ZN_tVSoMw5MoauSD2pDHdtYWHiMoGr2HWk-jhIgdnkyoTWOle-bNPUyjgFuGSqXUklSWdBtGcuu1sqVyEhDwl5cG9zDgvvIw7VZe3ZSGGhRnixnu60ziN-DqazyGOJAx0UmeFQ",
         "scope" : "GOOGLE",
         "types" : [
            "bus_station",
            "transit_station",
            "point_of_interest",
            "establishment"
         ],
         "vicinity" : "Canada"
      },
      {
         "geometry" : {
            "location" : {
               "lat" : 43.69431000000001,
               "lng" : -79.30582299999999
            },
            "viewport" : {
               "northeast" : {
                  "lat" : 43.6956589802915,
                  "lng" : -79.30447401970848
               },
               "southwest" : {
                  "lat" : 43.69296101970851,
                  "lng" : -79.3071719802915
               }
            }
         },
         "icon" : "https://maps.gstatic.com/mapfiles/place_api/icons/bus-71.png",
         "id" : "deafd661cc8bb5390a74aa0babc5e8a52ca4f0e3",
         "name" : "Chisholm Ave at Crewe Ave",
         "place_id" : "ChIJ3xri9DvM1IkRAUuslt3rU6w",
         "plus_code" : {
            "compound_code" : "MMVV+PM Toronto, Ontario, Canada",
            "global_code" : "87M2MMVV+PM"
         },
         "reference" : "CmRSAAAAKweMCm50_VkR6P_krAPr8d0n3p4aZ1JQHY4hXuc4nplb8jeybxyAPmvlGGZyiqCKw9Q-Ttzi5_faBKUHijA15I0YZsEjZUgeI1qMvv40rH--_YyzIVUErORcw9l6EzhIEhDgejtVO9YaT_ZD0hATOBSuGhSCYzC7w0NbbOIu2oOfARldePRj0w",
         "scope" : "GOOGLE",
         "types" : [
            "bus_station",
            "transit_station",
            "point_of_interest",
            "establishment"
         ],
         "vicinity" : "Canada"
      },
      {
         "geometry" : {
            "location" : {
               "lat" : 43.692931,
               "lng" : -79.30506799999999
            },
            "viewport" : {
               "northeast" : {
                  "lat" : 43.6942799802915,
                  "lng" : -79.30371901970848
               },
               "southwest" : {
                  "lat" : 43.69158201970851,
                  "lng" : -79.3064169802915
               }
            }
         },
         "icon" : "https://maps.gstatic.com/mapfiles/place_api/icons/bus-71.png",
         "id" : "8cb25adc2f652f3a73894c852ca1345106d186ee",
         "name" : "Chisholm Ave at Orley Ave North Side",
         "place_id" : "ChIJwTQaaDzM1IkRLfeNw1C87ew",
         "plus_code" : {
            "compound_code" : "MMVV+5X Toronto, Ontario, Canada",
            "global_code" : "87M2MMVV+5X"
         },
         "reference" : "CmRSAAAACOnX4LOpyppjR8ydT6KvEJhJblrGxGo9AZWSksI99kGMvKOB4_7ewgRY0uLXfcMLtzK_gl8tihpwCqMQudqGYrQ_8hOK6uCdefIy4vT2588ukJEi50qhkD-hOV5w3GB0EhCrUnOyvEKroR6ncX199-hJGhRdJcpUtn01x1D7rah_1Fw8r52izA",
         "scope" : "GOOGLE",
         "types" : [
            "bus_station",
            "transit_station",
            "point_of_interest",
            "establishment"
         ],
         "vicinity" : "Canada"
      },
      {
         "geometry" : {
            "location" : {
               "lat" : 43.692288,
               "lng" : -79.30494999999999
            },
            "viewport" : {
               "northeast" : {
                  "lat" : 43.6936369802915,
                  "lng" : -79.30360101970849
               },
               "southwest" : {
                  "lat" : 43.6909390197085,
                  "lng" : -79.3062989802915
               }
            }
         },
         "icon" : "https://maps.gstatic.com/mapfiles/place_api/icons/bus-71.png",
         "id" : "6bef1b42a370320610249b643a49e9619c9828a8",
         "name" : "Chisholm Ave at Epsom Ave",
         "place_id" : "ChIJnwQJUDzM1IkRs8yM8el1NPU",
         "plus_code" : {
            "compound_code" : "MMRW+W2 Toronto, Ontario, Canada",
            "global_code" : "87M2MMRW+W2"
         },
         "reference" : "CmRSAAAAcgYOSSIr5J_UMBhQy9rMFZjj0t7575HEOIodbqL1g3tM4Gj6lnCFcNRSdo07XLPHe6E6l0x0QMIQsQKIEMA2LhNzBZTLOF6ZvMIcNipFpwr-G8y9lRrC0ehB1V1HuUEbEhBZtfL3RrihA5WieCbAsM11GhSRnlgXl1GsCA9b0luMn4anu6Iy5Q",
         "scope" : "GOOGLE",
         "types" : [
            "bus_station",
            "transit_station",
            "point_of_interest",
            "establishment"
         ],
         "vicinity" : "Canada"
      },
      {
         "geometry" : {
            "location" : {
               "lat" : 43.69447899999999,
               "lng" : -79.305768
            },
            "viewport" : {
               "northeast" : {
                  "lat" : 43.69582798029149,
                  "lng" : -79.30441901970849
               },
               "southwest" : {
                  "lat" : 43.69313001970849,
                  "lng" : -79.30711698029151
               }
            }
         },
         "icon" : "https://maps.gstatic.com/mapfiles/place_api/icons/bus-71.png",
         "id" : "2754660955f1fbe57fc2e0d79901e34295142c5c",
         "name" : "Chisholm Ave at Lumsden Ave",
         "place_id" : "ChIJXwZb8zvM1IkRqU-I3VQ3FrI",
         "plus_code" : {
            "compound_code" : "MMVV+QM Toronto, Ontario, Canada",
            "global_code" : "87M2MMVV+QM"
         },
         "reference" : "CmRSAAAAc465FRCheSvmkYvgCNsh-2k4vmF6mKKmEsJuitbKDapupObZ8yTbie4PXu7fxxyc4rfFnh8G5-M1qki_VnbHePGO_bduSjNds6ejdSypPZ5LuP79FnNyTzq1hbtnsZKdEhBdjgeEz64SnG_hDDIThL-wGhROvYBjCJkk_nsmgTpqsXZCcORubg",
         "scope" : "GOOGLE",
         "types" : [
            "bus_station",
            "transit_station",
            "point_of_interest",
            "establishment"
         ],
         "vicinity" : "Canada"
      },
      {
         "geometry" : {
            "location" : {
               "lat" : 43.693071,
               "lng" : -79.313654
            },
            "viewport" : {
               "northeast" : {
                  "lat" : 43.6944199802915,
                  "lng" : -79.31230501970849
               },
               "southwest" : {
                  "lat" : 43.6917220197085,
                  "lng" : -79.31500298029151
               }
            }
         },
         "icon" : "https://maps.gstatic.com/mapfiles/place_api/icons/bus-71.png",
         "id" : "a018ba14bce0f9a7f4f4d7f4a4e314d4698958d5",
         "name" : "Lumsden Ave at Cedarvale Ave East Side",
         "place_id" : "ChIJy9ozjkDM1IkR4kdiraP_8q4",
         "plus_code" : {
            "compound_code" : "MMVP+6G Toronto, Ontario, Canada",
            "global_code" : "87M2MMVP+6G"
         },
         "reference" : "CmRSAAAAtOW37ogkrs0YB56ITSF7c_c8Z1Z5Z88yRKr_6eYxnoEJdsPs9WZluLU8UaQOXOek6rLhmUSYtRXWOOIgUz2JtFfrwgf63ROrJrfgdR77XisdyXw_aEe-zcWzNyyKJLguEhCjmJ3vUw0LOZtDclP6AVqxGhTw4SqirAbUWP4r1SZgJ7K_Utv-GA",
         "scope" : "GOOGLE",
         "types" : [
            "bus_station",
            "transit_station",
            "point_of_interest",
            "establishment"
         ],
         "vicinity" : "Canada"
      },
      {
         "geometry" : {
            "location" : {
               "lat" : 43.694753,
               "lng" : -79.304913
            },
            "viewport" : {
               "northeast" : {
                  "lat" : 43.6961019802915,
                  "lng" : -79.3035640197085
               },
               "southwest" : {
                  "lat" : 43.6934040197085,
                  "lng" : -79.30626198029151
               }
            }
         },
         "icon" : "https://maps.gstatic.com/mapfiles/place_api/icons/bus-71.png",
         "id" : "ae23648013820a9b5089c3656334ae4eadd262a7",
         "name" : "Lumsden Ave at Main St",
         "place_id" : "ChIJHT7rmjvM1IkRdwLv7JoxrkM",
         "plus_code" : {
            "compound_code" : "MMVW+W2 Toronto, Ontario, Canada",
            "global_code" : "87M2MMVW+W2"
         },
         "reference" : "CmRRAAAA4_rIhp6CXuuTZc-SfgxjiWyEbm5QxNamKuJT2lS-LbBD9kVLtRkULZyUwbvThNfruZHBK5kKmxNXdc9gOjs65I0zibXpCV3XzZ4yK00Hd1T39kwns5W8xbHkafH1wlDnEhCDh5EE1FjLCrXl95KZHNWHGhQ-GiXN_WbmmpLLBJCzwVR9rN2_Ug",
         "scope" : "GOOGLE",
         "types" : [
            "bus_station",
            "transit_station",
            "point_of_interest",
            "establishment"
         ],
         "vicinity" : "Canada"
      },
      {
         "geometry" : {
            "location" : {
               "lat" : 43.696428,
               "lng" : -79.30906299999999
            },
            "viewport" : {
               "northeast" : {
                  "lat" : 43.69777698029149,
                  "lng" : -79.3077140197085
               },
               "southwest" : {
                  "lat" : 43.69507901970849,
                  "lng" : -79.31041198029151
               }
            }
         },
         "icon" : "https://maps.gstatic.com/mapfiles/place_api/icons/bus-71.png",
         "id" : "b9e7f061054c8da6480c50c602b70cc1e2fdac0b",
         "name" : "Westlake Ave at Hamstead Ave",
         "place_id" : "ChIJwzQdDznM1IkRcO_iulzDvso",
         "plus_code" : {
            "compound_code" : "MMWR+H9 Toronto, Ontario, Canada",
            "global_code" : "87M2MMWR+H9"
         },
         "reference" : "CmRSAAAAtfegLSL2xDHKZFB0Lzp19BqUdKPC2V5QG3ctWxkRpeh_vUeLSIEOQyvMTOzeSAVnco8WB_NZ7biGYpMA9ulUID4cEJP5CUzofK8b80uu8I83QVspKf9Zox788qKujCO9EhBoQc8aLjVCgOZdPWlgcm9MGhREF2tn9vKwfNXV1skS1L5l5cfTwQ",
         "scope" : "GOOGLE",
         "types" : [
            "bus_station",
            "transit_station",
            "point_of_interest",
            "establishment"
         ],
         "vicinity" : "Canada"
      },
      {
         "geometry" : {
            "location" : {
               "lat" : 43.69316599999999,
               "lng" : -79.31439
            },
            "viewport" : {
               "northeast" : {
                  "lat" : 43.69451498029149,
                  "lng" : -79.31304101970851
               },
               "southwest" : {
                  "lat" : 43.69181701970849,
                  "lng" : -79.31573898029151
               }
            }
         },
         "icon" : "https://maps.gstatic.com/mapfiles/place_api/icons/bus-71.png",
         "id" : "2ee05a7b0ddcbcaf8ef7cc9dfa588599498927c2",
         "name" : "Lumsden Ave at Cedarvale Ave West Side",
         "place_id" : "ChIJ9-lw8kDM1IkRlPS-DR6l7-A",
         "plus_code" : {
            "compound_code" : "MMVP+76 Toronto, Ontario, Canada",
            "global_code" : "87M2MMVP+76"
         },
         "reference" : "CmRSAAAAmkPbhCuwax_fkVbHOhYANq_xUthR0F0SdMQYefqFGVJwihDpp6ytfbl7Nowio2mnu9tzg-rwS-eof561vD4xvQLcH8b5nHqhkHMGLFmdzzzx3-i1VdZF60NnkX8ZuYWjEhAMvlxwztS20y68xjGouFP8GhQlAHJm7WeaMHphwFQHG8MgGvd3Wg",
         "scope" : "GOOGLE",
         "types" : [
            "bus_station",
            "transit_station",
            "point_of_interest",
            "establishment"
         ],
         "vicinity" : "Canada"
      },
      {
         "geometry" : {
            "location" : {
               "lat" : 43.691661,
               "lng" : -79.303783
            },
            "viewport" : {
               "northeast" : {
                  "lat" : 43.69300998029149,
                  "lng" : -79.3024340197085
               },
               "southwest" : {
                  "lat" : 43.69031201970849,
                  "lng" : -79.30513198029151
               }
            }
         },
         "icon" : "https://maps.gstatic.com/mapfiles/place_api/icons/bus-71.png",
         "id" : "caddb5fca48e288642b4526408a25ca86a195357",
         "name" : "Doncaster Ave at Main St West Side",
         "place_id" : "ChIJEVOe_TzM1IkRfuuq84_Plfo",
         "plus_code" : {
            "compound_code" : "MMRW+MF Toronto, Ontario, Canada",
            "global_code" : "87M2MMRW+MF"
         },
         "reference" : "CmRSAAAAuT72nzgNm33f9xvgDk8SSm7gSfMDmlzls_t5m4UHQOMJ-QspUT-MSKvWeeAnEgjmu6yKTLPsGabS0I2QDteXzftwFQwKEVfLVoMX2jZxYDEKyqNxWZ-c8D4TRxDNJcApEhDquarljD65_I8hFvobbjICGhQp4QY7gRAjmLq0G0Fh9IlOSxA06Q",
         "scope" : "GOOGLE",
         "types" : [
            "bus_station",
            "transit_station",
            "point_of_interest",
            "establishment"
         ],
         "vicinity" : "Canada"
      },
      {
         "geometry" : {
            "location" : {
               "lat" : 43.694931,
               "lng" : -79.304631
            },
            "viewport" : {
               "northeast" : {
                  "lat" : 43.6962799802915,
                  "lng" : -79.3032820197085
               },
               "southwest" : {
                  "lat" : 43.6935820197085,
                  "lng" : -79.30597998029151
               }
            }
         },
         "icon" : "https://maps.gstatic.com/mapfiles/place_api/icons/bus-71.png",
         "id" : "7a2744dcb2d412a884287f5bdc355876b446605b",
         "name" : "Lumsden Ave at Main St",
         "place_id" : "ChIJ-yECnDvM1IkRruoW_hDmHvY",
         "plus_code" : {
            "compound_code" : "MMVW+X4 Toronto, Ontario, Canada",
            "global_code" : "87M2MMVW+X4"
         },
         "reference" : "CmRSAAAAgTRtkTNA14C3r5StmksHPUbRd_tRS8D6SjOCCOGm_2UVFUjcqFru1JJs7wwwRDYpHprm3KnyR62nijAvM-Lu8pMI5iO-qMD9JU7Vjq0gU0UpJRrsGl5_-c-EZh3GRoPFEhB1EZ6Zh0xi0uwh5aygic_HGhToFB8OFGVSl9ch0iOLM1KlSf8wdQ",
         "scope" : "GOOGLE",
         "types" : [
            "bus_station",
            "transit_station",
            "point_of_interest",
            "establishment"
         ],
         "vicinity" : "Canada"
      },
      {
         "geometry" : {
            "location" : {
               "lat" : 43.69659,
               "lng" : -79.30925999999999
            },
            "viewport" : {
               "northeast" : {
                  "lat" : 43.6979389802915,
                  "lng" : -79.30791101970848
               },
               "southwest" : {
                  "lat" : 43.6952410197085,
                  "lng" : -79.31060898029149
               }
            }
         },
         "icon" : "https://maps.gstatic.com/mapfiles/place_api/icons/bus-71.png",
         "id" : "802e8ea905e80f92661c9b018cb469c152ecf488",
         "name" : "Westlake Ave at Hamstead Ave",
         "place_id" : "ChIJ778EBjnM1IkRjFIic07Ob3k",
         "plus_code" : {
            "compound_code" : "MMWR+J7 Toronto, Ontario, Canada",
            "global_code" : "87M2MMWR+J7"
         },
         "reference" : "CmRRAAAANbfz-QJ7TuIPgMArg1opg38mjf7cTa9UrQmhRJshCaifU3th6PH2sb5sCtAV3vqpjtW_VlHB5c08RUhEMikhB2XVfJEbB9QsnGTg2EazTjeiJNjvlhfoDqPZgBAGi87ZEhA53OYTssYcFcmksX5MBT-oGhRdxTyf2vnXjNtPYwx8LlaKFSDNkg",
         "scope" : "GOOGLE",
         "types" : [
            "bus_station",
            "transit_station",
            "point_of_interest",
            "establishment"
         ],
         "vicinity" : "Canada"
      },
      {
         "geometry" : {
            "location" : {
               "lat" : 43.69162499999999,
               "lng" : -79.303534
            },
            "viewport" : {
               "northeast" : {
                  "lat" : 43.69297398029149,
                  "lng" : -79.30218501970849
               },
               "southwest" : {
                  "lat" : 43.69027601970849,
                  "lng" : -79.3048829802915
               }
            }
         },
         "icon" : "https://maps.gstatic.com/mapfiles/place_api/icons/bus-71.png",
         "id" : "95954c93a1baabb29505d5aa50a26333b4b9a079",
         "name" : "Doncaster Ave at Main St",
         "place_id" : "ChIJPfK74jzM1IkRqWrXdnSHixg",
         "plus_code" : {
            "compound_code" : "MMRW+JH Toronto, Ontario, Canada",
            "global_code" : "87M2MMRW+JH"
         },
         "reference" : "CmRRAAAAsuoh5-PHjxBtq1uVn1dKc8TgFIZglCh3YklMf7Ylvr03nkSdwCyq-2kmxONyRSf5dqZSv9Sd4QWb0ZrY0UopdhC2vupVDcpu0oIeDpFRD6_OdPx4o_VoKdfSpFHLZel_EhAMbuaHxzL_IoiKn_jQjGs8GhQWM9L8accLR3405AImnniPgulOLw",
         "scope" : "GOOGLE",
         "types" : [
            "bus_station",
            "transit_station",
            "point_of_interest",
            "establishment"
         ],
         "vicinity" : "Canada"
      },
      {
         "geometry" : {
            "location" : {
               "lat" : 43.691558,
               "lng" : -79.30327199999999
            },
            "viewport" : {
               "northeast" : {
                  "lat" : 43.6929069802915,
                  "lng" : -79.30192301970848
               },
               "southwest" : {
                  "lat" : 43.6902090197085,
                  "lng" : -79.30462098029149
               }
            }
         },
         "icon" : "https://maps.gstatic.com/mapfiles/place_api/icons/bus-71.png",
         "id" : "9a1228ff9ef13609852bfe077ff4ca64e7d37f18",
         "name" : "Main St at Doncaster Ave",
         "place_id" : "ChIJF98G4jzM1IkRTYCVzBXuXKY",
         "plus_code" : {
            "compound_code" : "MMRW+JM Toronto, Ontario, Canada",
            "global_code" : "87M2MMRW+JM"
         },
         "reference" : "CmRSAAAACHZAtnzZoO2q2DiOZ0ChHoUV82S3OcvkybSnJsI5XOW3iJPPkY6jKurvekxgisBEi9FJhO75aKUfO9rrBMAJe5dd_MZwczKVBSl44ZlXH-hQdB5U_CMXjjO2cID_g7-OEhDgWt0_8Zy5hSjI3wu45054GhQ7Sq1rdE-1U-uprvNzNOUBgi7VFw",
         "scope" : "GOOGLE",
         "types" : [
            "bus_station",
            "transit_station",
            "point_of_interest",
            "establishment"
         ],
         "vicinity" : "Canada"
      },
      {
         "geometry" : {
            "location" : {
               "lat" : 43.691818,
               "lng" : -79.303107
            },
            "viewport" : {
               "northeast" : {
                  "lat" : 43.6931669802915,
                  "lng" : -79.30175801970849
               },
               "southwest" : {
                  "lat" : 43.6904690197085,
                  "lng" : -79.30445598029151
               }
            }
         },
         "icon" : "https://maps.gstatic.com/mapfiles/place_api/icons/bus-71.png",
         "id" : "04605ee679fd25dc309b94c3ba58bb53559cf0e7",
         "name" : "Doncaster Ave at Main St",
         "place_id" : "ChIJD6Mt4TzM1IkRN5R2TsfBEao",
         "plus_code" : {
            "compound_code" : "MMRW+PQ Toronto, Ontario, Canada",
            "global_code" : "87M2MMRW+PQ"
         },
         "reference" : "CmRSAAAAdOF0wlPHs-8z28RQUNGiUiQ1bpDIkTMu0WVWkOuUvzTXQ7feRSTYuOtkzRIZ2_Gbe1lxdpf-4aDg9Gps8YKKtYM1GWz1HC8UuCh6Xtl66DmQj-JifbC0vBDf8jnmN9l6EhAZHiL8wfLT9auZQNrTXexdGhTe0AfOCV8lhQpQFSDRt7_xJkLdtw",
         "scope" : "GOOGLE",
         "types" : [
            "bus_station",
            "transit_station",
            "point_of_interest",
            "establishment"
         ],
         "vicinity" : "Canada"
      }
   ],
   "status" : "OK"
}
