{
   "html_attributions" : [],
   "results" : [
      {
         "geometry" : {
            "location" : {
               "lat" : 53.5873514,
               "lng" : -113.4249264
            },
            "viewport" : {
               "northeast" : {
                  "lat" : 53.58883238029149,
                  "lng" : -113.4235784697085
               },
               "southwest" : {
                  "lat" : 53.58613441970849,
                  "lng" : -113.4262764302915
               }
            }
         },
         "icon" : "https://maps.gstatic.com/mapfiles/place_api/icons/bank_dollar-71.png",
         "id" : "a0f3da6cdac317f4308652c8c461f5555180fba2",
         "name" : "Leston Holdings Ltd",
         "place_id" : "ChIJSdYGvcs8oFMRRAi_bZ6kBPk",
         "plus_code" : {
            "compound_code" : "HHPG+W2 Edmonton, Alberta, Canada",
            "global_code" : "9558HHPG+W2"
         },
         "reference" : "CmRSAAAAKJYMTa_rfTwA1pu_bmIAk64Xoj0-g8TRSexBkpwUALpKbWXbLrlFhgCxUfwJUYKF4ahVd4GKGWGD809Ipz6Y6h3oh3l4jhToSfj2Ka6kJ7wqRUAY8ylDPASwh3k_ARxrEhAcf3ANzOeNRPxShwVmasVTGhTU9pv8iGCJsBEo8pWKPOvMbJn2Ow",
         "scope" : "GOOGLE",
         "types" : [ "bank", "finance", "point_of_interest", "establishment" ],
         "vicinity" : "5405 129 Avenue Northwest, Edmonton"
      },
      {
         "geometry" : {
            "location" : {
               "lat" : 53.5873514,
               "lng" : -113.4249264
            },
            "viewport" : {
               "northeast" : {
                  "lat" : 53.58883238029149,
                  "lng" : -113.4235784697085
               },
               "southwest" : {
                  "lat" : 53.58613441970849,
                  "lng" : -113.4262764302915
               }
            }
         },
         "icon" : "https://maps.gstatic.com/mapfiles/place_api/icons/bank_dollar-71.png",
         "id" : "afc9af2fb196fc7f5433f2b14d2d2e2f6115163b",
         "name" : "R B C Wealth Management",
         "place_id" : "ChIJSdYGvcs8oFMRlNX59pG1GbA",
         "plus_code" : {
            "compound_code" : "HHPG+W2 Edmonton, Alberta, Canada",
            "global_code" : "9558HHPG+W2"
         },
         "reference" : "CmRSAAAAg0WHJrY5crfHGHkA5nHhWiRNwCqYX-7liXqGtjb5oR_jv1ovRwkUzVR-fh-dAwSDyljkFQGVd1c1A8PsfzejtjgAXfsFdh8hCWJK7YMs17TX4US4zpj11PhZxXY9_gSxEhCNgQf0FZ7Y4PzS9u8WLW_wGhR-X0Fr9vEeXqjMVHD7S852f7e6cg",
         "scope" : "GOOGLE",
         "types" : [ "bank", "finance", "point_of_interest", "establishment" ],
         "vicinity" : "5405 129 Avenue Northwest, Edmonton"
      },
      {
         "geometry" : {
            "location" : {
               "lat" : 53.57063549999999,
               "lng" : -113.4644887
            },
            "viewport" : {
               "northeast" : {
                  "lat" : 53.5719843802915,
                  "lng" : -113.4632183197085
               },
               "southwest" : {
                  "lat" : 53.5692864197085,
                  "lng" : -113.4659162802915
               }
            }
         },
         "icon" : "https://maps.gstatic.com/mapfiles/place_api/icons/bank_dollar-71.png",
         "id" : "be7d05dfb4fa9bc0bf60df68bbffa4f11f7ce481",
         "name" : "CIBC Branch with ATM",
         "opening_hours" : {
            "open_now" : true
         },
         "photos" : [
            {
               "height" : 1440,
               "html_attributions" : [
                  "\u003ca href=\"https://maps.google.com/maps/contrib/113103625407537541387/photos\"\u003eShane Kachnic\u003c/a\u003e"
               ],
               "photo_reference" : "CmRaAAAASJVqVsySpxRtyWnppD6m-CoOTrKN2KG5Ktp3pXJh3rje2LaUOlcIMlBRtar7XiqFTV4WTzQBTgLLDwPS2-MYNV7ie6kfM6B9UJnsxmHG2ECnHTagWRvBEocJXinp5asSEhCLJNk6V4JLd3sJdQkHP1HgGhRUttkvqKf8vKO6yeoE3vRRkg9ktw",
               "width" : 2560
            }
         ],
         "place_id" : "ChIJv-JqPBojoFMR58hV04WDrjY",
         "plus_code" : {
            "compound_code" : "HGCP+76 Edmonton, Alberta, Canada",
            "global_code" : "9558HGCP+76"
         },
         "rating" : 2.9,
         "reference" : "CmRRAAAAbROf23BGOABLbG2g4NNKcolKZheu0_3O63yES93oCaOoEuDpfs2l5Wls0jMHVBkHgbDPyX0RWv2-Owwt1I8gR1hsa4LkG4xKpRNYWwFbqIkzIYMRGld4YGnoTs56wpDZEhDV1OKPGTHu8m18ykIg1CURGhQTWiQvNrMNwTbgwCqmHakDHhHfUg",
         "scope" : "GOOGLE",
         "types" : [ "bank", "finance", "point_of_interest", "establishment" ],
         "vicinity" : "8004 118 Avenue Northwest, Edmonton"
      },
      {
         "geometry" : {
            "location" : {
               "lat" : 53.5873514,
               "lng" : -113.4249264
            },
            "viewport" : {
               "northeast" : {
                  "lat" : 53.58883238029149,
                  "lng" : -113.4235784697085
               },
               "southwest" : {
                  "lat" : 53.58613441970849,
                  "lng" : -113.4262764302915
               }
            }
         },
         "icon" : "https://maps.gstatic.com/mapfiles/place_api/icons/bank_dollar-71.png",
         "id" : "9e8973d1893db4835b1c4016c188e20a88d50687",
         "name" : "Blackwolf Run Holdings Ltd",
         "place_id" : "ChIJSdYGvcs8oFMRyiKRUCJx5hM",
         "plus_code" : {
            "compound_code" : "HHPG+W2 Edmonton, Alberta, Canada",
            "global_code" : "9558HHPG+W2"
         },
         "reference" : "CmRRAAAANa1EENvm6-2-K9EIbItS8HtvJAwhGlxLDmNAmpgCXcD_LTP2wmDRoDqExlt9GVHek4PNrNlKdkRXwoCk5kwhK3gOU7PydK1GboTdUHV2lYujpUvfAoA9eDMT47LJtBRnEhDMguUW2KFv_UwxaOlon96ZGhQ7oH9VVsa8XryBHiBJT6lxM4VGXg",
         "scope" : "GOOGLE",
         "types" : [ "bank", "finance", "point_of_interest", "establishment" ],
         "vicinity" : "5405 129 Avenue Northwest, Edmonton"
      },
      {
         "geometry" : {
            "location" : {
               "lat" : 53.5873514,
               "lng" : -113.4249264
            },
            "viewport" : {
               "northeast" : {
                  "lat" : 53.58883238029149,
                  "lng" : -113.4235784697085
               },
               "southwest" : {
                  "lat" : 53.58613441970849,
                  "lng" : -113.4262764302915
               }
            }
         },
         "icon" : "https://maps.gstatic.com/mapfiles/place_api/icons/bank_dollar-71.png",
         "id" : "b3991ea92a7c0dd752d00dcc766a9aaed0f15e5a",
         "name" : "Dasee Holdings Ltd",
         "place_id" : "ChIJSdYGvcs8oFMRAol39yXo5Yo",
         "plus_code" : {
            "compound_code" : "HHPG+W2 Edmonton, Alberta, Canada",
            "global_code" : "9558HHPG+W2"
         },
         "reference" : "CmRSAAAAjAtO7bEJnYXZwrT_JZj6Dseq-NP1PY_fT0Doj3MtnvnweDEE-KzEThfrKUe51O1IA7xfFn7msLo_kAVjrPvaYKfMAlrS0pSJdnuxn6LqqmgN3l45svLuDwM9updgC9WdEhAwVnKsHfxPVf3-Rqv2IwTHGhS9HvPxHhcsCobIBa1Mpfpj65jlCA",
         "scope" : "GOOGLE",
         "types" : [ "bank", "finance", "point_of_interest", "establishment" ],
         "vicinity" : "5405 129 Avenue Northwest, Edmonton"
      },
      {
         "geometry" : {
            "location" : {
               "lat" : 53.5873514,
               "lng" : -113.4249264
            },
            "viewport" : {
               "northeast" : {
                  "lat" : 53.58883238029149,
                  "lng" : -113.4235784697085
               },
               "southwest" : {
                  "lat" : 53.58613441970849,
                  "lng" : -113.4262764302915
               }
            }
         },
         "icon" : "https://maps.gstatic.com/mapfiles/place_api/icons/bank_dollar-71.png",
         "id" : "ffe8d67c2eb8708c0598a51c2c9bc4907f096fa2",
         "name" : "Rycor Holding Ltd",
         "place_id" : "ChIJSdYGvcs8oFMReV5t6t32bkE",
         "plus_code" : {
            "compound_code" : "HHPG+W2 Edmonton, Alberta, Canada",
            "global_code" : "9558HHPG+W2"
         },
         "reference" : "CmRRAAAAN-YQPEw3hzDwYpYK01ulQZxkBI0JTuvEnyROmZUYteDJb8xG60VuU8gX2SVSv2m7dudp6rZ_ZImXbwF_lj8jQMWd0liizxK3mHl2AKpkf0dF2iUN4m1gVXskdu73cQtVEhBwnmd7MU75hSCuYv431g4MGhQceJQh1uZFbdv45I68ewl2UJKasw",
         "scope" : "GOOGLE",
         "types" : [ "bank", "finance", "point_of_interest", "establishment" ],
         "vicinity" : "5405 129 Avenue Northwest, Edmonton"
      }
   ],
   "status" : "OK"
}
