[{"StopNo":50157,"Name":"WB W 41 AVE FS ONTARIO ST","BayNo":"N","City":"VANCOUVER","OnStreet":"W 41 AVE","AtStreet":"ONTARIO ST","Latitude":49.233269,"Longitude":-123.106197,"WheelchairAccess":1,"Distance":236,"Routes":"041"},{"StopNo":50140,"Name":"EB E 41 AVE FS ONTARIO ST","BayNo":"N","City":"VANCOUVER","OnStreet":"E 41 AVE","AtStreet":"ONTARIO ST","Latitude":49.233063,"Longitude":-123.105218,"WheelchairAccess":1,"Distance":248,"Routes":"041"},{"StopNo":59838,"Name":"SB MAIN ST FS E 39 AVE","BayNo":"N","City":"VANCOUVER","OnStreet":"MAIN ST","AtStreet":"E 39 AVE","Latitude":49.235131,"Longitude":-123.101698,"WheelchairAccess":1,"Distance":257,"Routes":"003"},{"StopNo":50162,"Name":"NB MAIN ST FS E 39 AVE","BayNo":"N","City":"VANCOUVER","OnStreet":"MAIN ST","AtStreet":"E 39 AVE","Latitude":49.235734,"Longitude":-123.101505,"WheelchairAccess":1,"Distance":274,"Routes":"003"},{"StopNo":50139,"Name":"EB W 41 AVE FS MANITOBA ST","BayNo":"N","City":"VANCOUVER","OnStreet":"W 41 AVE","AtStreet":"MANITOBA ST","Latitude":49.233142,"Longitude":-123.107725,"WheelchairAccess":1,"Distance":300,"Routes":"041"},{"StopNo":50156,"Name":"WB E 41 AVE FS MAIN ST","BayNo":"N","City":"VANCOUVER","OnStreet":"E 41ST AVE","AtStreet":"MAIN ST","Latitude":49.233207,"Longitude":-123.102082,"WheelchairAccess":1,"Distance":326,"Routes":"041, 043"},{"StopNo":50155,"Name":"NB MAIN ST FS E 41 AVE","BayNo":"N","City":"VANCOUVER","OnStreet":"MAIN ST","AtStreet":"E 41 AVE","Latitude":49.233445,"Longitude":-123.101394,"WheelchairAccess":1,"Distance":346,"Routes":"003"},{"StopNo":50253,"Name":"EB E 41 AVE NS MAIN ST","BayNo":"N","City":"VANCOUVER","OnStreet":"E 41 AVE","AtStreet":"MAIN ST","Latitude":49.232967,"Longitude":-123.101913,"WheelchairAccess":1,"Distance":353,"Routes":"041, 043"},{"StopNo":50250,"Name":"SB MAIN ST FS E 36 AVE","BayNo":"N","City":"VANCOUVER","OnStreet":"MAIN ST","AtStreet":"E 36 AVE","Latitude":49.237880,"Longitude":-123.101715,"WheelchairAccess":1,"Distance":384,"Routes":"003"},{"StopNo":59041,"Name":"SB MAIN ST FS E 41 AVE","BayNo":"N","City":"VANCOUVER","OnStreet":"MAIN ST","AtStreet":"E 41 AVE","Latitude":49.232735,"Longitude":-123.101636,"WheelchairAccess":1,"Distance":386,"Routes":"003"},{"StopNo":50163,"Name":"NB MAIN ST NS E 36 AVE","BayNo":"N","City":"VANCOUVER","OnStreet":"MAIN ST","AtStreet":"E 36 AVE","Latitude":49.238020,"Longitude":-123.101502,"WheelchairAccess":1,"Distance":406,"Routes":"003"},{"StopNo":50158,"Name":"WB W 41 AVE FS COLUMBIA ST","BayNo":"N","City":"VANCOUVER","OnStreet":"W 41 AVE","AtStreet":"COLUMBIA ST","Latitude":49.233442,"Longitude":-123.111220,"WheelchairAccess":1,"Distance":482,"Routes":"041"},{"StopNo":50138,"Name":"EB  W 41 AVE NS COLUMBIA ST","BayNo":"N","City":"VANCOUVER","OnStreet":"W 41 AVE","AtStreet":"COLUMBIA ST","Latitude":49.233270,"Longitude":-123.111462,"WheelchairAccess":1,"Distance":506,"Routes":"041"},{"StopNo":50154,"Name":"NB MAIN ST FS E 43 AVE","BayNo":"N","City":"VANCOUVER","OnStreet":"MAIN ST","AtStreet":"E 43 AVE","Latitude":49.231454,"Longitude":-123.101306,"WheelchairAccess":1,"Distance":513,"Routes":"003"},{"StopNo":50642,"Name":"EB E 41 AVE NS SOPHIA ST","BayNo":"N","City":"VANCOUVER","OnStreet":"E 41 AVE","AtStreet":"SOPHIA ST","Latitude":49.232934,"Longitude":-123.098854,"WheelchairAccess":0,"Distance":532,"Routes":"041"},{"StopNo":61101,"Name":"EB E 33 AVE FS ONTARIO ST","BayNo":"N","City":"VANCOUVER","OnStreet":"E 33 AVE","AtStreet":"ONTARIO ST","Latitude":49.240505,"Longitude":-123.104966,"WheelchairAccess":1,"Distance":580,"Routes":"033"},{"StopNo":50255,"Name":"SB MAIN ST FS E 43 AVE","BayNo":"N","City":"VANCOUVER","OnStreet":"MAIN ST","AtStreet":"E 43 AVE","Latitude":49.230612,"Longitude":-123.101591,"WheelchairAccess":1,"Distance":584,"Routes":"003"},{"StopNo":61119,"Name":"WB E 33 AVE NS ONTARIO ST","BayNo":"N","City":"VANCOUVER","OnStreet":"E 33 AVE","AtStreet":"ONTARIO ST","Latitude":49.240633,"Longitude":-123.105056,"WheelchairAccess":1,"Distance":594,"Routes":"033"},{"StopNo":50713,"Name":"WB E 41 AVE FS PRINCE EDWARD ST","BayNo":"N","City":"VANCOUVER","OnStreet":"E 41 AVE","AtStreet":"PRINCE EDWARD ST","Latitude":49.233094,"Longitude":-123.097712,"WheelchairAccess":0,"Distance":598,"Routes":"041"},{"StopNo":50249,"Name":"SB MAIN ST FS E 33 AVE","BayNo":"N","City":"VANCOUVER","OnStreet":"MAIN ST","AtStreet":"E 33 AVE","Latitude":49.240211,"Longitude":-123.101629,"WheelchairAccess":1,"Distance":606,"Routes":"003"},{"StopNo":61150,"Name":"EB E 33 AVE NS MAIN ST","BayNo":"N","City":"VANCOUVER","OnStreet":"E 33 AVE","AtStreet":"MAIN ST","Latitude":49.240435,"Longitude":-123.101853,"WheelchairAccess":1,"Distance":622,"Routes":"033"},{"StopNo":61118,"Name":"WB E 33 AVE FS MAIN ST","BayNo":"N","City":"VANCOUVER","OnStreet":"E 33 AVE","AtStreet":"MAIN ST","Latitude":49.240577,"Longitude":-123.101925,"WheelchairAccess":1,"Distance":634,"Routes":"033"},{"StopNo":50165,"Name":"NB MAIN ST FS E 33 AVE","BayNo":"N","City":"VANCOUVER","OnStreet":"MAIN ST","AtStreet":"E 33 AVE","Latitude":49.241308,"Longitude":-123.101314,"WheelchairAccess":1,"Distance":726,"Routes":"003"},{"StopNo":59842,"Name":"NB MAIN ST FS E 46 AVE","BayNo":"N","City":"VANCOUVER","OnStreet":"MAIN ST","AtStreet":"E 46 AVE","Latitude":49.228719,"Longitude":-123.101386,"WheelchairAccess":1,"Distance":783,"Routes":"003"},{"StopNo":50712,"Name":"WB E 41 AVE FS SAINT GEORGE ST","BayNo":"N","City":"VANCOUVER","OnStreet":"E 41 AVE","AtStreet":"SAINT GEORGE ST","Latitude":49.233046,"Longitude":-123.094859,"WheelchairAccess":1,"Distance":793,"Routes":"041"},{"StopNo":50467,"Name":"NB CAMBIE ST FS W 41 AVE","BayNo":"N","City":"VANCOUVER","OnStreet":"CAMBIE ST","AtStreet":"W 41 AVE","Latitude":49.233905,"Longitude":-123.115953,"WheelchairAccess":1,"Distance":794,"Routes":"015, N15"},{"StopNo":50469,"Name":"NB CAMBIE ST FS W 37 AVE","BayNo":"N","City":"VANCOUVER","OnStreet":"CAMBIE ST","AtStreet":"W 37 AVE","Latitude":49.237495,"Longitude":-123.115800,"WheelchairAccess":1,"Distance":806,"Routes":"015, N15"},{"StopNo":61374,"Name":"OAKRIDGE-41ST AVENUE STATION","BayNo":"N","City":"VANCOUVER","OnStreet":"SKYTRAIN","AtStreet":"OAKRIDGE-41ST AVENUE STN","Latitude":49.233731,"Longitude":-123.116176,"WheelchairAccess":0,"Distance":814,"Routes":""},{"StopNo":61117,"Name":"WB E 33 AVE FS PRINCE EDWARD ST","BayNo":"N","City":"VANCOUVER","OnStreet":"E 33 AVE","AtStreet":"PRINCE EDWARD ST","Latitude":49.240485,"Longitude":-123.097295,"WheelchairAccess":1,"Distance":815,"Routes":"033"},{"StopNo":50621,"Name":"SB CAMBIE ST NS W 41 AVE","BayNo":"N","City":"VANCOUVER","OnStreet":"CAMBIE ST","AtStreet":"W 41 AVE","Latitude":49.233991,"Longitude":-123.116411,"WheelchairAccess":1,"Distance":825,"Routes":"015, N15"},{"StopNo":50424,"Name":"SB CAMBIE ST FS W 37 AVE","BayNo":"N","City":"VANCOUVER","OnStreet":"CAMBIE ST","AtStreet":"W 37 AVE","Latitude":49.237007,"Longitude":-123.116290,"WheelchairAccess":1,"Distance":826,"Routes":"015, N15"},{"StopNo":51003,"Name":"NB CAMBIE ST FS W 42 AVE","BayNo":"N","City":"VANCOUVER","OnStreet":"CAMBIE ST","AtStreet":"W 42 AVE","Latitude":49.232875,"Longitude":-123.115999,"WheelchairAccess":1,"Distance":827,"Routes":"015, N15"},{"StopNo":61373,"Name":"OAKRIDGE-41ST AVENUE STATION","BayNo":"N","City":"VANCOUVER","OnStreet":"SKYTRAIN","AtStreet":"OAKRIDGE-41ST AVENUE STN","Latitude":49.233747,"Longitude":-123.116422,"WheelchairAccess":0,"Distance":831,"Routes":""},{"StopNo":50256,"Name":"SB MAIN ST FS E 46 AVE","BayNo":"N","City":"VANCOUVER","OnStreet":"MAIN ST","AtStreet":"E 46 AVE","Latitude":49.228145,"Longitude":-123.101625,"WheelchairAccess":1,"Distance":837,"Routes":"003"},{"StopNo":61103,"Name":"EB E 33 AVE FS PRINCE EDWARD ST","BayNo":"N","City":"VANCOUVER","OnStreet":"E 33 AVE","AtStreet":"PRINCE EDWARD ST","Latitude":49.240343,"Longitude":-123.096513,"WheelchairAccess":1,"Distance":846,"Routes":"033"},{"StopNo":50643,"Name":"EB E 41 AVE FS SAINT GEORGE ST","BayNo":"N","City":"VANCOUVER","OnStreet":"E 41 AVE","AtStreet":"SAINT GEORGE ST","Latitude":49.232870,"Longitude":-123.094138,"WheelchairAccess":1,"Distance":849,"Routes":"041"},{"StopNo":50981,"Name":"SB CAMBIE ST FS W 41 AVE","BayNo":"N","City":"VANCOUVER","OnStreet":"CAMBIE ST","AtStreet":"W 41 AVE","Latitude":49.233092,"Longitude":-123.116464,"WheelchairAccess":1,"Distance":852,"Routes":"015, N15"},{"StopNo":61100,"Name":"EB MIDLOTHIAN AVE FS CLANCY LORANGER WAY","BayNo":"N","City":"VANCOUVER","OnStreet":"MIDLOTHIAN AVE","AtStreet":"CLANCY LORANGER WAY","Latitude":49.242588,"Longitude":-123.108805,"WheelchairAccess":1,"Distance":852,"Routes":"033"},{"StopNo":50160,"Name":"WB W 41 AVE FS CAMBIE ST","BayNo":"N","City":"VANCOUVER","OnStreet":"W 41 AVE","AtStreet":"CAMBIE ST","Latitude":49.233681,"Longitude":-123.116855,"WheelchairAccess":1,"Distance":863,"Routes":"041"},{"StopNo":50248,"Name":"SB MAIN ST FS E 30 AVE","BayNo":"N","City":"VANCOUVER","OnStreet":"MAIN ST","AtStreet":"E 30 AVE","Latitude":49.243003,"Longitude":-123.101498,"WheelchairAccess":1,"Distance":899,"Routes":"003"},{"StopNo":61281,"Name":"WB W 41 AVE NS ASH ST","BayNo":"N","City":"VANCOUVER","OnStreet":"W 41 AVE","AtStreet":"ASH ST","Latitude":49.233700,"Longitude":-123.117450,"WheelchairAccess":1,"Distance":905,"Routes":""},{"StopNo":50423,"Name":"SB CAMBIE ST FS W 35 AVE","BayNo":"N","City":"VANCOUVER","OnStreet":"CAMBIE ST","AtStreet":"W 35 AVE","Latitude":49.238762,"Longitude":-123.116678,"WheelchairAccess":1,"Distance":917,"Routes":"015, N15"},{"StopNo":50136,"Name":"EB W 41 AVE NS CAMBIE ST","BayNo":"N","City":"VANCOUVER","OnStreet":"W 41 AVE","AtStreet":"CAMBIE ST","Latitude":49.233446,"Longitude":-123.117554,"WheelchairAccess":1,"Distance":918,"Routes":"041"},{"StopNo":50982,"Name":"SB CAMBIE ST FS W 43 AVE","BayNo":"N","City":"VANCOUVER","OnStreet":"CAMBIE ST","AtStreet":"W 43 AVE","Latitude":49.231397,"Longitude":-123.116561,"WheelchairAccess":1,"Distance":930,"Routes":"015, N15"},{"StopNo":61120,"Name":"WB MIDLOTHIAN AVE FS CLANCY LORANGER WAY","BayNo":"N","City":"VANCOUVER","OnStreet":"MIDLOTHIAN AVE","AtStreet":"CLANCY LORANGER WAY","Latitude":49.243313,"Longitude":-123.109291,"WheelchairAccess":1,"Distance":939,"Routes":"033"},{"StopNo":59305,"Name":"EB W 41 AVE AT ASH ST","BayNo":"N","City":"VANCOUVER","OnStreet":"W 41 AVE","AtStreet":"ASH ST","Latitude":49.233459,"Longitude":-123.117930,"WheelchairAccess":1,"Distance":945,"Routes":"043"},{"StopNo":50166,"Name":"NB MAIN ST FS E 30 AVE","BayNo":"N","City":"VANCOUVER","OnStreet":"MAIN ST","AtStreet":"E 30 AVE","Latitude":49.243554,"Longitude":-123.101232,"WheelchairAccess":1,"Distance":963,"Routes":"003"},{"StopNo":60996,"Name":"NB CAMBIE ST FS W 45 AVE","BayNo":"N","City":"VANCOUVER","OnStreet":"CAMBIE ST","AtStreet":"W 45 AVE","Latitude":49.230066,"Longitude":-123.116096,"WheelchairAccess":1,"Distance":980,"Routes":"015, N15"},{"StopNo":60583,"Name":"WB W 41 AVE FS ASH ST","BayNo":"N","City":"VANCOUVER","OnStreet":"W 41 AVE","AtStreet":"ASH ST","Latitude":49.233703,"Longitude":-123.118539,"WheelchairAccess":1,"Distance":983,"Routes":"043"},{"StopNo":50711,"Name":"WB E 41 AVE FS FRASER ST","BayNo":"N","City":"VANCOUVER","OnStreet":"E 41 AVE","AtStreet":"FRASER ST","Latitude":49.233018,"Longitude":-123.091316,"WheelchairAccess":1,"Distance":1041,"Routes":"041, 043"},{"StopNo":50983,"Name":"SB CAMBIE ST FS W 45 AVE","BayNo":"N","City":"VANCOUVER","OnStreet":"CAMBIE ST","AtStreet":"W 45 AVE","Latitude":49.229514,"Longitude":-123.116588,"WheelchairAccess":1,"Distance":1046,"Routes":"015, N15"},{"StopNo":50789,"Name":"SB FRASER ST FS E 39 AVE","BayNo":"N","City":"VANCOUVER","OnStreet":"FRASER ST","AtStreet":"E 39 AVE","Latitude":49.234521,"Longitude":-123.090651,"WheelchairAccess":0,"Distance":1062,"Routes":"008, N8"},{"StopNo":50788,"Name":"SB FRASER ST FS E 37 AVE","BayNo":"N","City":"VANCOUVER","OnStreet":"FRASER ST","AtStreet":"E 37 AVE","Latitude":49.236049,"Longitude":-123.090613,"WheelchairAccess":0,"Distance":1064,"Routes":"008, N8"},{"StopNo":50151,"Name":"NB MAIN ST FS E 49 AVE","BayNo":"N","City":"VANCOUVER","OnStreet":"MAIN ST","AtStreet":"E 49 AVE","Latitude":49.225975,"Longitude":-123.101470,"WheelchairAccess":1,"Distance":1072,"Routes":"003"},{"StopNo":61503,"Name":"EB E 41 AVE NS FRASER ST","BayNo":"N","City":"VANCOUVER","OnStreet":"E 41ST AVE","AtStreet":"FRASER ST","Latitude":49.232766,"Longitude":-123.090980,"WheelchairAccess":1,"Distance":1072,"Routes":"043"},{"StopNo":50832,"Name":"NB FRASER ST FS E 39 AVE","BayNo":"N","City":"VANCOUVER","OnStreet":"FRASER ST","AtStreet":"E 39 AVE","Latitude":49.235102,"Longitude":-123.090364,"WheelchairAccess":1,"Distance":1079,"Routes":"008, N8"},{"StopNo":52032,"Name":"WB W 49 AVE FS MANITOBA ST","BayNo":"N","City":"VANCOUVER","OnStreet":"W 49 AVE","AtStreet":"MANITOBA ST","Latitude":49.225913,"Longitude":-123.109025,"WheelchairAccess":1,"Distance":1079,"Routes":"049"},{"StopNo":51969,"Name":"EB W 49 AVE FS MANITOBA ST","BayNo":"N","City":"VANCOUVER","OnStreet":"W 49 AVE","AtStreet":"MANITOBA ST","Latitude":49.225730,"Longitude":-123.107863,"WheelchairAccess":1,"Distance":1081,"Routes":"049"},{"StopNo":51970,"Name":"EB E 49 AVE FS QUEBEC ST","BayNo":"N","City":"VANCOUVER","OnStreet":"E 49 AVE","AtStreet":"QUEBEC ST","Latitude":49.225636,"Longitude":-123.103335,"WheelchairAccess":1,"Distance":1083,"Routes":"049"},{"StopNo":52030,"Name":"WB E 49 AVE FS MAIN ST","BayNo":"N","City":"VANCOUVER","OnStreet":"E 49 AVE","AtStreet":"MAIN ST","Latitude":49.225733,"Longitude":-123.102131,"WheelchairAccess":1,"Distance":1087,"Routes":"049"},{"StopNo":50831,"Name":"NB FRASER ST FS E 41 AVE","BayNo":"N","City":"VANCOUVER","OnStreet":"FRASER ST","AtStreet":"E 41 AVE","Latitude":49.233627,"Longitude":-123.090406,"WheelchairAccess":1,"Distance":1092,"Routes":"008, N8"},{"StopNo":50833,"Name":"NB FRASER ST FS E 37 AVE","BayNo":"N","City":"VANCOUVER","OnStreet":"FRASER ST","AtStreet":"E 37 AVE","Latitude":49.236772,"Longitude":-123.090324,"WheelchairAccess":1,"Distance":1094,"Routes":"008, N8"},{"StopNo":50790,"Name":"SB FRASER ST FS E 41 AVE","BayNo":"N","City":"VANCOUVER","OnStreet":"FRASER ST","AtStreet":"E 41 AVE","Latitude":49.232478,"Longitude":-123.090705,"WheelchairAccess":1,"Distance":1100,"Routes":"008, N8"},{"StopNo":50135,"Name":"EB W 41 AVE FS HEATHER ST","BayNo":"N","City":"VANCOUVER","OnStreet":"W 41 AVE","AtStreet":"HEATHER ST","Latitude":49.233534,"Longitude":-123.120243,"WheelchairAccess":1,"Distance":1108,"Routes":"041"},{"StopNo":50787,"Name":"SB FRASER ST FS E 35 AVE","BayNo":"N","City":"VANCOUVER","OnStreet":"FRASER ST","AtStreet":"E 35 AVE","Latitude":49.238045,"Longitude":-123.090514,"WheelchairAccess":1,"Distance":1111,"Routes":"008, N8"},{"StopNo":51971,"Name":"EB E 49 AVE FS MAIN ST","BayNo":"N","City":"VANCOUVER","OnStreet":"E 49 AVE","AtStreet":"MAIN ST","Latitude":49.225593,"Longitude":-123.101045,"WheelchairAccess":1,"Distance":1121,"Routes":"049"},{"StopNo":59583,"Name":"SB MAIN ST FS E 49 AVE","BayNo":"N","City":"VANCOUVER","OnStreet":"MAIN ST","AtStreet":"E 49 AVE","Latitude":49.225333,"Longitude":-123.101780,"WheelchairAccess":1,"Distance":1136,"Routes":"003"},{"StopNo":50644,"Name":"EB E 41 AVE FS FRASER ST","BayNo":"N","City":"VANCOUVER","OnStreet":"E 41 AVE","AtStreet":"FRASER ST","Latitude":49.232769,"Longitude":-123.090022,"WheelchairAccess":1,"Distance":1139,"Routes":"041"},{"StopNo":50710,"Name":"WB E 41 AVE FS CHESTER ST","BayNo":"N","City":"VANCOUVER","OnStreet":"E 41 AVE","AtStreet":"CHESTER ST","Latitude":49.232994,"Longitude":-123.089838,"WheelchairAccess":1,"Distance":1146,"Routes":"041"},{"StopNo":50834,"Name":"NB FRASER ST FS E 35 AVE","BayNo":"N","City":"VANCOUVER","OnStreet":"FRASER ST","AtStreet":"E 35 AVE","Latitude":49.238620,"Longitude":-123.090274,"WheelchairAccess":0,"Distance":1147,"Routes":"008, N8"},{"StopNo":50422,"Name":"SB CAMBIE ST FS W 33 AVE","BayNo":"N","City":"VANCOUVER","OnStreet":"CAMBIE ST","AtStreet":"W 33 AVE","Latitude":49.240750,"Longitude":-123.118651,"WheelchairAccess":1,"Distance":1148,"Routes":"015, N15"},{"StopNo":59536,"Name":"SB MAIN ST FS E 28 AVE","BayNo":"N","City":"VANCOUVER","OnStreet":"MAIN ST","AtStreet":"E 28 AVE","Latitude":49.245403,"Longitude":-123.101378,"WheelchairAccess":1,"Distance":1158,"Routes":"003"},{"StopNo":50830,"Name":"NB FRASER ST FS E 43 AVE","BayNo":"N","City":"VANCOUVER","OnStreet":"FRASER ST","AtStreet":"E 43 AVE","Latitude":49.231265,"Longitude":-123.090500,"WheelchairAccess":1,"Distance":1159,"Routes":"008, N8"},{"StopNo":50471,"Name":"NB CAMBIE ST FS W 33 AVE","BayNo":"N","City":"VANCOUVER","OnStreet":"CAMBIE ST","AtStreet":"W 33 AVE","Latitude":49.241409,"Longitude":-123.118180,"WheelchairAccess":1,"Distance":1161,"Routes":"015, N15"},{"StopNo":50791,"Name":"SB FRASER ST FS E 43 AVE","BayNo":"N","City":"VANCOUVER","OnStreet":"FRASER ST","AtStreet":"E 43 AVE","Latitude":49.230719,"Longitude":-123.090713,"WheelchairAccess":1,"Distance":1170,"Routes":"008, N8"},{"StopNo":51968,"Name":"EB W 49 AVE FS ALBERTA ST","BayNo":"N","City":"VANCOUVER","OnStreet":"W 49 AVE","AtStreet":"ALBERTA ST","Latitude":49.225896,"Longitude":-123.112498,"WheelchairAccess":1,"Distance":1171,"Routes":"049"},{"StopNo":50161,"Name":"WB W 41 AVE FS HEATHER ST","BayNo":"N","City":"VANCOUVER","OnStreet":"W 41 AVE","AtStreet":"HEATHER ST","Latitude":49.233831,"Longitude":-123.121289,"WheelchairAccess":1,"Distance":1178,"Routes":"041"},{"StopNo":52033,"Name":"WB W 49 AVE FS ALBERTA ST","BayNo":"N","City":"VANCOUVER","OnStreet":"W 49 AVE","AtStreet":"ALBERTA ST","Latitude":49.226074,"Longitude":-123.113387,"WheelchairAccess":1,"Distance":1184,"Routes":"049"},{"StopNo":52029,"Name":"WB E 49 AVE FS PRINCE EDWARD ST","BayNo":"N","City":"VANCOUVER","OnStreet":"E 49 AVE","AtStreet":"PRINCE EDWARD ST","Latitude":49.225660,"Longitude":-123.098055,"WheelchairAccess":1,"Distance":1191,"Routes":"049"},{"StopNo":50786,"Name":"SB FRASER ST FS E 33 AVE","BayNo":"N","City":"VANCOUVER","OnStreet":"FRASER ST","AtStreet":"E 33 AVE","Latitude":49.239976,"Longitude":-123.090476,"WheelchairAccess":1,"Distance":1191,"Routes":"008, N8"},{"StopNo":61116,"Name":"WB E 33 AVE FS FRASER ST","BayNo":"N","City":"VANCOUVER","OnStreet":"E 33 AVE","AtStreet":"FRASER ST","Latitude":49.240373,"Longitude":-123.090765,"WheelchairAccess":1,"Distance":1192,"Routes":"033"},{"StopNo":50167,"Name":"NB MAIN ST FS E 28 AVE","BayNo":"N","City":"VANCOUVER","OnStreet":"MAIN ST","AtStreet":"E 28 AVE","Latitude":49.245968,"Longitude":-123.101101,"WheelchairAccess":1,"Distance":1224,"Routes":"003"},{"StopNo":50247,"Name":"SB MAIN ST NS E 28 AV","BayNo":"N","City":"VANCOUVER","OnStreet":"MAIN ST","AtStreet":"E 28 AVE","Latitude":49.246140,"Longitude":-123.101380,"WheelchairAccess":1,"Distance":1238,"Routes":""},{"StopNo":51972,"Name":"EB E 49 AVE FS PRINCE EDWARD ST","BayNo":"N","City":"VANCOUVER","OnStreet":"E 49 AVE","AtStreet":"PRINCE EDWARD ST","Latitude":49.225514,"Longitude":-123.097041,"WheelchairAccess":1,"Distance":1239,"Routes":"049"},{"StopNo":50835,"Name":"NB FRASER ST FS E 33 AVE","BayNo":"N","City":"VANCOUVER","OnStreet":"FRASER ST","AtStreet":"E 33 AVE","Latitude":49.240627,"Longitude":-123.090220,"WheelchairAccess":1,"Distance":1240,"Routes":"008, N8"},{"StopNo":61104,"Name":"EB E 33 AVE FS FRASER ST","BayNo":"N","City":"VANCOUVER","OnStreet":"E 33 AVE","AtStreet":"FRASER ST","Latitude":49.240241,"Longitude":-123.089815,"WheelchairAccess":1,"Distance":1247,"Routes":"033"},{"StopNo":50829,"Name":"NB FRASER ST FS E 45 AVE","BayNo":"N","City":"VANCOUVER","OnStreet":"FRASER ST","AtStreet":"E 45 AVE","Latitude":49.229442,"Longitude":-123.090556,"WheelchairAccess":1,"Distance":1248,"Routes":"008, N8"},{"StopNo":50999,"Name":"NB CAMBIE ST FS W 49 AVE","BayNo":"N","City":"VANCOUVER","OnStreet":"CAMBIE ST","AtStreet":"W 49 AVE","Latitude":49.226473,"Longitude":-123.116241,"WheelchairAccess":1,"Distance":1266,"Routes":"015, N15"},{"StopNo":50792,"Name":"SB FRASER ST FS E 45 AVE","BayNo":"N","City":"VANCOUVER","OnStreet":"FRASER ST","AtStreet":"E 45 AVE","Latitude":49.228897,"Longitude":-123.090762,"WheelchairAccess":1,"Distance":1268,"Routes":"008, N8"},{"StopNo":50421,"Name":"SB CAMBIE ST FS W 31 AVE","BayNo":"N","City":"VANCOUVER","OnStreet":"CAMBIE ST","AtStreet":"W 31 AVE","Latitude":49.242949,"Longitude":-123.118428,"WheelchairAccess":1,"Distance":1282,"Routes":"015, N15"},{"StopNo":61218,"Name":"WB W 49 AVE NS CAMBIE ST","BayNo":"N","City":"VANCOUVER","OnStreet":"W 49 AVE","AtStreet":"CAMBIE ST","Latitude":49.226178,"Longitude":-123.116035,"WheelchairAccess":1,"Distance":1282,"Routes":"049"},{"StopNo":61099,"Name":"EB W 29 AVE FS CAMBIE ST","BayNo":"N","City":"VANCOUVER","OnStreet":"E 29 AVE","AtStreet":"CAMBIE ST","Latitude":49.245108,"Longitude":-123.114568,"WheelchairAccess":1,"Distance":1285,"Routes":"033"},{"StopNo":51967,"Name":"EB W 49 AVE FS CAMBIE ST","BayNo":"N","City":"VANCOUVER","OnStreet":"W 49 AVE","AtStreet":"CAMBIE ST","Latitude":49.226003,"Longitude":-123.115840,"WheelchairAccess":1,"Distance":1289,"Routes":"049"},{"StopNo":50150,"Name":"NB MAIN ST NS E 51 AVE","BayNo":"N","City":"VANCOUVER","OnStreet":"MAIN ST","AtStreet":"E 51 AVE","Latitude":49.223638,"Longitude":-123.101593,"WheelchairAccess":1,"Distance":1323,"Routes":"003"},{"StopNo":58954,"Name":"SB FRASER ST FS E 31 AVE","BayNo":"N","City":"VANCOUVER","OnStreet":"FRASER ST","AtStreet":"E 31 AVE","Latitude":49.242261,"Longitude":-123.090417,"WheelchairAccess":1,"Distance":1325,"Routes":"008, N8"},{"StopNo":50709,"Name":"WB E 41 AVE FS SAINT CATHERINES ST","BayNo":"N","City":"VANCOUVER","OnStreet":"E 41 AVE","AtStreet":"SAINT CATHERINES ST","Latitude":49.232938,"Longitude":-123.087318,"WheelchairAccess":1,"Distance":1326,"Routes":"041"},{"StopNo":50645,"Name":"EB E 41 AVE FS PRINCE ALBERT ST","BayNo":"N","City":"VANCOUVER","OnStreet":"E 41 AVE","AtStreet":"PRINCE ALBERT ST","Latitude":49.232764,"Longitude":-123.087361,"WheelchairAccess":0,"Distance":1327,"Routes":"041"},{"StopNo":52028,"Name":"WB E 49 AVE FS SAINT GEORGE ST","BayNo":"N","City":"VANCOUVER","OnStreet":"E 49 AVE","AtStreet":"SAINT GEORGE ST","Latitude":49.225593,"Longitude":-123.094471,"WheelchairAccess":1,"Distance":1332,"Routes":"049"},{"StopNo":50258,"Name":"SB MAIN ST FS E 51 AVE","BayNo":"N","City":"VANCOUVER","OnStreet":"MAIN ST","AtStreet":"E 51 AVE","Latitude":49.223508,"Longitude":-123.101804,"WheelchairAccess":1,"Distance":1334,"Routes":"003"},{"StopNo":61376,"Name":"LANGARA-49TH AVENUE STATION","BayNo":"N","City":"VANCOUVER","OnStreet":"SKYTRAIN","AtStreet":"LANGARA-49TH AVENUE STN","Latitude":49.225709,"Longitude":-123.116289,"WheelchairAccess":0,"Distance":1335,"Routes":""},{"StopNo":50134,"Name":"EB W 41 AVE FS WILLOW ST","BayNo":"N","City":"VANCOUVER","OnStreet":"W 41 AVE","AtStreet":"WILLOW ST","Latitude":49.233687,"Longitude":-123.123477,"WheelchairAccess":1,"Distance":1337,"Routes":"041"},{"StopNo":50985,"Name":"SB CAMBIE ST FS W 49 AVE","BayNo":"N","City":"VANCOUVER","OnStreet":"CAMBIE ST","AtStreet":"W 49 AVE","Latitude":49.225846,"Longitude":-123.116731,"WheelchairAccess":1,"Distance":1342,"Routes":"015, N15"},{"StopNo":61375,"Name":"LANGARA-49TH AVENUE STATION","BayNo":"N","City":"VANCOUVER","OnStreet":"SKYTRAIN","AtStreet":"LANGARA-49TH AVENUE STN","Latitude":49.225743,"Longitude":-123.116752,"WheelchairAccess":0,"Distance":1352,"Routes":""},{"StopNo":61252,"Name":"NB CAMBIE ST FS W 29 AVE","BayNo":"N","City":"VANCOUVER","OnStreet":"CAMBIE ST","AtStreet":"W 29 AVE","Latitude":49.245537,"Longitude":-123.115250,"WheelchairAccess":1,"Distance":1352,"Routes":"015, 033, N15"},{"StopNo":58286,"Name":"SB CAMBIE ST NS W 29 AVE","BayNo":"N","City":"VANCOUVER","OnStreet":"CAMBIE ST","AtStreet":"W 29 AVE","Latitude":49.245383,"Longitude":-123.115868,"WheelchairAccess":1,"Distance":1362,"Routes":"015, N15"},{"StopNo":50828,"Name":"NB FRASER ST FS E 47 AVE","BayNo":"N","City":"VANCOUVER","OnStreet":"FRASER ST","AtStreet":"E 47 AVE","Latitude":49.227632,"Longitude":-123.090596,"WheelchairAccess":1,"Distance":1362,"Routes":"008, N8"},{"StopNo":51973,"Name":"EB E 49 AVE FS SAINT GEORGE ST","BayNo":"N","City":"VANCOUVER","OnStreet":"E 49 AVE","AtStreet":"SAINT GEORGE ST","Latitude":49.225455,"Longitude":-123.093656,"WheelchairAccess":1,"Distance":1379,"Routes":"049"},{"StopNo":58955,"Name":"NB FRASER ST FS E 31 AVE","BayNo":"N","City":"VANCOUVER","OnStreet":"FRASER ST","AtStreet":"E 31 AVE","Latitude":49.242872,"Longitude":-123.090196,"WheelchairAccess":1,"Distance":1379,"Routes":"008, N8"},{"StopNo":50793,"Name":"SB FRASER ST FS E 47 AVE","BayNo":"N","City":"VANCOUVER","OnStreet":"FRASER ST","AtStreet":"E 47 AVE","Latitude":49.227099,"Longitude":-123.090813,"WheelchairAccess":1,"Distance":1388,"Routes":"008, N8"},{"StopNo":61608,"Name":"NB MAIN ST FS E 26 AV","BayNo":"N","City":"VANCOUVER","OnStreet":"MAIN ST","AtStreet":"E 26 AVE","Latitude":49.248070,"Longitude":-123.100950,"WheelchairAccess":1,"Distance":1454,"Routes":""},{"StopNo":50784,"Name":"SB FRASER ST FS E 29 AVE","BayNo":"N","City":"VANCOUVER","OnStreet":"FRASER ST","AtStreet":"E 29 AVE","Latitude":49.244247,"Longitude":-123.090388,"WheelchairAccess":1,"Distance":1467,"Routes":"008, N8"},{"StopNo":50708,"Name":"WB E 41 AVE FS WINDSOR ST","BayNo":"N","City":"VANCOUVER","OnStreet":"E 41 AVE","AtStreet":"WINDSOR ST","Latitude":49.232910,"Longitude":-123.085282,"WheelchairAccess":1,"Distance":1472,"Routes":"041"},{"StopNo":51974,"Name":"EB E 49 AVE FS FREDERICK ST","BayNo":"N","City":"VANCOUVER","OnStreet":"E 49 AVE","AtStreet":"FREDERICK ST","Latitude":49.225419,"Longitude":-123.091529,"WheelchairAccess":1,"Distance":1482,"Routes":"049"},{"StopNo":52027,"Name":"WB E 49 AVE FS FRASER ST","BayNo":"N","City":"VANCOUVER","OnStreet":"E 49 AVE","AtStreet":"FRASER ST","Latitude":49.225535,"Longitude":-123.091289,"WheelchairAccess":1,"Distance":1484,"Routes":"049"},{"StopNo":50420,"Name":"SB CAMBIE ST FS W 27 AVE","BayNo":"N","City":"VANCOUVER","OnStreet":"CAMBIE ST","AtStreet":"W 27 AVE","Latitude":49.246788,"Longitude":-123.115814,"WheelchairAccess":1,"Distance":1491,"Routes":"015, 033, N15"},{"StopNo":51966,"Name":"EB W 49 AVE FS TISDALL ST","BayNo":"N","City":"VANCOUVER","OnStreet":"W 49 AVE","AtStreet":"TISDALL ST","Latitude":49.226174,"Longitude":-123.120295,"WheelchairAccess":1,"Distance":1492,"Routes":"049"},{"StopNo":50246,"Name":"SB MAIN ST FS E KING EDWARD AVE","BayNo":"N","City":"VANCOUVER","OnStreet":"MAIN ST","AtStreet":"E KING EDWARD AVE","Latitude":49.248466,"Longitude":-123.101194,"WheelchairAccess":1,"Distance":1493,"Routes":"003"},{"StopNo":50827,"Name":"NB FRASER ST FS E 49 AVE","BayNo":"N","City":"VANCOUVER","OnStreet":"FRASER ST","AtStreet":"E 49 AVE","Latitude":49.225766,"Longitude":-123.090643,"WheelchairAccess":1,"Distance":1498,"Routes":"008, N8"},{"StopNo":51517,"Name":"EB E KING EDWARD AVE FS QUEBEC ST","BayNo":"N","City":"VANCOUVER","OnStreet":"E KING EDWARD AVE","AtStreet":"QUEBEC ST","Latitude":49.248736,"Longitude":-123.102742,"WheelchairAccess":0,"Distance":1505,"Routes":"025"},{"StopNo":51516,"Name":"EB W KING EDWARD AVE FS MANITOBA ST","BayNo":"N","City":"VANCOUVER","OnStreet":"W KING EDWARD AVE","AtStreet":"MANITOBA ST","Latitude":49.248819,"Longitude":-123.107042,"WheelchairAccess":1,"Distance":1510,"Routes":"025"},{"StopNo":51572,"Name":"WB W KING EDWARD AVE FS ONTARIO ST","BayNo":"N","City":"VANCOUVER","OnStreet":"W KING EDWARD AVE","AtStreet":"ONTARIO ST","Latitude":49.248922,"Longitude":-123.105388,"WheelchairAccess":1,"Distance":1515,"Routes":"025"},{"StopNo":61253,"Name":"NB CAMBIE ST FS W 27 AVE","BayNo":"N","City":"VANCOUVER","OnStreet":"CAMBIE ST","AtStreet":"W 27 AVE","Latitude":49.247293,"Longitude":-123.115175,"WheelchairAccess":1,"Distance":1517,"Routes":"015, 033, N15"},{"StopNo":50090,"Name":"WB W 41 AVE FS WILLOW ST","BayNo":"N","City":"VANCOUVER","OnStreet":"W 41 AVE","AtStreet":"WILLOW ST","Latitude":49.233984,"Longitude":-123.126031,"WheelchairAccess":1,"Distance":1518,"Routes":"041"},{"StopNo":51518,"Name":"EB E KING EDWARD AVE FS MAIN ST","BayNo":"N","City":"VANCOUVER","OnStreet":"E KING EDWARD AVE","AtStreet":"MAIN ST","Latitude":49.248697,"Longitude":-123.100559,"WheelchairAccess":0,"Distance":1528,"Routes":"025"},{"StopNo":51571,"Name":"WB E KING EDWARD AVE NS MAIN ST","BayNo":"N","City":"VANCOUVER","OnStreet":"E KING EDWARD AVE","AtStreet":"MAIN ST","Latitude":49.248868,"Longitude":-123.101632,"WheelchairAccess":1,"Distance":1532,"Routes":"025"},{"StopNo":50794,"Name":"SB FRASER ST FS E 49 AVE","BayNo":"N","City":"VANCOUVER","OnStreet":"FRASER ST","AtStreet":"E 49 AVE","Latitude":49.225133,"Longitude":-123.090918,"WheelchairAccess":1,"Distance":1535,"Routes":"008, N8"},{"StopNo":52035,"Name":"WB W 49 AVE NS TISDALL ST","BayNo":"N","City":"VANCOUVER","OnStreet":"W 49 AVE","AtStreet":"TISDALL ST","Latitude":49.226382,"Longitude":-123.121438,"WheelchairAccess":1,"Distance":1539,"Routes":"049"},{"StopNo":61105,"Name":"EB E 33 AVE FS SOMERVILLE ST","BayNo":"N","City":"VANCOUVER","OnStreet":"E 33 AVE","AtStreet":"SOMERVILLE ST","Latitude":49.240204,"Longitude":-123.085349,"WheelchairAccess":1,"Distance":1543,"Routes":"033"},{"StopNo":50646,"Name":"EB E 41 AVE FS WINDSOR ST","BayNo":"N","City":"VANCOUVER","OnStreet":"E 41 AVE","AtStreet":"WINDSOR ST","Latitude":49.232721,"Longitude":-123.084340,"WheelchairAccess":1,"Distance":1543,"Routes":"041"},{"StopNo":51975,"Name":"EB E 49 AVE FS FRASER ST","BayNo":"N","City":"VANCOUVER","OnStreet":"E 49 AVE","AtStreet":"FRASER ST","Latitude":49.225406,"Longitude":-123.090264,"WheelchairAccess":1,"Distance":1546,"Routes":"049"},{"StopNo":61115,"Name":"WB E 33 AVE FS WINDSOR ST","BayNo":"N","City":"VANCOUVER","OnStreet":"E 33 AVE","AtStreet":"WINDSOR ST","Latitude":49.240328,"Longitude":-123.085243,"WheelchairAccess":1,"Distance":1555,"Routes":"033"},{"StopNo":52026,"Name":"WB E 49 AVE FS CHESTER ST","BayNo":"N","City":"VANCOUVER","OnStreet":"E 49 AVE","AtStreet":"CHESTER ST","Latitude":49.225522,"Longitude":-123.089891,"WheelchairAccess":1,"Distance":1556,"Routes":"049"},{"StopNo":50169,"Name":"NB MAIN ST FS E KING EDWARD AVE","BayNo":"N","City":"VANCOUVER","OnStreet":"MAIN ST","AtStreet":"E KING EDWARD AVE","Latitude":49.249121,"Longitude":-123.100891,"WheelchairAccess":1,"Distance":1569,"Routes":"003"},{"StopNo":59843,"Name":"NB MAIN ST FS E 54 AVE","BayNo":"N","City":"VANCOUVER","OnStreet":"MAIN ST","AtStreet":"54 AVE","Latitude":49.221340,"Longitude":-123.101649,"WheelchairAccess":1,"Distance":1573,"Routes":"003"},{"StopNo":51573,"Name":"WB W KING EDWARD AVE FS COLUMBIA ST","BayNo":"N","City":"VANCOUVER","OnStreet":"W KING EDWARD AVE","AtStreet":"COLUMBIA ST","Latitude":49.249023,"Longitude":-123.110516,"WheelchairAccess":1,"Distance":1574,"Routes":"025"},{"StopNo":51514,"Name":"EB W KING EDWARD AVE FS YUKON ST","BayNo":"N","City":"VANCOUVER","OnStreet":"W KING EDWARD AVE","AtStreet":"YUKON ST","Latitude":49.248820,"Longitude":-123.111720,"WheelchairAccess":1,"Distance":1576,"Routes":""},{"StopNo":50804,"Name":"EB W 41 AVE FS OAK ST","BayNo":"N","City":"VANCOUVER","OnStreet":"W 41 AVE","AtStreet":"OAK ST","Latitude":49.233800,"Longitude":-123.126888,"WheelchairAccess":1,"Distance":1582,"Routes":"041, 043"},{"StopNo":50838,"Name":"NB FRASER ST FS E 28 AVE","BayNo":"N","City":"VANCOUVER","OnStreet":"FRASER ST","AtStreet":"E 28 AVE","Latitude":49.245870,"Longitude":-123.090120,"WheelchairAccess":1,"Distance":1608,"Routes":""},{"StopNo":51570,"Name":"WB E KING EDWARD AVE FS PRINCE EDWARD ST","BayNo":"N","City":"VANCOUVER","OnStreet":"E KING EDWARD AVE","AtStreet":"PRINCE EDWARD ST","Latitude":49.248783,"Longitude":-123.097125,"WheelchairAccess":1,"Distance":1611,"Routes":"025"},{"StopNo":51519,"Name":"EB E KING EDWARD AVE FS PRINCE EDWARD ST","BayNo":"N","City":"VANCOUVER","OnStreet":"E KING EDWARD AVE","AtStreet":"PRINCE EDWARD ST","Latitude":49.248638,"Longitude":-123.096185,"WheelchairAccess":1,"Distance":1622,"Routes":"025"},{"StopNo":50783,"Name":"SB FRASER ST FS E 27 AVE","BayNo":"N","City":"VANCOUVER","OnStreet":"FRASER ST","AtStreet":"E 27 AVE","Latitude":49.246305,"Longitude":-123.090308,"WheelchairAccess":1,"Distance":1634,"Routes":"008, N8"},{"StopNo":50259,"Name":"SB MAIN ST FS E 54 AVE","BayNo":"N","City":"VANCOUVER","OnStreet":"MAIN ST","AtStreet":"E 54 AVE","Latitude":49.220750,"Longitude":-123.101949,"WheelchairAccess":1,"Distance":1635,"Routes":"003"},{"StopNo":51965,"Name":"EB W 49 AVE FS HEATHER ST","BayNo":"N","City":"VANCOUVER","OnStreet":"W 49 AVE","AtStreet":"HEATHER ST","Latitude":49.226275,"Longitude":-123.123158,"WheelchairAccess":1,"Distance":1644,"Routes":"049"},{"StopNo":51513,"Name":"EB KING EDWARD AVE FS CAMBIE ST","BayNo":"N","City":"VANCOUVER","OnStreet":"W KING EDWARD AVE","AtStreet":"CAMBIE ST","Latitude":49.248866,"Longitude":-123.114707,"WheelchairAccess":1,"Distance":1659,"Routes":"025"},{"StopNo":50419,"Name":"SB CAMBIE ST FS W KING EDWARD AVE","BayNo":"N","City":"VANCOUVER","OnStreet":"CAMBIE ST","AtStreet":"W KING EDWARD AVE","Latitude":49.248634,"Longitude":-123.115722,"WheelchairAccess":1,"Distance":1668,"Routes":"015, 033, N15"},{"StopNo":50997,"Name":"NB CAMBIE ST FS W 54 AVE","BayNo":"N","City":"VANCOUVER","OnStreet":"CAMBIE ST","AtStreet":"W 54 AVE","Latitude":49.222040,"Longitude":-123.116425,"WheelchairAccess":1,"Distance":1683,"Routes":"015, N15"},{"StopNo":51976,"Name":"EB E 49 AVE FS PRINCE ALBERT ST","BayNo":"N","City":"VANCOUVER","OnStreet":"E 49 AVE","AtStreet":"PRINCE ALBERT ST","Latitude":49.225373,"Longitude":-123.087610,"WheelchairAccess":1,"Distance":1689,"Routes":"049"},{"StopNo":51569,"Name":"WB E KING EDWARD AVE FS SAINT GEORGE ST","BayNo":"N","City":"VANCOUVER","OnStreet":"E KING EDWARD AVE","AtStreet":"SAINT GEORGE ST","Latitude":49.248752,"Longitude":-123.094411,"WheelchairAccess":1,"Distance":1690,"Routes":"025"},{"StopNo":50795,"Name":"SB FRASER ST FS E 51 AVE","BayNo":"N","City":"VANCOUVER","OnStreet":"FRASER ST","AtStreet":"E 51 AVE","Latitude":49.223292,"Longitude":-123.090958,"WheelchairAccess":1,"Distance":1690,"Routes":"008, N8"},{"StopNo":51520,"Name":"EB E KING EDWARD AVE FS SAINT GEORGE ST","BayNo":"N","City":"VANCOUVER","OnStreet":"E KING EDWARD AVE","AtStreet":"SAINT GEORGE ST","Latitude":49.248609,"Longitude":-123.093688,"WheelchairAccess":1,"Distance":1701,"Routes":"025"},{"StopNo":61372,"Name":"KING EDWARD STATION","BayNo":"N","City":"VANCOUVER","OnStreet":"SKYTRAIN","AtStreet":"KING EDWARD STN","Latitude":49.249172,"Longitude":-123.115228,"WheelchairAccess":0,"Distance":1705,"Routes":""},{"StopNo":60244,"Name":"NB FRASER ST FS E 27 AVE","BayNo":"N","City":"VANCOUVER","OnStreet":"FRASER ST","AtStreet":"E 27 AVE","Latitude":49.247061,"Longitude":-123.090104,"WheelchairAccess":1,"Distance":1708,"Routes":""},{"StopNo":52025,"Name":"WB E 49 AVE FS SAINT CATHERINES ST","BayNo":"N","City":"VANCOUVER","OnStreet":"E 49 AVE","AtStreet":"SAINT CATHERINES ST","Latitude":49.225497,"Longitude":-123.087115,"WheelchairAccess":1,"Distance":1708,"Routes":"049"},{"StopNo":61371,"Name":"KING EDWARD STATION","BayNo":"N","City":"VANCOUVER","OnStreet":"SKYTRAIN","AtStreet":"KING EDWARD STN","Latitude":49.249186,"Longitude":-123.115716,"WheelchairAccess":0,"Distance":1722,"Routes":""},{"StopNo":50825,"Name":"NB FRASER ST FS E 52 AVE","BayNo":"N","City":"VANCOUVER","OnStreet":"FRASER ST","AtStreet":"E 52 AVE","Latitude":49.223033,"Longitude":-123.090707,"WheelchairAccess":1,"Distance":1723,"Routes":"008, N8"},{"StopNo":51574,"Name":"WB W KING EDWARD AVE FS CAMBIE ST","BayNo":"N","City":"VANCOUVER","OnStreet":"W KING EDWARD AVE","AtStreet":"CAMBIE ST","Latitude":49.249121,"Longitude":-123.116003,"WheelchairAccess":1,"Distance":1725,"Routes":"025"},{"StopNo":50475,"Name":"NB CAMBIE ST FS W KING EDWARD AVE","BayNo":"N","City":"VANCOUVER","OnStreet":"CAMBIE ST","AtStreet":"W KING EDWARD AVE","Latitude":49.249415,"Longitude":-123.115245,"WheelchairAccess":1,"Distance":1730,"Routes":"015, 033, N15"},{"StopNo":50245,"Name":"SB MAIN ST FS E 22 AVE","BayNo":"N","City":"VANCOUVER","OnStreet":"MAIN ST","AtStreet":"E 22 AVE","Latitude":49.250676,"Longitude":-123.101089,"WheelchairAccess":1,"Distance":1736,"Routes":"003"},{"StopNo":50986,"Name":"SB CAMBIE ST FS W 54 AVE","BayNo":"N","City":"VANCOUVER","OnStreet":"CAMBIE ST","AtStreet":"W 54 AVE","Latitude":49.221502,"Longitude":-123.116906,"WheelchairAccess":1,"Distance":1753,"Routes":"015, N15"},{"StopNo":52036,"Name":"WB W 49 AVE FS LAUREL ST","BayNo":"N","City":"VANCOUVER","OnStreet":"W 49 AVE","AtStreet":"LAUREL ST","Latitude":49.226538,"Longitude":-123.125587,"WheelchairAccess":1,"Distance":1770,"Routes":"049"},{"StopNo":51512,"Name":"EB W KING EDWARD AVE FS ASH ST","BayNo":"N","City":"VANCOUVER","OnStreet":"W KING EDWARD AVE","AtStreet":"ASH ST","Latitude":49.248918,"Longitude":-123.117941,"WheelchairAccess":0,"Distance":1774,"Routes":"025"},{"StopNo":50453,"Name":"NB OAK ST FS W 33 AVE","BayNo":"N","City":"VANCOUVER","OnStreet":"OAK ST","AtStreet":"W 33 AVE","Latitude":49.241748,"Longitude":-123.127690,"WheelchairAccess":1,"Distance":1782,"Routes":"017"},{"StopNo":50782,"Name":"SB FRASER ST FS E KING EDWARD AVE","BayNo":"N","City":"VANCOUVER","OnStreet":"FRASER ST","AtStreet":"E KING EDWARD AVE","Latitude":49.248306,"Longitude":-123.090273,"WheelchairAccess":1,"Distance":1809,"Routes":"008, N8"},{"StopNo":51964,"Name":"EB W 49 AV FS FREMLIN ST","BayNo":"N","City":"VANCOUVER","OnStreet":"W 49 AVE","AtStreet":"FREMLIN ST","Latitude":49.226380,"Longitude":-123.126110,"WheelchairAccess":0,"Distance":1812,"Routes":""},{"StopNo":59837,"Name":"NB MAIN ST FS E 22 AVE","BayNo":"N","City":"VANCOUVER","OnStreet":"MAIN ST","AtStreet":"E 22 AVE","Latitude":49.251452,"Longitude":-123.100866,"WheelchairAccess":1,"Distance":1824,"Routes":"003"},{"StopNo":50260,"Name":"SB MAIN ST FS E 56 AVE","BayNo":"N","City":"VANCOUVER","OnStreet":"MAIN ST","AtStreet":"E 56 AVE","Latitude":49.218969,"Longitude":-123.102003,"WheelchairAccess":1,"Distance":1830,"Routes":"003"},{"StopNo":51568,"Name":"WB E KING EDWARD AVE FS FRASER ST","BayNo":"N","City":"VANCOUVER","OnStreet":"E KING EDWARD AVE","AtStreet":"FRASER ST","Latitude":49.248724,"Longitude":-123.090591,"WheelchairAccess":0,"Distance":1833,"Routes":"025"},{"StopNo":50796,"Name":"SB FRASER ST FS E 53 AVE","BayNo":"N","City":"VANCOUVER","OnStreet":"FRASER ST","AtStreet":"E 53 AVE","Latitude":49.221480,"Longitude":-123.091000,"WheelchairAccess":1,"Distance":1851,"Routes":"008, N8"},{"StopNo":50147,"Name":"NB MAIN ST FS E 57 AVE","BayNo":"N","City":"VANCOUVER","OnStreet":"MAIN ST","AtStreet":"E 57 AVE","Latitude":49.218788,"Longitude":-123.101740,"WheelchairAccess":1,"Distance":1853,"Routes":"003"},{"StopNo":51977,"Name":"EB E 49 AVE FS WINDSOR ST","BayNo":"N","City":"VANCOUVER","OnStreet":"E 49 AVE","AtStreet":"WINDSOR ST","Latitude":49.225337,"Longitude":-123.084766,"WheelchairAccess":1,"Distance":1853,"Routes":"049"},{"StopNo":51521,"Name":"EB E KING EDWARD AVE FS FRASER ST","BayNo":"N","City":"VANCOUVER","OnStreet":"E KING EDWARD AVE","AtStreet":"FRASER ST","Latitude":49.248560,"Longitude":-123.089630,"WheelchairAccess":1,"Distance":1859,"Routes":"025"},{"StopNo":50840,"Name":"NB FRASER ST FS E KING EDWARD AVE","BayNo":"N","City":"VANCOUVER","OnStreet":"FRASER ST","AtStreet":"E KING EDWARD AVE","Latitude":49.248973,"Longitude":-123.089998,"WheelchairAccess":1,"Distance":1880,"Routes":"008, N8"},{"StopNo":50824,"Name":"NB FRASER ST FS E 54 AVE","BayNo":"N","City":"VANCOUVER","OnStreet":"FRASER ST","AtStreet":"E 54 AVE","Latitude":49.221260,"Longitude":-123.090756,"WheelchairAccess":1,"Distance":1881,"Routes":"008, N8"},{"StopNo":50418,"Name":"SB CAMBIE ST FS W 22 AVE","BayNo":"N","City":"VANCOUVER","OnStreet":"CAMBIE ST","AtStreet":"W 22 AVE","Latitude":49.250985,"Longitude":-123.115447,"WheelchairAccess":1,"Distance":1896,"Routes":"015, 033, N15"},{"StopNo":51575,"Name":"WB W KING EDWARD AVE FS HEATHER ST","BayNo":"N","City":"VANCOUVER","OnStreet":"W KING EDWARD AVE","AtStreet":"HEATHER ST","Latitude":49.249205,"Longitude":-123.120844,"WheelchairAccess":1,"Distance":1918,"Routes":"025"},{"StopNo":50244,"Name":"SB MAIN ST FS E 20 AVE","BayNo":"N","City":"VANCOUVER","OnStreet":"MAIN ST","AtStreet":"E 20 AVE","Latitude":49.252395,"Longitude":-123.101095,"WheelchairAccess":1,"Distance":1925,"Routes":"003"},{"StopNo":52024,"Name":"WB E 49 AVE NS ELGIN ST","BayNo":"N","City":"VANCOUVER","OnStreet":"E 49 AVE","AtStreet":"ELGIN ST","Latitude":49.225453,"Longitude":-123.083275,"WheelchairAccess":1,"Distance":1933,"Routes":"049"},{"StopNo":50454,"Name":"NB OAK ST FS DEVONSHIRE CRES","BayNo":"N","City":"VANCOUVER","OnStreet":"OAK ST","AtStreet":"DEVONSHIRE CRES","Latitude":49.244894,"Longitude":-123.127493,"WheelchairAccess":1,"Distance":1937,"Routes":"017"},{"StopNo":50476,"Name":"NB CAMBIE ST FS W 22 AVE","BayNo":"N","City":"VANCOUVER","OnStreet":"CAMBIE ST","AtStreet":"W 22 AVE","Latitude":49.251472,"Longitude":-123.115164,"WheelchairAccess":1,"Distance":1938,"Routes":"015, 033, N15"},{"StopNo":50781,"Name":"SB FRASER ST FS E 23 AVE","BayNo":"N","City":"VANCOUVER","OnStreet":"FRASER ST","AtStreet":"E 23 AVE","Latitude":49.249808,"Longitude":-123.090246,"WheelchairAccess":1,"Distance":1946,"Routes":"008, N8"},{"StopNo":51511,"Name":"EB W KING EDWARD AVE FS WILLOW ST","BayNo":"N","City":"VANCOUVER","OnStreet":"W KING EDWARD AVE","AtStreet":"WILLOW ST","Latitude":49.248988,"Longitude":-123.121932,"WheelchairAccess":1,"Distance":1947,"Routes":"025"},{"StopNo":50996,"Name":"NB CAMBIE ST FS W 57 AVE","BayNo":"N","City":"VANCOUVER","OnStreet":"CAMBIE ST","AtStreet":"W 57 AVE","Latitude":49.219328,"Longitude":-123.116528,"WheelchairAccess":1,"Distance":1956,"Routes":"015, N15"}]