[{"class":"Residential","class_code":"1","comm_code":"DNE","name":"DOWNTOWN EAST VILLAGE","sector":"CENTRE","srg":"BUILT-OUT","comm_structure":"CENTRE CITY","longitude":"-114.05081700333886","latitude":"51.04706481724879","location":{"type":"Point","coordinates":[-114.05081700333886,51.04706481724879]},"location_address":"","location_city":"","location_state":"","location_zip":""}
,{"class":"Residential","class_code":"1","comm_code":"CHN","name":"CHINATOWN","sector":"CENTRE","srg":"BUILT-OUT","comm_structure":"CENTRE CITY","longitude":"-114.06253246308364","latitude":"51.0508587163953","location":{"type":"Point","coordinates":[-114.06253246308364,51.0508587163953]},"location_address":"","location_city":"","location_state":"","location_zip":""}
,{"class":"Residential","class_code":"1","comm_code":"BRD","name":"BRIDGELAND/RIVERSIDE","sector":"CENTRE","srg":"BUILT-OUT","comm_structure":"INNER CITY","longitude":"-114.03507442166087","latitude":"51.050566015095384","location":{"type":"Point","coordinates":[-114.03507442166087,51.050566015095384]},"location_address":"","location_city":"","location_state":"","location_zip":""}
,{"class":"Residential","class_code":"1","comm_code":"BLN","name":"BELTLINE","sector":"CENTRE","srg":"BUILT-OUT","comm_structure":"CENTRE CITY","longitude":"-114.0551861089423","latitude":"51.0374499480811","location":{"type":"Point","coordinates":[-114.0551861089423,51.0374499480811]},"location_address":"","location_city":"","location_state":"","location_zip":""}
,{"class":"Residential","class_code":"1","comm_code":"RAM","name":"RAMSAY","sector":"CENTRE","srg":"BUILT-OUT","comm_structure":"INNER CITY","longitude":"-114.04382908803403","latitude":"51.03596226692984","location":{"type":"Point","coordinates":[-114.04382908803403,51.03596226692984]},"location_address":"","location_city":"","location_state":"","location_zip":""}]
