[{"area_sq_km":"2.8023817779561093","latitude":"53.44579914092495","location":{"type":"Point","coordinates":[-113.381470410819,53.445799140925]},"longitude":"-113.38147041081945","name_mixed":"Laurel","number":"6444"}
,{"area_sq_km":"0.9477303638445603","latitude":"53.44953650161919","location":{"type":"Point","coordinates":[-113.400727331899,53.449536501619]},"longitude":"-113.40072733189945","name_mixed":"Daly Grove","number":"6150"}
,{"area_sq_km":"1.1265424817607808","latitude":"53.44183745503643","location":{"type":"Point","coordinates":[-113.406215877841,53.441837455036]},"longitude":"-113.40621587784102","name_mixed":"Crawford Plains","number":"6140"}
,{"area_sq_km":"1.0525848718766857","latitude":"53.449115018797855","location":{"type":"Point","coordinates":[-113.413032216962,53.449115018798]},"longitude":"-113.41303221696194","name_mixed":"Pollard Meadows","number":"6580"}
,{"area_sq_km":"0.9431237485206687","latitude":"53.45890549448193","location":{"type":"Point","coordinates":[-113.400659464357,53.458905494482]},"longitude":"-113.40065946435666","name_mixed":"Bisset","number":"6030"}]
