[{"area_sq_km":"0.7192301124909029","latitude":"53.55498578246043","location":{"type":"Point","coordinates":[-113.584199258458,53.55498578246]},"longitude":"-113.58419925845797","name_mixed":"High Park","number":"4200"}
,{"area_sq_km":"0.8818558902469511","latitude":"53.5461934423499","location":{"type":"Point","coordinates":[-113.584214604281,53.54619344235]},"longitude":"-113.58421460428093","name_mixed":"Canora","number":"4090"}
,{"area_sq_km":"0.7057439608315637","latitude":"53.554938228064856","location":{"type":"Point","coordinates":[-113.571842494479,53.554938228065]},"longitude":"-113.57184249447859","name_mixed":"McQueen","number":"3300"}
,{"area_sq_km":"0.9207625628488075","latitude":"53.545398813192016","location":{"type":"Point","coordinates":[-113.571911648446,53.545398813192]},"longitude":"-113.5719116484459","name_mixed":"Grovenor","number":"3210"}
,{"area_sq_km":"0.8672053240384922","latitude":"53.555018032797804","location":{"type":"Point","coordinates":[-113.598170186463,53.555018032798]},"longitude":"-113.59817018646271","name_mixed":"Mayfield","number":"4290"}]
