[{"class":"Residential","class_code":"1","comm_code":"DNC","name":"DOWNTOWN COMMERCIAL CORE","sector":"CENTRE","srg":"BUILT-OUT","comm_structure":"CENTRE CITY","longitude":"-114.06959026874493","latitude":"51.04727013236215","location":{"type":"Point","coordinates":[-114.06959026874493,51.04727013236215]},"location_address":"","location_city":"","location_state":"","location_zip":""}
,{"class":"Residential","class_code":"1","comm_code":"CHN","name":"CHINATOWN","sector":"CENTRE","srg":"BUILT-OUT","comm_structure":"CENTRE CITY","longitude":"-114.06253246308364","latitude":"51.0508587163953","location":{"type":"Point","coordinates":[-114.06253246308364,51.0508587163953]},"location_address":"","location_city":"","location_state":"","location_zip":""}
,{"class":"Residential","class_code":"1","comm_code":"EAU","name":"EAU CLAIRE","sector":"CENTRE","srg":"BUILT-OUT","comm_structure":"CENTRE CITY","longitude":"-114.07282264096536","latitude":"51.053609045056454","location":{"type":"Point","coordinates":[-114.07282264096536,51.053609045056454]},"location_address":"","location_city":"","location_state":"","location_zip":""}
,{"class":"Residential","class_code":"1","comm_code":"SSD","name":"SUNNYSIDE","sector":"CENTRE","srg":"BUILT-OUT","comm_structure":"INNER CITY","longitude":"-114.07901665219794","latitude":"51.05641941124692","location":{"type":"Point","coordinates":[-114.07901665219794,51.05641941124692]},"location_address":"","location_city":"","location_state":"","location_zip":""}
,{"class":"Residential","class_code":"1","comm_code":"CRE","name":"CRESCENT HEIGHTS","sector":"CENTRE","srg":"BUILT-OUT","comm_structure":"INNER CITY","longitude":"-114.06161236711542","latitude":"51.05952005000434","location":{"type":"Point","coordinates":[-114.06161236711542,51.05952005000434]},"location_address":"","location_city":"","location_state":"","location_zip":""}]
