[{"StopNo":50033,"Name":"EB W HASTINGS ST NS HORNBY ST","BayNo":"N","City":"VANCOUVER","OnStreet":"W HASTINGS ST","AtStreet":"HORNBY ST","Latitude":49.286709,"Longitude":-123.116234,"WheelchairAccess":1,"Distance":192,"Routes":""},{"StopNo":50032,"Name":"NB BURRARD ST FS W PENDER ST","BayNo":"N","City":"VANCOUVER","OnStreet":"BURRARD ST","AtStreet":"W PENDER ST","Latitude":49.286780,"Longitude":-123.117310,"WheelchairAccess":1,"Distance":223,"Routes":""},{"StopNo":58893,"Name":"WB W PENDER ST FS BURRARD ST","BayNo":"N","City":"VANCOUVER","OnStreet":"W PENDER ST","AtStreet":"BURRARD ST","Latitude":49.286835,"Longitude":-123.118034,"WheelchairAccess":1,"Distance":255,"Routes":"019"},{"StopNo":50076,"Name":"EB W PENDER ST FS BURRARD ST","BayNo":"N","City":"VANCOUVER","OnStreet":"W PENDER ST","AtStreet":"BURRARD ST","Latitude":49.286121,"Longitude":-123.117249,"WheelchairAccess":1,"Distance":282,"Routes":"005, 019, 022, 209, 210, 211, N24"},{"StopNo":50097,"Name":"WB W PENDER ST FS HOWE ST","BayNo":"N","City":"VANCOUVER","OnStreet":"W PENDER ST","AtStreet":"HOWE ST","Latitude":49.285522,"Longitude":-123.116058,"WheelchairAccess":1,"Distance":318,"Routes":"005, 019, 022"},{"StopNo":53312,"Name":"NB BURRARD ST NS W PENDER ST","BayNo":"N","City":"VANCOUVER","OnStreet":"BURRARD ST","AtStreet":"W PENDER ST","Latitude":49.286160,"Longitude":-123.118294,"WheelchairAccess":1,"Distance":322,"Routes":"R5"},{"StopNo":56469,"Name":"SB HOWE ST NS W PENDER ST BAY 1","BayNo":"1","City":"VANCOUVER","OnStreet":"HOWE ST","AtStreet":"W PENDER ST","Latitude":49.285450,"Longitude":-123.115710,"WheelchairAccess":1,"Distance":323,"Routes":""},{"StopNo":51374,"Name":"EB W HASTINGS ST NS GRANVILLE ST","BayNo":"N","City":"VANCOUVER","OnStreet":"W HASTINGS ST","AtStreet":"GRANVILLE ST","Latitude":49.285446,"Longitude":-123.114250,"WheelchairAccess":1,"Distance":333,"Routes":"R5"},{"StopNo":50034,"Name":"NB GRANVILLE ST FS W HASTINGS ST","BayNo":"N","City":"VANCOUVER","OnStreet":"GRANVILLE ST","AtStreet":"W HASTINGS ST","Latitude":49.285553,"Longitude":-123.113350,"WheelchairAccess":1,"Distance":344,"Routes":"004, 007, 010, 050"},{"StopNo":58202,"Name":"WATERFRONT STN BAY 1","BayNo":"1","City":"VANCOUVER","OnStreet":"WATERFRONT STN","AtStreet":"BAY 1","Latitude":49.285898,"Longitude":-123.112474,"WheelchairAccess":1,"Distance":344,"Routes":""},{"StopNo":50406,"Name":"EB W PENDER ST FS THURLOW ST ","BayNo":"N","City":"VANCOUVER","OnStreet":"W PENDER ST","AtStreet":"THURLOW ST","Latitude":49.287285,"Longitude":-123.119896,"WheelchairAccess":1,"Distance":348,"Routes":"019, 209, 210, 211"},{"StopNo":61692,"Name":"WB W CORDOVA ST NS GRANVILLE ST-","BayNo":"N","City":"VANCOUVER","OnStreet":"W CORDOVA ST","AtStreet":"GRANVILLE ST","Latitude":49.285820,"Longitude":-123.112380,"WheelchairAccess":1,"Distance":355,"Routes":""},{"StopNo":61917,"Name":"WB W PENDER ST NS HOWE ST BAY 1","BayNo":"1","City":"VANCOUVER","OnStreet":"W PENDER ST","AtStreet":"HOWE ST","Latitude":49.285130,"Longitude":-123.115433,"WheelchairAccess":1,"Distance":357,"Routes":"N22, N35, N8"},{"StopNo":61393,"Name":"WATERFRONT STATION CANADA LINE PLATFORM 2","BayNo":"N","City":"VANCOUVER","OnStreet":"WATERFRONT STATION CANADA LINE","AtStreet":"PLATFORM 2","Latitude":49.285244,"Longitude":-123.114075,"WheelchairAccess":0,"Distance":358,"Routes":"980"},{"StopNo":61394,"Name":"WATERFRONT STATION CANADA LINE","BayNo":"N","City":"VANCOUVER","OnStreet":"WATERFRONT STATION","AtStreet":"CANADA LINE","Latitude":49.285210,"Longitude":-123.114021,"WheelchairAccess":0,"Distance":362,"Routes":"980"},{"StopNo":50978,"Name":"WB W HASTINGS ST NS GRANVILLE ST","BayNo":"N","City":"VANCOUVER","OnStreet":"W HASTINGS ST","AtStreet":"GRANVILLE ST","Latitude":49.285240,"Longitude":-123.113586,"WheelchairAccess":1,"Distance":369,"Routes":"R5"},{"StopNo":58099,"Name":"BURRARD STN BAY 5","BayNo":"5","City":"VANCOUVER","OnStreet":"BURRARD STN","AtStreet":"BAY 5","Latitude":49.285980,"Longitude":-123.118980,"WheelchairAccess":1,"Distance":370,"Routes":"022"},{"StopNo":59831,"Name":"SB HOWE ST FS W PENDER ST BAY 2","BayNo":"2","City":"VANCOUVER","OnStreet":"HOWE ST","AtStreet":"W PENDER ST","Latitude":49.285049,"Longitude":-123.116341,"WheelchairAccess":1,"Distance":373,"Routes":"014, 016, 050"},{"StopNo":57959,"Name":"WATERFRONT STN WEST UNLOAD ONLY","BayNo":"N","City":"VANCOUVER","OnStreet":"WEST COAST EXPRESS","AtStreet":"WATERFRONT STN","Latitude":49.286118,"Longitude":-123.111511,"WheelchairAccess":0,"Distance":374,"Routes":""},{"StopNo":57944,"Name":"WATERFRONT STATION WEST COAST EXPRESS","BayNo":"N","City":"VANCOUVER","OnStreet":"WEST COAST EXPRESS","AtStreet":"WATERFRONT STATION","Latitude":49.286053,"Longitude":-123.111580,"WheelchairAccess":0,"Distance":376,"Routes":""},{"StopNo":57893,"Name":"WATERFRONT STN WEST COAST EXPRESS","BayNo":"N","City":"VANCOUVER","OnStreet":"WATERFRONT STATION","AtStreet":"WEST COAST EXPRESS","Latitude":49.286499,"Longitude":-123.111000,"WheelchairAccess":-1,"Distance":378,"Routes":""},{"StopNo":57963,"Name":"WATERFRONT STN SEABUS SOUTHBOUND","BayNo":"N","City":"VANCOUVER","OnStreet":"SEABUS STATION","AtStreet":"WATERFRONT STN","Latitude":49.286137,"Longitude":-123.111404,"WheelchairAccess":0,"Distance":379,"Routes":"998"},{"StopNo":56558,"Name":"BURRARD STN BAY 6","BayNo":"6","City":"VANCOUVER","OnStreet":"BURRARD STN","AtStreet":"BAY 6","Latitude":49.285770,"Longitude":-123.118874,"WheelchairAccess":1,"Distance":382,"Routes":""},{"StopNo":58003,"Name":"WATERFRONT STATION PLATFORM 1","BayNo":"N","City":"VANCOUVER","OnStreet":"WATERFRONT STATION","AtStreet":"PLATFORM 1","Latitude":49.285961,"Longitude":-123.111519,"WheelchairAccess":0,"Distance":386,"Routes":"992"},{"StopNo":57964,"Name":"WATERFRONT STATION PLATFORM 2","BayNo":"N","City":"VANCOUVER","OnStreet":"WATERFRONT STATION","AtStreet":"PLATFORM 2","Latitude":49.285908,"Longitude":-123.111580,"WheelchairAccess":0,"Distance":387,"Routes":"992"},{"StopNo":57960,"Name":"WATERFRONT STN SEABUS NORTHBOUND","BayNo":"N","City":"VANCOUVER","OnStreet":"SEABUS STATION","AtStreet":"WATERFRONT STN","Latitude":49.286064,"Longitude":-123.111305,"WheelchairAccess":0,"Distance":390,"Routes":"998"},{"StopNo":50040,"Name":"WATERFRONT STN BAY 2","BayNo":"2","City":"VANCOUVER","OnStreet":"WATERFRONT STN","AtStreet":"BAY 2","Latitude":49.285603,"Longitude":-123.111984,"WheelchairAccess":1,"Distance":392,"Routes":"050"},{"StopNo":61925,"Name":"WATERFRONT STATION ALL LINES","BayNo":"N","City":"VANCOUVER","OnStreet":"SKYTRAIN","AtStreet":"WATERFRONT STATION","Latitude":49.285687,"Longitude":-123.111773,"WheelchairAccess":1,"Distance":395,"Routes":""},{"StopNo":50077,"Name":"EB W PENDER ST NS GRANVILLE ST","BayNo":"N","City":"VANCOUVER","OnStreet":"W PENDER ST","AtStreet":"GRANVILLE ST","Latitude":49.284790,"Longitude":-123.115234,"WheelchairAccess":1,"Distance":395,"Routes":"005, 019, 022, 209, 210, 211, N24"},{"StopNo":58204,"Name":"EB W PENDER ST NS GRANVILLE ST--","BayNo":"N","City":"VANCOUVER","OnStreet":"W PENDER ST","AtStreet":"GRANVILLE ST","Latitude":49.284740,"Longitude":-123.115170,"WheelchairAccess":1,"Distance":401,"Routes":""},{"StopNo":51471,"Name":"WB W PENDER ST FS THURLOW ST","BayNo":"N","City":"VANCOUVER","OnStreet":"W PENDER ST","AtStreet":"THURLOW ST","Latitude":49.287731,"Longitude":-123.120865,"WheelchairAccess":1,"Distance":403,"Routes":"019"},{"StopNo":54828,"Name":"SB HOWE ST FS W PENDER ST UNLOADING","BayNo":"N","City":"VANCOUVER","OnStreet":"HOWE ST","AtStreet":"W PENDER ST","Latitude":49.284790,"Longitude":-123.116768,"WheelchairAccess":1,"Distance":408,"Routes":"209, 210, 211"},{"StopNo":50409,"Name":"EB W CORDOVA ST NS SEYMOUR ST","BayNo":"N","City":"VANCOUVER","OnStreet":"W CORDOVA ST","AtStreet":"SEYMOUR ST","Latitude":49.285360,"Longitude":-123.112110,"WheelchairAccess":1,"Distance":408,"Routes":""},{"StopNo":50096,"Name":"WB W PENDER ST NS GRANVILLE ST","BayNo":"N","City":"VANCOUVER","OnStreet":"W PENDER ST","AtStreet":"GRANVILLE ST","Latitude":49.284576,"Longitude":-123.114594,"WheelchairAccess":1,"Distance":423,"Routes":"004, 005, 007, 010, 019, 022, 209, 210, 211, N19, N22, N24"},{"StopNo":60826,"Name":"BURRARD STATION PLATFORM 2","BayNo":"N","City":"VANCOUVER","OnStreet":"BURRARD STATION","AtStreet":"PLATFORM 2","Latitude":49.285633,"Longitude":-123.119514,"WheelchairAccess":0,"Distance":425,"Routes":"992"},{"StopNo":58313,"Name":"NB GRANVILLE ST NS W PENDER ST","BayNo":"N","City":"VANCOUVER","OnStreet":"GRANVILLE ST","AtStreet":"W PENDER ST","Latitude":49.284492,"Longitude":-123.114990,"WheelchairAccess":1,"Distance":429,"Routes":"004, 007, 010, 014, 016, 017, 020, 050"},{"StopNo":58002,"Name":"BURRARD STATION PLATFORM 1","BayNo":"N","City":"VANCOUVER","OnStreet":"BURRARD STATION","AtStreet":"PLATFORM 1","Latitude":49.285580,"Longitude":-123.119598,"WheelchairAccess":0,"Distance":433,"Routes":"992"},{"StopNo":60165,"Name":"NB SEYMOUR ST NS W CORDOVA ST","BayNo":"N","City":"VANCOUVER","OnStreet":"SEYMOUR ST","AtStreet":"W CORDOVA ST","Latitude":49.285130,"Longitude":-123.112020,"WheelchairAccess":1,"Distance":433,"Routes":""},{"StopNo":59832,"Name":"SB HOWE ST NS DUNSMUIR ST BAY 3","BayNo":"3","City":"VANCOUVER","OnStreet":"HOWE ST","AtStreet":"DUNSMUIR ST","Latitude":49.284576,"Longitude":-123.117065,"WheelchairAccess":1,"Distance":436,"Routes":"N15, N19, N20, N24"},{"StopNo":50530,"Name":"BURRARD STN BAY 7","BayNo":"7","City":"VANCOUVER","OnStreet":"BURRARD STN","AtStreet":"BAY 7","Latitude":49.285361,"Longitude":-123.119463,"WheelchairAccess":1,"Distance":444,"Routes":""},{"StopNo":50408,"Name":"NB SEYMOUR ST FS W HASTINGS ST","BayNo":"N","City":"VANCOUVER","OnStreet":"SEYMOUR ST","AtStreet":"W HASTINGS ST","Latitude":49.284810,"Longitude":-123.112535,"WheelchairAccess":1,"Distance":444,"Routes":""},{"StopNo":51842,"Name":"BURRARD STN BAY 4","BayNo":"4","City":"VANCOUVER","OnStreet":"BURRARD STN","AtStreet":"BAY 4","Latitude":49.286900,"Longitude":-123.121193,"WheelchairAccess":1,"Distance":451,"Routes":"002"},{"StopNo":50043,"Name":"BURRARD STN BAY 1","BayNo":"1","City":"VANCOUVER","OnStreet":"BURRARD STN","AtStreet":"BAY 1","Latitude":49.285305,"Longitude":-123.119980,"WheelchairAccess":1,"Distance":475,"Routes":"002, 005, N22"},{"StopNo":50035,"Name":"WATERFRONT STN BAY 3","BayNo":"3","City":"VANCOUVER","OnStreet":"WATERFRONT STN","AtStreet":"BAY 3","Latitude":49.284950,"Longitude":-123.111397,"WheelchairAccess":1,"Distance":475,"Routes":"003, 004, 007, 008, 010, 050, N8"},{"StopNo":50526,"Name":"SB GRANVILLE ST FS W PENDER ST","BayNo":"N","City":"VANCOUVER","OnStreet":"GRANVILLE ST","AtStreet":"W PENDER ST","Latitude":49.284039,"Longitude":-123.115936,"WheelchairAccess":1,"Distance":480,"Routes":"004, 007, 010, 014, 016, 050"},{"StopNo":50405,"Name":"BURRARD STN BAY 2","BayNo":"2","City":"VANCOUVER","OnStreet":"BURRARD STN","AtStreet":"BAY 2","Latitude":49.286156,"Longitude":-123.121170,"WheelchairAccess":1,"Distance":485,"Routes":"209, 210, 211"},{"StopNo":50852,"Name":"WB W HASTINGS ST FS RICHARDS ST","BayNo":"N","City":"VANCOUVER","OnStreet":"W HASTINGS ST","AtStreet":"RICHARDS ST","Latitude":49.284439,"Longitude":-123.112381,"WheelchairAccess":1,"Distance":486,"Routes":"003, 008, 014, 016, N20"},{"StopNo":50930,"Name":"EB W HASTINGS ST FS SEYMOUR ST","BayNo":"N","City":"VANCOUVER","OnStreet":"W HASTINGS ST","AtStreet":"SEYMOUR ST","Latitude":49.284332,"Longitude":-123.112549,"WheelchairAccess":1,"Distance":491,"Routes":"014, 016, 020, N20, N35"},{"StopNo":58321,"Name":"SB HOWE ST FS DUNSMUIR ST BAY 4","BayNo":"4","City":"VANCOUVER","OnStreet":"HOWE ST","AtStreet":"DUNSMUIR ST","Latitude":49.284054,"Longitude":-123.117882,"WheelchairAccess":1,"Distance":510,"Routes":"004, 007, 010, 014, 016, 050"},{"StopNo":51843,"Name":"BURRARD STN BAY 3","BayNo":"3","City":"VANCOUVER","OnStreet":"BURRARD STN","AtStreet":"BAY 3","Latitude":49.286392,"Longitude":-123.121758,"WheelchairAccess":1,"Distance":511,"Routes":"022"},{"StopNo":50639,"Name":"SB RICHARDS ST FS W CORDOVA ST","BayNo":"N","City":"VANCOUVER","OnStreet":"RICHARDS ST","AtStreet":"W CORDOVA ST","Latitude":49.284400,"Longitude":-123.111471,"WheelchairAccess":1,"Distance":522,"Routes":""},{"StopNo":50095,"Name":"WB W PENDER ST FS RICHARDS ST","BayNo":"N","City":"VANCOUVER","OnStreet":"W PENDER ST","AtStreet":"RICHARDS ST","Latitude":49.283817,"Longitude":-123.113426,"WheelchairAccess":1,"Distance":523,"Routes":"004, 005, 007, 010, 019, 022, 209, 210, 211, N19, N22"},{"StopNo":50078,"Name":"EB W PENDER ST FS SEYMOUR ST","BayNo":"N","City":"VANCOUVER","OnStreet":"W PENDER ST","AtStreet":"SEYMOUR ST","Latitude":49.283752,"Longitude":-123.113586,"WheelchairAccess":1,"Distance":527,"Routes":"005, 014, 017, 019, 022, 209, 210, 211, N15, N19, N24"},{"StopNo":60993,"Name":"NB GRANVILLE ST NS DUNSMUIR ST","BayNo":"N","City":"VANCOUVER","OnStreet":"GRANVILLE ST","AtStreet":"DUNSMUIR ST","Latitude":49.283463,"Longitude":-123.116547,"WheelchairAccess":1,"Distance":549,"Routes":"004, 007, 010, 014, 016, 017, 020, 050"},{"StopNo":50189,"Name":"SB RICHARDS ST FS W HASTINGS ST","BayNo":"N","City":"VANCOUVER","OnStreet":"RICHARDS ST","AtStreet":"W HASTINGS ST","Latitude":49.283794,"Longitude":-123.112419,"WheelchairAccess":1,"Distance":550,"Routes":"010, 020"},{"StopNo":50031,"Name":"BURRARD STN BAY 8","BayNo":"8","City":"VANCOUVER","OnStreet":"BURRARD STN","AtStreet":"BAY 8","Latitude":49.284687,"Longitude":-123.120506,"WheelchairAccess":1,"Distance":551,"Routes":"002, 005"},{"StopNo":51373,"Name":"EB W PENDER ST FS BUTE ST","BayNo":"N","City":"VANCOUVER","OnStreet":"W PENDER ST","AtStreet":"BUTE ST","Latitude":49.288212,"Longitude":-123.123062,"WheelchairAccess":1,"Distance":557,"Routes":"019"},{"StopNo":50962,"Name":"WB W HASTINGS ST FS HOMER ST","BayNo":"N","City":"VANCOUVER","OnStreet":"W HASTINGS ST","AtStreet":"HOMER ST","Latitude":49.283920,"Longitude":-123.111570,"WheelchairAccess":1,"Distance":564,"Routes":""},{"StopNo":60196,"Name":"EB W CORDOVA ST FS RICHARDS ST","BayNo":"N","City":"VANCOUVER","OnStreet":"W CORDOVA ST","AtStreet":"RICHARDS ST","Latitude":49.284328,"Longitude":-123.110510,"WheelchairAccess":1,"Distance":570,"Routes":""},{"StopNo":58001,"Name":"GRANVILLE STATION PLATFORM 1","BayNo":"N","City":"VANCOUVER","OnStreet":"GRANVILLE STATION","AtStreet":"PLATFORM 1","Latitude":49.283192,"Longitude":-123.115677,"WheelchairAccess":0,"Distance":573,"Routes":"992"},{"StopNo":57966,"Name":"GRANVILLE STATION PLATFORM 2","BayNo":"N","City":"VANCOUVER","OnStreet":"GRANVILLE STATION","AtStreet":"PLATFORM 2","Latitude":49.283134,"Longitude":-123.115746,"WheelchairAccess":0,"Distance":580,"Routes":"992"},{"StopNo":52711,"Name":"EB W HASTINGS ST FS RICHARDS ST","BayNo":"N","City":"VANCOUVER","OnStreet":"W HASTINGS ST","AtStreet":"RICHARDS ST","Latitude":49.283670,"Longitude":-123.111510,"WheelchairAccess":1,"Distance":591,"Routes":""},{"StopNo":54446,"Name":"WB W GEORGIA ST FS BURRARD ST-","BayNo":"N","City":"VANCOUVER","OnStreet":"W GEORGIA ST","AtStreet":"BURRARD ST","Latitude":49.284779,"Longitude":-123.121452,"WheelchairAccess":1,"Distance":592,"Routes":"240, 246, N24"},{"StopNo":58705,"Name":"WB W GEORGIA ST FS BURRARD ST--","BayNo":"N","City":"VANCOUVER","OnStreet":"W GEORGIA ST","AtStreet":"BURRARD ST","Latitude":49.284954,"Longitude":-123.121727,"WheelchairAccess":1,"Distance":595,"Routes":"250, 257"},{"StopNo":51472,"Name":"WB W PENDER ST FS BUTE ST","BayNo":"N","City":"VANCOUVER","OnStreet":"W PENDER ST","AtStreet":"BUTE ST","Latitude":49.288567,"Longitude":-123.123695,"WheelchairAccess":1,"Distance":603,"Routes":"019"},{"StopNo":60440,"Name":"WB W GEORGIA ST NS THURLOW ST","BayNo":"N","City":"VANCOUVER","OnStreet":"W GEORGIA ST","AtStreet":"THURLOW ST","Latitude":49.285653,"Longitude":-123.122777,"WheelchairAccess":1,"Distance":614,"Routes":""},{"StopNo":58750,"Name":"EB W GEORGIA ST FS BURRARD ST--","BayNo":"N","City":"VANCOUVER","OnStreet":"W GEORGIA ST","AtStreet":"BURRARD ST","Latitude":49.284016,"Longitude":-123.120674,"WheelchairAccess":1,"Distance":615,"Routes":"257"},{"StopNo":50975,"Name":"EB W GEORGIA ST FS BURRARD ST-","BayNo":"N","City":"VANCOUVER","OnStreet":"W GEORGIA ST","AtStreet":"BURRARD ST","Latitude":49.284130,"Longitude":-123.120872,"WheelchairAccess":1,"Distance":615,"Routes":"240, 246, 250, N24"},{"StopNo":61519,"Name":"NB SEYMOUR ST NS DUNSMUIR ST","BayNo":"N","City":"VANCOUVER","OnStreet":"SEYMOUR ST","AtStreet":"DUNSMUIR ST","Latitude":49.282784,"Longitude":-123.115593,"WheelchairAccess":1,"Distance":618,"Routes":"004, 007, 010, 014, 016, 017, 020, 050, N10, N15, N17, N19, N20, N24, N35, N8, N9"},{"StopNo":50079,"Name":"EB W PENDER ST FS RICHARDS ST","BayNo":"N","City":"VANCOUVER","OnStreet":"W PENDER ST","AtStreet":"RICHARDS ST","Latitude":49.282963,"Longitude":-123.112358,"WheelchairAccess":1,"Distance":637,"Routes":""},{"StopNo":60445,"Name":"WB W GEORGIA ST FS THURLOW ST","BayNo":"N","City":"VANCOUVER","OnStreet":"W GEORGIA ST","AtStreet":"THURLOW ST","Latitude":49.286120,"Longitude":-123.123546,"WheelchairAccess":1,"Distance":641,"Routes":""},{"StopNo":61031,"Name":"WB W GEORGIA ST FS GRANVILLE ST","BayNo":"N","City":"VANCOUVER","OnStreet":"W GEORGIA ST","AtStreet":"GRANVILLE ST","Latitude":49.282879,"Longitude":-123.118523,"WheelchairAccess":1,"Distance":649,"Routes":"240, 246, N24"},{"StopNo":50044,"Name":"SB BURRARD ST NS ALBERNI ST","BayNo":"N","City":"VANCOUVER","OnStreet":"BURRARD ST","AtStreet":"ALBERNI ST","Latitude":49.284178,"Longitude":-123.121677,"WheelchairAccess":1,"Distance":650,"Routes":""},{"StopNo":50036,"Name":"EB W CORDOVA ST FS HOMER ST","BayNo":"N","City":"VANCOUVER","OnStreet":"W CORDOVA ST","AtStreet":"HOMER ST","Latitude":49.283764,"Longitude":-123.109650,"WheelchairAccess":1,"Distance":658,"Routes":"003, 004, 007, 008, 050, 209, 210, 211, N8"},{"StopNo":60980,"Name":"SB GRANVILLE ST NS W GEORGIA ST","BayNo":"N","City":"VANCOUVER","OnStreet":"GRANVILLE ST","AtStreet":"W GEORGIA ST","Latitude":49.282661,"Longitude":-123.117950,"WheelchairAccess":1,"Distance":659,"Routes":"004, 007, 010, 014, 016, 050"},{"StopNo":50407,"Name":"NB HOMER ST FS W PENDER ST","BayNo":"N","City":"VANCOUVER","OnStreet":"HOMER ST","AtStreet":"W PENDER ST","Latitude":49.282982,"Longitude":-123.111443,"WheelchairAccess":1,"Distance":661,"Routes":"014, 209, 210, 211"},{"StopNo":50976,"Name":"EB W GEORGIA ST NS GRANVILLE ST","BayNo":"N","City":"VANCOUVER","OnStreet":"W GEORGIA ST","AtStreet":"GRANVILLE ST","Latitude":49.282639,"Longitude":-123.118530,"WheelchairAccess":1,"Distance":674,"Routes":"240, 246, 250, 257, N22, N24"},{"StopNo":54830,"Name":"SB HOWE ST FS W GEORGIA ST","BayNo":"N","City":"VANCOUVER","OnStreet":"HOWE ST","AtStreet":"W GEORGIA ST","Latitude":49.282906,"Longitude":-123.119598,"WheelchairAccess":1,"Distance":678,"Routes":"004, 007, 010, 014, 016, 050, N10, N15, N17, N19, N20, N35, N8, N9"},{"StopNo":50931,"Name":"EB W HASTINGS ST FS HOMER ST","BayNo":"N","City":"VANCOUVER","OnStreet":"W HASTINGS ST","AtStreet":"HOMER ST","Latitude":49.283054,"Longitude":-123.110542,"WheelchairAccess":1,"Distance":685,"Routes":"014, 016, 020, N20, N35"},{"StopNo":61363,"Name":"VANCOUVER CITY CENTRE STATION PLATFORM 2","BayNo":"N","City":"VANCOUVER","OnStreet":"VANCOUVER CITY CENTRE STATION","AtStreet":"PLATFORM 2","Latitude":49.282482,"Longitude":-123.118416,"WheelchairAccess":0,"Distance":688,"Routes":"980"},{"StopNo":58504,"Name":"WB W GEORGIA ST NS GRANVILLE ST","BayNo":"N","City":"VANCOUVER","OnStreet":"W GEORGIA ST","AtStreet":"GRANVILLE ST","Latitude":49.282318,"Longitude":-123.117661,"WheelchairAccess":1,"Distance":690,"Routes":"250"},{"StopNo":50188,"Name":"WB W HASTINGS ST FS HAMILTON ST","BayNo":"N","City":"VANCOUVER","OnStreet":"W HASTINGS ST","AtStreet":"HAMILTON ST","Latitude":49.283089,"Longitude":-123.110298,"WheelchairAccess":1,"Distance":691,"Routes":"003, 008, 014, 016, 020, N20, N35, N8"},{"StopNo":61364,"Name":"VANCOUVER CITY CENTRE STATION PLATFORM 1","BayNo":"N","City":"VANCOUVER","OnStreet":"VANCOUVER CITY CENTRE STATION","AtStreet":"PLATFORM 1","Latitude":49.282410,"Longitude":-123.118324,"WheelchairAccess":0,"Distance":693,"Routes":"980"},{"StopNo":60442,"Name":"EB W GEORGIA ST FS BUTE ST-","BayNo":"N","City":"VANCOUVER","OnStreet":"W GEORGIA ST","AtStreet":"BUTE ST-","Latitude":49.286503,"Longitude":-123.124524,"WheelchairAccess":1,"Distance":694,"Routes":""},{"StopNo":61293,"Name":"NB GRANVILLE ST NS W GEORGIA ST","BayNo":"N","City":"VANCOUVER","OnStreet":"GRANVILLE ST","AtStreet":"W GEORGIA ST","Latitude":49.282318,"Longitude":-123.118294,"WheelchairAccess":1,"Distance":702,"Routes":"004, 007, 010, 014, 016, 017, 020, 050"},{"StopNo":54445,"Name":"WB W GEORGIA ST FS SEYMOUR ST","BayNo":"N","City":"VANCOUVER","OnStreet":"W GEORGIA ST","AtStreet":"SEYMOUR ST","Latitude":49.282139,"Longitude":-123.117371,"WheelchairAccess":1,"Distance":705,"Routes":"257"},{"StopNo":50974,"Name":"EB W GEORGIA ST FS BUTE ST","BayNo":"N","City":"VANCOUVER","OnStreet":"W GEORGIA ST","AtStreet":"BUTE ST","Latitude":49.286716,"Longitude":-123.124886,"WheelchairAccess":1,"Distance":712,"Routes":"240, 246, 250, N24"},{"StopNo":51372,"Name":"EB W PENDER ST FS JERVIS ST","BayNo":"N","City":"VANCOUVER","OnStreet":"W PENDER ST","AtStreet":"JERVIS ST","Latitude":49.288845,"Longitude":-123.125206,"WheelchairAccess":1,"Distance":714,"Routes":"019"},{"StopNo":50094,"Name":"WB W PENDER ST FS HAMILTON ST","BayNo":"N","City":"VANCOUVER","OnStreet":"W PENDER ST","AtStreet":"HAMILTON ST","Latitude":49.282471,"Longitude":-123.111366,"WheelchairAccess":1,"Distance":715,"Routes":"004, 005, 007, 019, 022, 209, 210, 211, N19"},{"StopNo":50190,"Name":"SB RICHARDS ST FS DUNSMUIR ST","BayNo":"N","City":"VANCOUVER","OnStreet":"RICHARDS ST","AtStreet":"DUNSMUIR ST","Latitude":49.281914,"Longitude":-123.115265,"WheelchairAccess":1,"Distance":715,"Routes":"020"},{"StopNo":61662,"Name":"EB W GEORGIA ST FS GRANVILLE ST","BayNo":"N","City":"VANCOUVER","OnStreet":"W GEORGIA ST","AtStreet":"GRANVILLE ST","Latitude":49.282080,"Longitude":-123.117750,"WheelchairAccess":1,"Distance":717,"Routes":""},{"StopNo":50030,"Name":"NB BURRARD ST FS ROBSON ST","BayNo":"N","City":"VANCOUVER","OnStreet":"BURRARD ST","AtStreet":"ROBSON ST","Latitude":49.283592,"Longitude":-123.122139,"WheelchairAccess":1,"Distance":721,"Routes":"002, 005, N22"},{"StopNo":61032,"Name":"WB W GEORGIA ST NS SEYMOUR ST","BayNo":"N","City":"VANCOUVER","OnStreet":"W GEORGIA ST","AtStreet":"SEYMOUR ST","Latitude":49.281740,"Longitude":-123.116757,"WheelchairAccess":1,"Distance":741,"Routes":""},{"StopNo":54447,"Name":"WB W GEORGIA ST FS BUTE ST-","BayNo":"N","City":"VANCOUVER","OnStreet":"W GEORGIA ST","AtStreet":"BUTE ST","Latitude":49.287434,"Longitude":-123.125565,"WheelchairAccess":1,"Distance":745,"Routes":"240, 246, N24"},{"StopNo":59525,"Name":"WB WATER ST FS ABBOTT ST","BayNo":"N","City":"VANCOUVER","OnStreet":"WATER ST","AtStreet":"ABBOTT ST","Latitude":49.284111,"Longitude":-123.107361,"WheelchairAccess":1,"Distance":748,"Routes":"050"},{"StopNo":58704,"Name":"WB W GEORGIA ST FS BUTE ST--","BayNo":"N","City":"VANCOUVER","OnStreet":"W GEORGIA ST","AtStreet":"BUTE ST","Latitude":49.287498,"Longitude":-123.125664,"WheelchairAccess":1,"Distance":751,"Routes":"250"},{"StopNo":60503,"Name":"EB W GEORGIA ST FS SEYMOUR ST","BayNo":"N","City":"VANCOUVER","OnStreet":"W GEORGIA ST","AtStreet":"SEYMOUR ST","Latitude":49.281514,"Longitude":-123.116813,"WheelchairAccess":1,"Distance":766,"Routes":""},{"StopNo":50624,"Name":"WB ROBSON ST FS BURRARD ST","BayNo":"N","City":"VANCOUVER","OnStreet":"ROBSON ST","AtStreet":"BURRARD ST","Latitude":49.283562,"Longitude":-123.123100,"WheelchairAccess":1,"Distance":772,"Routes":"005"},{"StopNo":50623,"Name":"WB ROBSON ST FS HORNBY ST","BayNo":"N","City":"VANCOUVER","OnStreet":"ROBSON ST","AtStreet":"HORNBY ST","Latitude":49.282920,"Longitude":-123.122050,"WheelchairAccess":1,"Distance":773,"Routes":""},{"StopNo":50191,"Name":"SB RICHARDS ST NS W GEORGIA ST","BayNo":"N","City":"VANCOUVER","OnStreet":"RICHARDS ST","AtStreet":"W GEORGIA ST","Latitude":49.281400,"Longitude":-123.116030,"WheelchairAccess":1,"Distance":774,"Routes":""},{"StopNo":58065,"Name":"NB SEYMOUR ST NS W GEORGIA ST ","BayNo":"N","City":"VANCOUVER","OnStreet":"SEYMOUR ST","AtStreet":"W GEORGIA ST","Latitude":49.281479,"Longitude":-123.117546,"WheelchairAccess":1,"Distance":779,"Routes":"N10, N15, N19, N20, N35, N8, N9"},{"StopNo":50616,"Name":"EB ROBSON ST FS BURRARD ST","BayNo":"N","City":"VANCOUVER","OnStreet":"ROBSON ST","AtStreet":"BURRARD ST","Latitude":49.282960,"Longitude":-123.122430,"WheelchairAccess":0,"Distance":787,"Routes":""},{"StopNo":58267,"Name":"NB HOMER ST NS DUNSMUIR ST","BayNo":"N","City":"VANCOUVER","OnStreet":"HOMER ST","AtStreet":"DUNSMUIR ST","Latitude":49.281337,"Longitude":-123.113897,"WheelchairAccess":1,"Distance":787,"Routes":""},{"StopNo":61292,"Name":"SB GRANVILLE ST NS ROBSON ST","BayNo":"N","City":"VANCOUVER","OnStreet":"GRANVILLE ST","AtStreet":"ROBSON ST","Latitude":49.281719,"Longitude":-123.119370,"WheelchairAccess":1,"Distance":791,"Routes":"004, 007, 010, 014, 016, 050"},{"StopNo":50410,"Name":"SB CAMBIE ST FS W HASTINGS ST","BayNo":"N","City":"VANCOUVER","OnStreet":"CAMBIE ST","AtStreet":"W HASTINGS ST","Latitude":49.282211,"Longitude":-123.109802,"WheelchairAccess":1,"Distance":793,"Routes":"004, 019, 050"},{"StopNo":54444,"Name":"WB W GEORGIA ST NS RICHARDS ST","BayNo":"N","City":"VANCOUVER","OnStreet":"W GEORGIA ST","AtStreet":"RICHARDS ST","Latitude":49.281200,"Longitude":-123.115936,"WheelchairAccess":1,"Distance":795,"Routes":"240, 246, N24"},{"StopNo":50625,"Name":"WB ROBSON ST FS THURLOW ST","BayNo":"N","City":"VANCOUVER","OnStreet":"ROBSON ST","AtStreet":"THURLOW ST","Latitude":49.284830,"Longitude":-123.125037,"WheelchairAccess":1,"Distance":802,"Routes":""},{"StopNo":50615,"Name":"EB ROBSON ST FS THURLOW ST","BayNo":"N","City":"VANCOUVER","OnStreet":"ROBSON ST","AtStreet":"THURLOW ST","Latitude":49.284394,"Longitude":-123.124658,"WheelchairAccess":1,"Distance":803,"Routes":""},{"StopNo":50080,"Name":"EB W PENDER ST FS HAMILTON ST","BayNo":"N","City":"VANCOUVER","OnStreet":"W PENDER ST","AtStreet":"HAMILTON ST","Latitude":49.281799,"Longitude":-123.110619,"WheelchairAccess":1,"Distance":806,"Routes":"005, 017, 019, 022, N15, N19, N24"},{"StopNo":61508,"Name":"EB ROBSON ST NS THURLOW ST","BayNo":"N","City":"VANCOUVER","OnStreet":"ROBSON ST","AtStreet":"THURLOW ST","Latitude":49.284680,"Longitude":-123.125130,"WheelchairAccess":1,"Distance":816,"Routes":""},{"StopNo":54473,"Name":"EB W GEORGIA ST FS RICHARDS ST","BayNo":"N","City":"VANCOUVER","OnStreet":"W GEORGIA ST","AtStreet":"RICHARDS ST","Latitude":49.280994,"Longitude":-123.116005,"WheelchairAccess":1,"Distance":819,"Routes":"240, 246, N24"},{"StopNo":50045,"Name":"SB BURRARD ST FS ROBSON ST","BayNo":"N","City":"VANCOUVER","OnStreet":"BURRARD ST","AtStreet":"ROBSON ST","Latitude":49.283089,"Longitude":-123.123337,"WheelchairAccess":1,"Distance":821,"Routes":"002, N22"},{"StopNo":58138,"Name":"EB ROBSON ST FS HOWE ST","BayNo":"N","City":"VANCOUVER","OnStreet":"ROBSON ST","AtStreet":"HOWE ST","Latitude":49.281700,"Longitude":-123.120480,"WheelchairAccess":1,"Distance":826,"Routes":""},{"StopNo":52712,"Name":"EB W HASTINGS ST NS ABBOTT ST","BayNo":"N","City":"VANCOUVER","OnStreet":"W HASTINGS ST","AtStreet":"ABBOTT ST","Latitude":49.282215,"Longitude":-123.108833,"WheelchairAccess":1,"Distance":831,"Routes":"R5"},{"StopNo":54606,"Name":"NB HOMER ST FS W GEORGIA ST","BayNo":"N","City":"VANCOUVER","OnStreet":"HOMER ST","AtStreet":"W GEORGIA ST","Latitude":49.280858,"Longitude":-123.114696,"WheelchairAccess":1,"Distance":834,"Routes":""},{"StopNo":54831,"Name":"SB HOWE ST FS ROBSON ST","BayNo":"N","City":"VANCOUVER","OnStreet":"HOWE ST","AtStreet":"ROBSON ST","Latitude":49.281830,"Longitude":-123.121239,"WheelchairAccess":1,"Distance":840,"Routes":"004, 007, 010, 014, 016, 050, N10, N17, N9"},{"StopNo":50037,"Name":"EB W CORDOVA ST NS ABBOTT ST","BayNo":"N","City":"VANCOUVER","OnStreet":"W CORDOVA ST","AtStreet":"ABBOTT ST","Latitude":49.282943,"Longitude":-123.107243,"WheelchairAccess":1,"Distance":842,"Routes":""},{"StopNo":59040,"Name":"WB ROBSON ST NS GRANVILLE ST","BayNo":"N","City":"VANCOUVER","OnStreet":"ROBSON ST","AtStreet":"GRANVILLE ST","Latitude":49.281281,"Longitude":-123.119553,"WheelchairAccess":1,"Distance":842,"Routes":"017, 020"},{"StopNo":58266,"Name":"EB W GEORGIA ST NS HOMER ST--","BayNo":"N","City":"VANCOUVER","OnStreet":"W GEORGIA ST","AtStreet":"HOMER ST","Latitude":49.280700,"Longitude":-123.115550,"WheelchairAccess":1,"Distance":850,"Routes":""},{"StopNo":51371,"Name":"EB W PENDER ST FS BROUGHTON ST","BayNo":"N","City":"VANCOUVER","OnStreet":"W PENDER ST","AtStreet":"BROUGHTON ST","Latitude":49.289364,"Longitude":-123.127113,"WheelchairAccess":1,"Distance":858,"Routes":"019"},{"StopNo":60277,"Name":"NB SEYMOUR ST FS ROBSON ST","BayNo":"N","City":"VANCOUVER","OnStreet":"SEYMOUR ST","AtStreet":"ROBSON ST","Latitude":49.280884,"Longitude":-123.118484,"WheelchairAccess":1,"Distance":859,"Routes":"004, 007, 010, 014, 016, 017, 020, 050, N17"},{"StopNo":50187,"Name":"WB W HASTINGS ST FS ABBOTT ST","BayNo":"N","City":"VANCOUVER","OnStreet":"W HASTINGS ST","AtStreet":"ABBOTT ST","Latitude":49.282223,"Longitude":-123.108040,"WheelchairAccess":1,"Distance":864,"Routes":"003, 008, 014, 016, 020, N20, N35, N8"},{"StopNo":61871,"Name":"SB HAMILTON ST FS DUNSMUIR ST","BayNo":"N","City":"VANCOUVER","OnStreet":"HAMILTON ST","AtStreet":"DUNSMUIR ST","Latitude":49.280661,"Longitude":-123.113264,"WheelchairAccess":1,"Distance":868,"Routes":""},{"StopNo":59558,"Name":"WB DUNSMUIR ST FS CAMBIE ST","BayNo":"N","City":"VANCOUVER","OnStreet":"DUNSMUIR ST","AtStreet":"CAMBIE ST","Latitude":49.280838,"Longitude":-123.112007,"WheelchairAccess":1,"Distance":870,"Routes":"257"},{"StopNo":50614,"Name":"EB ROBSON ST FS BUTE ST","BayNo":"N","City":"VANCOUVER","OnStreet":"ROBSON ST","AtStreet":"BUTE ST","Latitude":49.285774,"Longitude":-123.126770,"WheelchairAccess":1,"Distance":874,"Routes":"005"},{"StopNo":60346,"Name":"WB W GEORGIA ST NS HOMER ST","BayNo":"N","City":"VANCOUVER","OnStreet":"W GEORGIA ST","AtStreet":"HOMER ST","Latitude":49.280458,"Longitude":-123.114778,"WheelchairAccess":1,"Distance":878,"Routes":""},{"StopNo":50617,"Name":"EB ROBSON ST NS SEYMOUR ST","BayNo":"N","City":"VANCOUVER","OnStreet":"ROBSON ST","AtStreet":"SEYMOUR ST","Latitude":49.280820,"Longitude":-123.119136,"WheelchairAccess":1,"Distance":880,"Routes":""},{"StopNo":50626,"Name":"WB ROBSON ST FS BUTE ST","BayNo":"N","City":"VANCOUVER","OnStreet":"ROBSON ST","AtStreet":"BUTE ST","Latitude":49.286247,"Longitude":-123.127213,"WheelchairAccess":1,"Distance":889,"Routes":"005"},{"StopNo":50081,"Name":"SB CAMBIE ST NS DUNSMUIR ST","BayNo":"N","City":"VANCOUVER","OnStreet":"CAMBIE ST","AtStreet":"DUNSMUIR ST","Latitude":49.280815,"Longitude":-123.111160,"WheelchairAccess":1,"Distance":892,"Routes":"005, 006, N15, N24"},{"StopNo":60348,"Name":"EB W GEORGIA ST FS HOMER ST","BayNo":"N","City":"VANCOUVER","OnStreet":"W GEORGIA ST","AtStreet":"HOMER ST","Latitude":49.280235,"Longitude":-123.114838,"WheelchairAccess":1,"Distance":903,"Routes":"240, 246, 250, N24"},{"StopNo":58326,"Name":"SB GRANVILLE ST FS ROBSON ST","BayNo":"N","City":"VANCOUVER","OnStreet":"GRANVILLE ST","AtStreet":"SMITHE ST","Latitude":49.280961,"Longitude":-123.120573,"WheelchairAccess":1,"Distance":903,"Routes":""},{"StopNo":61870,"Name":"SB HAMILTON ST NS W GEORGIA ST","BayNo":"N","City":"VANCOUVER","OnStreet":"HAMILTON ST","AtStreet":"W GEORGIA ST","Latitude":49.280275,"Longitude":-123.113845,"WheelchairAccess":1,"Distance":904,"Routes":""},{"StopNo":50192,"Name":"WB ROBSON ST FS RICHARDS ST","BayNo":"N","City":"VANCOUVER","OnStreet":"ROBSON ST","AtStreet":"RICHARDS ST","Latitude":49.280410,"Longitude":-123.118230,"WheelchairAccess":1,"Distance":906,"Routes":""},{"StopNo":50932,"Name":"EB W HASTINGS ST NS ABBOTT ST","BayNo":"N","City":"VANCOUVER","OnStreet":"W HASTINGS ST","AtStreet":"ABBOTT ST","Latitude":49.281980,"Longitude":-123.107590,"WheelchairAccess":1,"Distance":906,"Routes":""},{"StopNo":50973,"Name":"EB W GEORGIA ST FS BROUGHTON ST","BayNo":"N","City":"VANCOUVER","OnStreet":"W GEORGIA ST","AtStreet":"BROUGHTON ST","Latitude":49.288692,"Longitude":-123.127922,"WheelchairAccess":1,"Distance":910,"Routes":"240, 246, 250, N24"},{"StopNo":51473,"Name":"WB W PENDER ST FS BROUGHTON ST","BayNo":"N","City":"VANCOUVER","OnStreet":"W PENDER ST","AtStreet":"BROUGHTON ST","Latitude":49.289742,"Longitude":-123.127747,"WheelchairAccess":1,"Distance":910,"Routes":"019"},{"StopNo":61918,"Name":"SB RICHARDS ST NS ROBSON ST","BayNo":"N","City":"VANCOUVER","OnStreet":"RICHARDS ST","AtStreet":"ROBSON ST","Latitude":49.280299,"Longitude":-123.117674,"WheelchairAccess":1,"Distance":910,"Routes":""},{"StopNo":51007,"Name":"NB SEYMOUR ST NS ROBSON ST","BayNo":"N","City":"VANCOUVER","OnStreet":"SEYMOUR ST","AtStreet":"ROBSON ST","Latitude":49.280483,"Longitude":-123.119071,"WheelchairAccess":1,"Distance":914,"Routes":""},{"StopNo":60269,"Name":"NB BURRARD ST FS SMITHE ST","BayNo":"N","City":"VANCOUVER","OnStreet":"BURRARD ST","AtStreet":"SMITHE ST","Latitude":49.282360,"Longitude":-123.124016,"WheelchairAccess":1,"Distance":914,"Routes":"002, N22"},{"StopNo":58144,"Name":"NB GRANVILLE ST FS SMITHE ST","BayNo":"N","City":"VANCOUVER","OnStreet":"GRANVILLE ST","AtStreet":"SMITHE ST","Latitude":49.280785,"Longitude":-123.120537,"WheelchairAccess":1,"Distance":920,"Routes":"004, 007, 010, 014, 016, 050"},{"StopNo":58125,"Name":"EB W CORDOVA ST FS ABBOTT ST","BayNo":"N","City":"VANCOUVER","OnStreet":"W CORDOVA ST","AtStreet":"ABBOTT ST","Latitude":49.282715,"Longitude":-123.106056,"WheelchairAccess":1,"Distance":922,"Routes":"003, 004, 007, 008, 209, 210, 211, N8"},{"StopNo":59513,"Name":"EB W GEORGIA ST NS HAMILTON ST","BayNo":"N","City":"VANCOUVER","OnStreet":"W GEORGIA ST","AtStreet":"HAMILTON ST","Latitude":49.280019,"Longitude":-123.114489,"WheelchairAccess":1,"Distance":928,"Routes":""},{"StopNo":53392,"Name":"WB W HASTINGS ST NS ABBOTT ST","BayNo":"N","City":"VANCOUVER","OnStreet":"W HASTINGS ST","AtStreet":"ABBOTT ST","Latitude":49.282005,"Longitude":-123.106842,"WheelchairAccess":1,"Distance":939,"Routes":"R5"},{"StopNo":50093,"Name":"WB W PENDER ST FS ABBOTT ST","BayNo":"N","City":"VANCOUVER","OnStreet":"W PENDER ST","AtStreet":"ABBOTT ST","Latitude":49.281288,"Longitude":-123.108215,"WheelchairAccess":1,"Distance":941,"Routes":"004, 007, 019, 022, 209, 210, 211, N19"},{"StopNo":60302,"Name":"NB CAMBIE ST NS DUNSMUIR ST","BayNo":"2","City":"VANCOUVER","OnStreet":"CAMBIE ST","AtStreet":"DUNSMUIR ST","Latitude":49.280190,"Longitude":-123.111855,"WheelchairAccess":1,"Distance":942,"Routes":"005, 006"},{"StopNo":50613,"Name":"EB ROBSON ST FS JERVIS ST","BayNo":"N","City":"VANCOUVER","OnStreet":"ROBSON ST","AtStreet":"JERVIS ST","Latitude":49.286773,"Longitude":-123.128301,"WheelchairAccess":1,"Distance":953,"Routes":""},{"StopNo":60369,"Name":"WB W GEORGIA ST NS HAMILTON ST","BayNo":"N","City":"VANCOUVER","OnStreet":"W GEORGIA ST","AtStreet":"HAMILTON ST","Latitude":49.279827,"Longitude":-123.113800,"WheelchairAccess":1,"Distance":954,"Routes":"240, 246, 250, N24"},{"StopNo":54448,"Name":"WB W GEORGIA ST FS BROUGHTON ST","BayNo":"N","City":"VANCOUVER","OnStreet":"W GEORGIA ST","AtStreet":"BROUGHTON ST","Latitude":49.289356,"Longitude":-123.128525,"WheelchairAccess":1,"Distance":960,"Routes":"240, 246, 250, N24"},{"StopNo":58505,"Name":"WB W GEORGIA ST FS BROUGHTON ST--","BayNo":"N","City":"VANCOUVER","OnStreet":"W GEORGIA ST","AtStreet":"BROUGHTON ST","Latitude":49.289360,"Longitude":-123.128530,"WheelchairAccess":1,"Distance":960,"Routes":""},{"StopNo":59468,"Name":"EB W HASTINGS FS ABBOTT ST","BayNo":"N","City":"VANCOUVER","OnStreet":"W HASTINGS","AtStreet":"ABBOTT ST","Latitude":49.281788,"Longitude":-123.106728,"WheelchairAccess":1,"Distance":962,"Routes":"014, 016, 020, N20, N35"},{"StopNo":60355,"Name":"LARWILL PARK LAYOVER ONLY-","BayNo":"N","City":"VANCOUVER","OnStreet":"LARWILL PARK","AtStreet":"LAYOVER ONLY","Latitude":49.279991,"Longitude":-123.111633,"WheelchairAccess":-1,"Distance":968,"Routes":"240, 246, N24"},{"StopNo":60301,"Name":"NB CAMBIE ST NS DUNSMUIR ST","BayNo":"N","City":"VANCOUVER","OnStreet":"CAMBIE ST","AtStreet":"DUNSMUIR ST","Latitude":49.279760,"Longitude":-123.112480,"WheelchairAccess":0,"Distance":977,"Routes":""},{"StopNo":60342,"Name":"SB CAMBIE ST NS W GEORGIA ST","BayNo":"N","City":"VANCOUVER","OnStreet":"CAMBIE ST","AtStreet":"W GEORGIA ST","Latitude":49.279676,"Longitude":-123.112876,"WheelchairAccess":1,"Distance":981,"Routes":""},{"StopNo":50046,"Name":"SB BURRARD ST NS BARCLAY ST","BayNo":"N","City":"VANCOUVER","OnStreet":"BURRARD ST","AtStreet":"BARCLAY ST","Latitude":49.282066,"Longitude":-123.124878,"WheelchairAccess":1,"Distance":981,"Routes":"002, N22"},{"StopNo":51370,"Name":"EB W PENDER ST FS NICOLA ST","BayNo":"N","City":"VANCOUVER","OnStreet":"W PENDER ST","AtStreet":"NICOLA ST","Latitude":49.289898,"Longitude":-123.128769,"WheelchairAccess":1,"Distance":986,"Routes":"019"},{"StopNo":59550,"Name":"NB CAMBIE ST FS W GEORGIA ST","BayNo":"1","City":"VANCOUVER","OnStreet":"CAMBIE ST","AtStreet":"W GEORGIA ST","Latitude":49.279637,"Longitude":-123.112669,"WheelchairAccess":1,"Distance":988,"Routes":""},{"StopNo":60356,"Name":"LARWILL PARK LAYOVER ONLY--","BayNo":"N","City":"VANCOUVER","OnStreet":"LARWILL PARK","AtStreet":"LAYOVER ONLY","Latitude":49.279812,"Longitude":-123.111267,"WheelchairAccess":-1,"Distance":995,"Routes":"250"},{"StopNo":58235,"Name":"SB ABBOTT ST FS W PENDER ST","BayNo":"N","City":"VANCOUVER","OnStreet":"ABBOTT ST","AtStreet":"W PENDER ST","Latitude":49.280739,"Longitude":-123.107727,"WheelchairAccess":1,"Distance":1012,"Routes":"050"},{"StopNo":60492,"Name":"EB CORDOVA ST NS CARRALL ST","BayNo":"N","City":"VANCOUVER","OnStreet":"W CORDOVA ST","AtStreet":"CARRALL ST","Latitude":49.282440,"Longitude":-123.104630,"WheelchairAccess":1,"Distance":1020,"Routes":""},{"StopNo":50622,"Name":"WB ROBSON ST FS HAMILTON ST","BayNo":"N","City":"VANCOUVER","OnStreet":"ROBSON ST","AtStreet":"HAMILTON ST","Latitude":49.279144,"Longitude":-123.116257,"WheelchairAccess":1,"Distance":1025,"Routes":"017, N15"},{"StopNo":50082,"Name":"SB CAMBIE ST FS W GEORGIA ST","BayNo":"N","City":"VANCOUVER","OnStreet":"CAMBIE ST","AtStreet":"W GEORGIA ST","Latitude":49.279171,"Longitude":-123.113632,"WheelchairAccess":1,"Distance":1028,"Routes":"006, 017, N15"},{"StopNo":58529,"Name":"EB W PENDER ST FS ABBOTT ST","BayNo":"N","City":"VANCOUVER","OnStreet":"W PENDER ST","AtStreet":"ABBOTT ST","Latitude":49.280891,"Longitude":-123.106979,"WheelchairAccess":1,"Distance":1029,"Routes":"019, 022, N19"},{"StopNo":50186,"Name":"WB W HASTINGS ST FS CARRALL ST","BayNo":"N","City":"VANCOUVER","OnStreet":"W HASTINGS ST","AtStreet":"CARRALL ST","Latitude":49.281734,"Longitude":-123.105370,"WheelchairAccess":1,"Distance":1033,"Routes":"003, 008, 014, 016, 020, N20, N35, N8"},{"StopNo":60504,"Name":"EB ROBSON ST FS BROUGHTON ST","BayNo":"N","City":"VANCOUVER","OnStreet":"ROBSON ST","AtStreet":"BROUGHTON ST","Latitude":49.287678,"Longitude":-123.129707,"WheelchairAccess":1,"Distance":1041,"Routes":"005"},{"StopNo":50038,"Name":"WB POWELL ST FS COLUMBIA ST","BayNo":"N","City":"VANCOUVER","OnStreet":"POWELL ST","AtStreet":"COLUMBIA ST","Latitude":49.283283,"Longitude":-123.102898,"WheelchairAccess":1,"Distance":1066,"Routes":"050"},{"StopNo":50029,"Name":"NB BURRARD ST FS NELSON ST","BayNo":"N","City":"VANCOUVER","OnStreet":"BURRARD ST","AtStreet":"NELSON ST","Latitude":49.281364,"Longitude":-123.125521,"WheelchairAccess":1,"Distance":1069,"Routes":""},{"StopNo":50627,"Name":"WB ROBSON ST FS BROUGHTON ST","BayNo":"N","City":"VANCOUVER","OnStreet":"ROBSON ST","AtStreet":"BROUGHTON ST","Latitude":49.288151,"Longitude":-123.130150,"WheelchairAccess":1,"Distance":1071,"Routes":"005"},{"StopNo":50227,"Name":"EB E CORDOVA ST FS CARRALL ST","BayNo":"N","City":"VANCOUVER","OnStreet":"E CORDOVA ST","AtStreet":"CARRALL ST","Latitude":49.282323,"Longitude":-123.103816,"WheelchairAccess":1,"Distance":1073,"Routes":""},{"StopNo":52905,"Name":"EB W HASTINGS ST NS CARRALL ST","BayNo":"N","City":"VANCOUVER","OnStreet":"W HASTINGS ST","AtStreet":"CARRALL ST","Latitude":49.281467,"Longitude":-123.104797,"WheelchairAccess":1,"Distance":1084,"Routes":"014, 016, 020, N20, N35"},{"StopNo":50222,"Name":"NB GRANVILLE ST FS NELSON ST","BayNo":"N","City":"VANCOUVER","OnStreet":"GRANVILLE ST","AtStreet":"NELSON ST","Latitude":49.279629,"Longitude":-123.122292,"WheelchairAccess":1,"Distance":1091,"Routes":"004, 007, 010, 014, 016, 050"},{"StopNo":58000,"Name":"STADIUM-CHINATOWN STATION PLATFORM 1","BayNo":"N","City":"VANCOUVER","OnStreet":"STADIUM-CHINATOWN STATION","AtStreet":"PLATFORM 1","Latitude":49.279270,"Longitude":-123.109108,"WheelchairAccess":0,"Distance":1107,"Routes":"992"},{"StopNo":57967,"Name":"STADIUM-CHINATOWN STATION PLATFORM 2","BayNo":"N","City":"VANCOUVER","OnStreet":"STADIUM-CHINATOWN STATION","AtStreet":"PLATFORM 2","Latitude":49.279179,"Longitude":-123.109215,"WheelchairAccess":0,"Distance":1113,"Routes":"992"},{"StopNo":60104,"Name":"NB CAMBIE ST FS ROBSON ST","BayNo":"N","City":"VANCOUVER","OnStreet":"CAMBIE ST","AtStreet":"ROBSON ST","Latitude":49.278324,"Longitude":-123.114670,"WheelchairAccess":1,"Distance":1115,"Routes":"006"},{"StopNo":50612,"Name":"EB ROBSON ST FS NICOLA ST","BayNo":"N","City":"VANCOUVER","OnStreet":"ROBSON ST","AtStreet":"NICOLA ST","Latitude":49.288447,"Longitude":-123.130901,"WheelchairAccess":1,"Distance":1125,"Routes":""},{"StopNo":50532,"Name":"SB GRANVILLE ST NS NELSON ST","BayNo":"","City":"VANCOUVER","OnStreet":"GRANVILLE ST","AtStreet":"NELSON ST","Latitude":49.279411,"Longitude":-123.122948,"WheelchairAccess":1,"Distance":1135,"Routes":"004, 007, 010, 014, 016, 050"},{"StopNo":50091,"Name":"WB W PENDER ST FS CARRALL ST","BayNo":"N","City":"VANCOUVER","OnStreet":"W PENDER ST","AtStreet":"CARRALL ST","Latitude":49.280708,"Longitude":-123.104996,"WheelchairAccess":1,"Distance":1135,"Routes":"004, 007, 019, 022, 209, 210, 211, N19"},{"StopNo":51006,"Name":"NB SEYMOUR ST FS NELSON ST","BayNo":"N","City":"VANCOUVER","OnStreet":"SEYMOUR ST","AtStreet":"NELSON ST","Latitude":49.278835,"Longitude":-123.121582,"WheelchairAccess":1,"Distance":1149,"Routes":"004, 007, 010, 014, 016, 050, N10, N17, N9"},{"StopNo":61073,"Name":"SB CAMBIE ST FS ROBSON ST","BayNo":"N","City":"VANCOUVER","OnStreet":"CAMBIE ST","AtStreet":"ROBSON ST","Latitude":49.278000,"Longitude":-123.115402,"WheelchairAccess":1,"Distance":1150,"Routes":"006, 017, N15"},{"StopNo":50047,"Name":"SB BURRARD ST FS NELSON ST","BayNo":"N","City":"VANCOUVER","OnStreet":"BURRARD ST","AtStreet":"NELSON ST","Latitude":49.280979,"Longitude":-123.126518,"WheelchairAccess":1,"Distance":1150,"Routes":"002, N22"},{"StopNo":51474,"Name":"WB W GEORGIA ST FS CARDERO ST","BayNo":"N","City":"VANCOUVER","OnStreet":"W GEORGIA ST","AtStreet":"CARDERO ST","Latitude":49.290936,"Longitude":-123.130882,"WheelchairAccess":1,"Distance":1160,"Routes":"019, 240, 246, 250, N24"},{"StopNo":61759,"Name":"NB BURRARD ST FS COMOX ST","BayNo":"N","City":"VANCOUVER","OnStreet":"BURRARD ST","AtStreet":"COMOX ST","Latitude":49.280758,"Longitude":-123.126434,"WheelchairAccess":1,"Distance":1164,"Routes":"002, N22"},{"StopNo":54832,"Name":"SB HOWE ST FS NELSON ST","BayNo":"N","City":"VANCOUVER","OnStreet":"HOWE ST","AtStreet":"NELSON ST","Latitude":49.279697,"Longitude":-123.124451,"WheelchairAccess":1,"Distance":1165,"Routes":"004, 007, 010, 014, 016, 050, N10, N17, N9"},{"StopNo":50933,"Name":"EB E HASTINGS ST FS CARRALL ST","BayNo":"N","City":"VANCOUVER","OnStreet":"E HASTINGS ST","AtStreet":"CARRALL ST","Latitude":49.281322,"Longitude":-123.103441,"WheelchairAccess":1,"Distance":1166,"Routes":""},{"StopNo":59923,"Name":"WB KEEFER PL FS TAYLOR ST ","BayNo":"N","City":"VANCOUVER","OnStreet":"KEEFER PL","AtStreet":"TAYLOR ST","Latitude":49.279579,"Longitude":-123.106438,"WheelchairAccess":1,"Distance":1171,"Routes":"023"},{"StopNo":59991,"Name":"WB EXPO BLVD FS ABBOTT ST","BayNo":"N","City":"VANCOUVER","OnStreet":"EXPO BLVD","AtStreet":"ABBOTT ST","Latitude":49.278790,"Longitude":-123.108017,"WheelchairAccess":1,"Distance":1189,"Routes":"023"},{"StopNo":60423,"Name":"EB ROBSON ST FS CARDERO ST","BayNo":"N","City":"VANCOUVER","OnStreet":"ROBSON ST","AtStreet":"CARDERO ST","Latitude":49.289200,"Longitude":-123.132050,"WheelchairAccess":1,"Distance":1212,"Routes":"005"},{"StopNo":50533,"Name":"SB GRANVILLE ST FS NELSON ST","BayNo":"N","City":"VANCOUVER","OnStreet":"GRANVILLE ST","AtStreet":"NELSON ST","Latitude":49.278877,"Longitude":-123.123712,"WheelchairAccess":1,"Distance":1214,"Routes":""},{"StopNo":50021,"Name":"EB E PENDER ST FS CARRALL ST","BayNo":"N","City":"VANCOUVER","OnStreet":"E PENDER ST","AtStreet":"CARRALL ST","Latitude":49.280396,"Longitude":-123.103798,"WheelchairAccess":1,"Distance":1220,"Routes":"019, 022, N19"},{"StopNo":58169,"Name":"EB KEEFER PL FS TAYLOR ST-","BayNo":"N","City":"VANCOUVER","OnStreet":"KEEFER PL","AtStreet":"TAYLOR ST","Latitude":49.279327,"Longitude":-123.105759,"WheelchairAccess":1,"Distance":1222,"Routes":"023"},{"StopNo":58484,"Name":"EB W GEORGIA ST FS BIDWELL ST--","BayNo":"N","City":"VANCOUVER","OnStreet":"W GEORGIA ST","AtStreet":"BIDWELL ST","Latitude":49.291150,"Longitude":-123.131730,"WheelchairAccess":1,"Distance":1226,"Routes":""},{"StopNo":50028,"Name":"NB BURRARD ST FS HELMCKEN ST","BayNo":"N","City":"VANCOUVER","OnStreet":"BURRARD ST","AtStreet":"HELMCKEN ST","Latitude":49.280330,"Longitude":-123.127060,"WheelchairAccess":1,"Distance":1229,"Routes":""},{"StopNo":58254,"Name":"EB W GEORGIA ST FS BIDWELL ST","BayNo":"N","City":"VANCOUVER","OnStreet":"W GEORGIA ST","AtStreet":"BIDWELL ST","Latitude":49.291210,"Longitude":-123.131836,"WheelchairAccess":1,"Distance":1235,"Routes":"240, 246, 250, N24"},{"StopNo":58051,"Name":"EB KEEFER PL FS TAYLOR ST--","BayNo":"N","City":"VANCOUVER","OnStreet":"KEEFER PL","AtStreet":"TAYLOR ST","Latitude":49.279293,"Longitude":-123.105515,"WheelchairAccess":1,"Distance":1235,"Routes":"050"},{"StopNo":50517,"Name":"WB POWELL ST FS MAIN ST","BayNo":"N","City":"VANCOUVER","OnStreet":"POWELL ST","AtStreet":"MAIN ST","Latitude":49.283270,"Longitude":-123.100110,"WheelchairAccess":1,"Distance":1243,"Routes":""},{"StopNo":59992,"Name":"NB PAT QUINN WAY NS EXPO BLVD","BayNo":"N","City":"VANCOUVER","OnStreet":"PAT QUINN WAY","AtStreet":"EXPO BLVD","Latitude":49.278393,"Longitude":-123.107521,"WheelchairAccess":1,"Distance":1245,"Routes":"023"},{"StopNo":50628,"Name":"WB ROBSON ST FS CARDERO ST","BayNo":"N","City":"VANCOUVER","OnStreet":"ROBSON ST","AtStreet":"CARDERO ST","Latitude":49.289692,"Longitude":-123.132545,"WheelchairAccess":1,"Distance":1254,"Routes":"005"},{"StopNo":50485,"Name":"WB SMITHE ST NS CAMBIE ST","BayNo":"N","City":"VANCOUVER","OnStreet":"SMITHE ST","AtStreet":"CAMBIE ST","Latitude":49.277050,"Longitude":-123.116260,"WheelchairAccess":1,"Distance":1257,"Routes":""},{"StopNo":50022,"Name":"NB COLUMBIA ST FS E PENDER ST","BayNo":"N","City":"VANCOUVER","OnStreet":"COLUMBIA ST","AtStreet":"E PENDER ST","Latitude":49.280773,"Longitude":-123.102196,"WheelchairAccess":1,"Distance":1274,"Routes":"050"},{"StopNo":61074,"Name":"SB MAIN ST FS POWELL ST ","BayNo":"N","City":"VANCOUVER","OnStreet":"MAIN ST","AtStreet":"POWELL ST","Latitude":49.282700,"Longitude":-123.099731,"WheelchairAccess":1,"Distance":1297,"Routes":"004, 007, 209, 210, 211"},{"StopNo":50228,"Name":"EB E CORDOVA ST NS MAIN ST","BayNo":"N","City":"VANCOUVER","OnStreet":"E CORDOVA ST","AtStreet":"MAIN ST","Latitude":49.282234,"Longitude":-123.100006,"WheelchairAccess":1,"Distance":1306,"Routes":"003, 008, N8"},{"StopNo":50185,"Name":"WB E HASTINGS ST FS MAIN ST","BayNo":"N","City":"VANCOUVER","OnStreet":"E HASTINGS ST","AtStreet":"MAIN ST","Latitude":49.281456,"Longitude":-123.100777,"WheelchairAccess":1,"Distance":1307,"Routes":"003, 008, N20, N35, N8"},{"StopNo":60049,"Name":"SB CAMBIE ST NS NELSON ST","BayNo":"N","City":"VANCOUVER","OnStreet":"CAMBIE ST","AtStreet":"NELSON ST","Latitude":49.276601,"Longitude":-123.117499,"WheelchairAccess":1,"Distance":1315,"Routes":""},{"StopNo":59919,"Name":"NB PAT QUINN WAY FS PACIFIC BLVD","BayNo":"N","City":"VANCOUVER","OnStreet":"PAT QUINN WAY","AtStreet":"PACIFIC BLVD","Latitude":49.277431,"Longitude":-123.107544,"WheelchairAccess":1,"Distance":1340,"Routes":"023"},{"StopNo":50611,"Name":"EB ROBSON ST FS BIDWELL ST","BayNo":"N","City":"VANCOUVER","OnStreet":"ROBSON ST","AtStreet":"BIDWELL ST","Latitude":49.290230,"Longitude":-123.133644,"WheelchairAccess":1,"Distance":1341,"Routes":"005"},{"StopNo":51133,"Name":"WB KEEFER ST FS COLUMBIA ST","BayNo":"N","City":"VANCOUVER","OnStreet":"KEEFER ST","AtStreet":"COLUMBIA ST","Latitude":49.279266,"Longitude":-123.102943,"WheelchairAccess":0,"Distance":1354,"Routes":"023"},{"StopNo":60103,"Name":"NB CAMBIE ST FS NELSON ST","BayNo":"N","City":"VANCOUVER","OnStreet":"CAMBIE ST","AtStreet":"NELSON ST","Latitude":49.276260,"Longitude":-123.117760,"WheelchairAccess":1,"Distance":1355,"Routes":"006"},{"StopNo":61810,"Name":"NB SMITHE ST FS EXPO BLVD","BayNo":"N","City":"VANCOUVER","OnStreet":"SMITHE ST","AtStreet":"EXPO BLVD","Latitude":49.276112,"Longitude":-123.114937,"WheelchairAccess":1,"Distance":1361,"Routes":"017, N15"},{"StopNo":50425,"Name":"EB E CORDOVA ST FS MAIN ST","BayNo":"N","City":"VANCOUVER","OnStreet":"E CORDOVA ST","AtStreet":"MAIN ST","Latitude":49.282204,"Longitude":-123.098946,"WheelchairAccess":1,"Distance":1374,"Routes":"004, 007, 209, 210, 211"},{"StopNo":50516,"Name":"WB POWELL ST FS GORE AVE","BayNo":"N","City":"VANCOUVER","OnStreet":"POWELL ST","AtStreet":"GORE AVE","Latitude":49.283222,"Longitude":-123.098137,"WheelchairAccess":1,"Distance":1375,"Routes":"004, 007, 209"},{"StopNo":50972,"Name":"EB W GEORGIA ST FS DENMAN ST","BayNo":"N","City":"VANCOUVER","OnStreet":"W GEORGIA ST","AtStreet":"DENMAN ST","Latitude":49.292259,"Longitude":-123.133362,"WheelchairAccess":1,"Distance":1375,"Routes":"019, 240, 246, 250, 257, N24"},{"StopNo":50689,"Name":"WB E PENDER ST FS MAIN ST-","BayNo":"N","City":"VANCOUVER","OnStreet":"E PENDER ST","AtStreet":"MAIN ST","Latitude":49.280464,"Longitude":-123.100685,"WheelchairAccess":1,"Distance":1380,"Routes":"004, 007, 019, 022, 209, 210, 211"},{"StopNo":53391,"Name":"WB E HASTINGS ST NS MAIN ST","BayNo":"N","City":"VANCOUVER","OnStreet":"E HASTINGS ST","AtStreet":"MAIN ST","Latitude":49.281425,"Longitude":-123.099365,"WheelchairAccess":1,"Distance":1394,"Routes":"014, 016, 020, R5"},{"StopNo":60102,"Name":"SB CAMBIE ST FS NELSON ST","BayNo":"N","City":"VANCOUVER","OnStreet":"CAMBIE ST","AtStreet":"NELSON ST","Latitude":49.275955,"Longitude":-123.118439,"WheelchairAccess":1,"Distance":1395,"Routes":"006"},{"StopNo":50220,"Name":"NB GRANVILLE ST FS DAVIE ST","BayNo":"N","City":"VANCOUVER","OnStreet":"GRANVILLE ST","AtStreet":"DAVIE ST","Latitude":49.277584,"Longitude":-123.125374,"WheelchairAccess":1,"Distance":1399,"Routes":"004, 007, 010, 014, 016, 050"},{"StopNo":61518,"Name":"WB E PENDER ST FS MAIN ST--","BayNo":"N","City":"VANCOUVER","OnStreet":"E PENDER ST","AtStreet":"MAIN ST","Latitude":49.280460,"Longitude":-123.100266,"WheelchairAccess":1,"Distance":1404,"Routes":"007, 019, 022, 209, N19"},{"StopNo":50411,"Name":"EB NELSON ST FS CAMBIE ST","BayNo":"N","City":"VANCOUVER","OnStreet":"NELSON ST","AtStreet":"CAMBIE ST","Latitude":49.275791,"Longitude":-123.117737,"WheelchairAccess":1,"Distance":1406,"Routes":"017, N15"},{"StopNo":50229,"Name":"SB MAIN ST FS E HASTINGS ST","BayNo":"N","City":"VANCOUVER","OnStreet":"MAIN ST","AtStreet":"E HASTINGS ST","Latitude":49.280811,"Longitude":-123.099815,"WheelchairAccess":1,"Distance":1406,"Routes":"003, 004, 007, 008, N8"},{"StopNo":59924,"Name":"SB QUEBEC ST FS KEEFER ST","BayNo":"N","City":"VANCOUVER","OnStreet":"QUEBEC ST","AtStreet":"KEEFER ST","Latitude":49.279007,"Longitude":-123.102219,"WheelchairAccess":0,"Distance":1411,"Routes":"023"},{"StopNo":50484,"Name":"NB SMITHE ST NS EXPO BLVD","BayNo":"N","City":"VANCOUVER","OnStreet":"SMITHE ST","AtStreet":"EXPO BLVD","Latitude":49.275660,"Longitude":-123.114570,"WheelchairAccess":1,"Distance":1412,"Routes":""},{"StopNo":50934,"Name":"EB E HASTINGS ST FS MAIN ST-","BayNo":"N","City":"VANCOUVER","OnStreet":"E HASTINGS ST","AtStreet":"MAIN ST","Latitude":49.281223,"Longitude":-123.099037,"WheelchairAccess":1,"Distance":1426,"Routes":"014, 016, 020, N20, N35"},{"StopNo":50520,"Name":"EB E PENDER ST NS MAIN ST","BayNo":"N","City":"VANCOUVER","OnStreet":"E PENDER ST","AtStreet":"MAIN ST","Latitude":49.280331,"Longitude":-123.100044,"WheelchairAccess":1,"Distance":1426,"Routes":"019, N19"},{"StopNo":50048,"Name":"WB DAVIE ST FS BURRARD ST","BayNo":"N","City":"VANCOUVER","OnStreet":"DAVIE ST","AtStreet":"BURRARD ST","Latitude":49.279449,"Longitude":-123.129616,"WheelchairAccess":1,"Distance":1430,"Routes":"006"},{"StopNo":61522,"Name":"SB HOWE ST NS DAVIE ST","BayNo":"N","City":"VANCOUVER","OnStreet":"HOWE ST","AtStreet":"DAVIE ST","Latitude":49.277973,"Longitude":-123.127037,"WheelchairAccess":1,"Distance":1430,"Routes":"004, 007, 010, 014, 016, 050, N10, N17, N9"},{"StopNo":50026,"Name":"WB DAVIE ST FS HOWE ST","BayNo":"N","City":"VANCOUVER","OnStreet":"DAVIE ST","AtStreet":"HOWE ST","Latitude":49.278072,"Longitude":-123.127495,"WheelchairAccess":1,"Distance":1441,"Routes":"006"},{"StopNo":51475,"Name":"WB W GEORGIA ST FS DENMAN ST","BayNo":"N","City":"VANCOUVER","OnStreet":"W GEORGIA ST","AtStreet":"DENMAN ST","Latitude":49.292950,"Longitude":-123.134018,"WheelchairAccess":1,"Distance":1445,"Routes":"019, 240, 246, 250, 257, N24"},{"StopNo":50074,"Name":"EB DAVIE ST FS BURRARD ST","BayNo":"N","City":"VANCOUVER","OnStreet":"DAVIE ST","AtStreet":"BURRARD ST","Latitude":49.278793,"Longitude":-123.128899,"WheelchairAccess":1,"Distance":1445,"Routes":"006"},{"StopNo":51004,"Name":"NB SEYMOUR ST FS DAVIE ST ","BayNo":"N","City":"VANCOUVER","OnStreet":"SEYMOUR ST","AtStreet":"DAVIE ST","Latitude":49.276810,"Longitude":-123.124626,"WheelchairAccess":1,"Distance":1447,"Routes":"004, 007, 010, 014, 016, 050, N10, N17, N9"},{"StopNo":50049,"Name":"WB DAVIE ST FS THURLOW ST","BayNo":"N","City":"VANCOUVER","OnStreet":"DAVIE ST","AtStreet":"THURLOW ST","Latitude":49.280758,"Longitude":-123.131638,"WheelchairAccess":1,"Distance":1450,"Routes":"006"},{"StopNo":50638,"Name":"EB DAVIE ST FS THURLOW ST","BayNo":"N","City":"VANCOUVER","OnStreet":"DAVIE ST","AtStreet":"THURLOW ST","Latitude":49.280148,"Longitude":-123.130959,"WheelchairAccess":1,"Distance":1451,"Routes":"006"},{"StopNo":50075,"Name":"NB BURRARD ST NS DAVIE ST","BayNo":"N","City":"VANCOUVER","OnStreet":"BURRARD ST","AtStreet":"DAVIE ST","Latitude":49.278885,"Longitude":-123.129250,"WheelchairAccess":1,"Distance":1455,"Routes":"002, N22"},{"StopNo":50025,"Name":"WB DAVIE ST FS GRANVILLE ST","BayNo":"N","City":"VANCOUVER","OnStreet":"DAVIE ST","AtStreet":"GRANVILLE ST","Latitude":49.277435,"Longitude":-123.126511,"WheelchairAccess":1,"Distance":1457,"Routes":"006"},{"StopNo":50011,"Name":"EB DAVIE ST FS HOWE ST","BayNo":"N","City":"VANCOUVER","OnStreet":"DAVIE ST","AtStreet":"HOWE ST","Latitude":49.277550,"Longitude":-123.126968,"WheelchairAccess":1,"Distance":1465,"Routes":"006"},{"StopNo":52713,"Name":"EB E HASTINGS ST FS MAIN ST--","BayNo":"N","City":"VANCOUVER","OnStreet":"E HASTINGS ST","AtStreet":"MAIN ST","Latitude":49.281219,"Longitude":-123.098305,"WheelchairAccess":1,"Distance":1471,"Routes":"R5"},{"StopNo":50098,"Name":"SB BURRARD ST FS DAVIE ST","BayNo":"N","City":"VANCOUVER","OnStreet":"BURRARD ST","AtStreet":"DAVIE ST","Latitude":49.278915,"Longitude":-123.129639,"WheelchairAccess":1,"Distance":1472,"Routes":"002, N22"},{"StopNo":51272,"Name":"EB E PENDER ST FS MAIN ST","BayNo":"N","City":"VANCOUVER","OnStreet":"E PENDER ST","AtStreet":"MAIN ST","Latitude":49.280323,"Longitude":-123.099243,"WheelchairAccess":1,"Distance":1472,"Routes":"022"},{"StopNo":60489,"Name":"WB DAVIE ST NS BUTE ST","BayNo":"N","City":"VANCOUVER","OnStreet":"DAVIE ST","AtStreet":"BUTE ST","Latitude":49.281673,"Longitude":-123.133049,"WheelchairAccess":1,"Distance":1480,"Routes":"006"},{"StopNo":60116,"Name":"EB DAVIE ST FS GRANVILLE ST","BayNo":"N","City":"VANCOUVER","OnStreet":"DAVIE ST","AtStreet":"GRANVILLE ST","Latitude":49.276924,"Longitude":-123.125992,"WheelchairAccess":1,"Distance":1485,"Routes":"006"},{"StopNo":50637,"Name":"EB DAVIE ST FS BUTE ST","BayNo":"N","City":"VANCOUVER","OnStreet":"DAVIE ST","AtStreet":"BUTE ST","Latitude":49.281590,"Longitude":-123.133186,"WheelchairAccess":1,"Distance":1494,"Routes":"006, 023"},{"StopNo":50050,"Name":"WB DAVIE ST FS BUTE ST","BayNo":"N","City":"VANCOUVER","OnStreet":"DAVIE ST","AtStreet":"BUTE ST","Latitude":49.282009,"Longitude":-123.133574,"WheelchairAccess":1,"Distance":1496,"Routes":""},{"StopNo":50024,"Name":"WB DAVIE ST FS RICHARDS ST","BayNo":"N","City":"VANCOUVER","OnStreet":"DAVIE ST","AtStreet":"RICHARDS ST","Latitude":49.276180,"Longitude":-123.124557,"WheelchairAccess":1,"Distance":1507,"Routes":"006"},{"StopNo":60014,"Name":"WB EXPO BLVD FS NELSON ST","BayNo":"N","City":"VANCOUVER","OnStreet":"EXPO BLVD","AtStreet":"NELSON ST","Latitude":49.274765,"Longitude":-123.116234,"WheelchairAccess":1,"Distance":1511,"Routes":"023"},{"StopNo":50629,"Name":"SB DENMAN ST FS ROBSON ST","BayNo":"N","City":"VANCOUVER","OnStreet":"DENMAN ST","AtStreet":"ROBSON ST","Latitude":49.291241,"Longitude":-123.135925,"WheelchairAccess":1,"Distance":1524,"Routes":"005"},{"StopNo":58721,"Name":"SB BURRARD ST NS BURNABY ST","BayNo":"N","City":"VANCOUVER","OnStreet":"BURRARD ST","AtStreet":"BURNABY ST","Latitude":49.278573,"Longitude":-123.130164,"WheelchairAccess":1,"Distance":1526,"Routes":""},{"StopNo":59860,"Name":"EB DAVIE ST NS RICHARDS ST","BayNo":"N","City":"VANCOUVER","OnStreet":"DAVIE ST","AtStreet":"RICHARDS ST","Latitude":49.275963,"Longitude":-123.124481,"WheelchairAccess":1,"Distance":1527,"Routes":"006"},{"StopNo":50230,"Name":"SB MAIN ST FS KEEFER ST ","BayNo":"N","City":"VANCOUVER","OnStreet":"MAIN ST","AtStreet":"KEEFER ST","Latitude":49.279034,"Longitude":-123.099915,"WheelchairAccess":1,"Distance":1527,"Routes":"003, 008, 019, N19, N8"},{"StopNo":50535,"Name":"SB GRANVILLE ST FS DAVIE ST","BayNo":"N","City":"VANCOUVER","OnStreet":"GRANVILLE ST","AtStreet":"DAVIE ST","Latitude":49.276787,"Longitude":-123.126907,"WheelchairAccess":1,"Distance":1533,"Routes":"004, 007, 010, 014, 016, 050"},{"StopNo":50610,"Name":"NB DENMAN ST FS HARO ST","BayNo":"N","City":"VANCOUVER","OnStreet":"DENMAN ST","AtStreet":"HARO ST","Latitude":49.290913,"Longitude":-123.136162,"WheelchairAccess":1,"Distance":1534,"Routes":"005"},{"StopNo":59397,"Name":"EB DAVIE ST FS RICHARDS ST","BayNo":"N","City":"VANCOUVER","OnStreet":"DAVIE ST","AtStreet":"RICHARDS ST","Latitude":49.275700,"Longitude":-123.124080,"WheelchairAccess":1,"Distance":1541,"Routes":""},{"StopNo":50636,"Name":"EB DAVIE ST FS JERVIS ST","BayNo":"N","City":"VANCOUVER","OnStreet":"DAVIE ST","AtStreet":"JERVIS ST","Latitude":49.282578,"Longitude":-123.134773,"WheelchairAccess":1,"Distance":1546,"Routes":"006, 023"},{"StopNo":50184,"Name":"NB MAIN ST FS E GEORGIA ST","BayNo":"N","City":"VANCOUVER","OnStreet":"MAIN ST","AtStreet":"E GEORGIA ST","Latitude":49.278969,"Longitude":-123.099609,"WheelchairAccess":1,"Distance":1548,"Routes":"003, 008, 019, N19, N8"},{"StopNo":50051,"Name":"WB DAVIE ST FS JERVIS ST","BayNo":"N","City":"VANCOUVER","OnStreet":"DAVIE ST","AtStreet":"JERVIS ST","Latitude":49.283005,"Longitude":-123.135124,"WheelchairAccess":1,"Distance":1550,"Routes":"006"},{"StopNo":51367,"Name":"WB E PENDER ST FS GORE AVE","BayNo":"N","City":"VANCOUVER","OnStreet":"E PENDER ST","AtStreet":"GORE AVE","Latitude":49.280426,"Longitude":-123.097710,"WheelchairAccess":1,"Distance":1555,"Routes":"022"},{"StopNo":59914,"Name":"WB PACIFIC BLVD FS CAMBIE ST","BayNo":"N","City":"VANCOUVER","OnStreet":"PACIFIC BLVD","AtStreet":"CAMBIE ST","Latitude":49.274605,"Longitude":-123.119682,"WheelchairAccess":1,"Distance":1559,"Routes":"023"},{"StopNo":59244,"Name":"SB GORE AVE NS E PENDER ST","BayNo":"N","City":"VANCOUVER","OnStreet":"GORE AVE","AtStreet":"E PENDER ST","Latitude":49.280520,"Longitude":-123.097480,"WheelchairAccess":1,"Distance":1563,"Routes":""},{"StopNo":50935,"Name":"EB E HASTINGS ST FS GORE AVE","BayNo":"N","City":"VANCOUVER","OnStreet":"E HASTINGS ST","AtStreet":"GORE AVE","Latitude":49.281208,"Longitude":-123.096764,"WheelchairAccess":1,"Distance":1566,"Routes":"014, 016, 020, N20, N35"},{"StopNo":59287,"Name":"NB GORE AVE FS E PENDER ST","BayNo":"N","City":"VANCOUVER","OnStreet":"GORE AVE","AtStreet":"E PENDER ST","Latitude":49.280640,"Longitude":-123.097280,"WheelchairAccess":1,"Distance":1568,"Routes":""},{"StopNo":58593,"Name":"NB GRANVILLE ST FS DRAKE ST","BayNo":"N","City":"VANCOUVER","OnStreet":"GRANVILLE ST","AtStreet":"DRAKE ST","Latitude":49.276485,"Longitude":-123.127090,"WheelchairAccess":1,"Distance":1568,"Routes":"004, 007, 010, 014, 016, 050"},{"StopNo":59918,"Name":"EB PACIFIC BLVD FS MARINASIDE CRES","BayNo":"N","City":"VANCOUVER","OnStreet":"PACIFIC BLVD","AtStreet":"MARINASIDE CRES","Latitude":49.274212,"Longitude":-123.114449,"WheelchairAccess":1,"Distance":1573,"Routes":"023"},{"StopNo":59916,"Name":"EB PACIFIC BLVD NS BOATHOUSE MEWS","BayNo":"N","City":"VANCOUVER","OnStreet":"PACIFIC BLVD","AtStreet":"BOATHOUSE MEWS","Latitude":49.274212,"Longitude":-123.117630,"WheelchairAccess":1,"Distance":1580,"Routes":"023"},{"StopNo":58722,"Name":"EB W GEORGIA ST NS GILFORD ST","BayNo":"N","City":"VANCOUVER","OnStreet":"W GEORGIA ST","AtStreet":"GILFORD ST","Latitude":49.293655,"Longitude":-123.135597,"WheelchairAccess":1,"Distance":1580,"Routes":"019, 240, 246, 250, N24"},{"StopNo":50023,"Name":"YALETOWN-ROUNDHOUSE STN BAY 1","BayNo":"1","City":"VANCOUVER","OnStreet":"YALETOWN-ROUNDHOUSE STN","AtStreet":"BAY 1","Latitude":49.274868,"Longitude":-123.122536,"WheelchairAccess":1,"Distance":1586,"Routes":"006"},{"StopNo":59420,"Name":"EB DAVIE ST FS BROUGHTON ST","BayNo":"N","City":"VANCOUVER","OnStreet":"DAVIE ST","AtStreet":"BROUGHTON ST","Latitude":49.283478,"Longitude":-123.136108,"WheelchairAccess":1,"Distance":1597,"Routes":"006, 023"},{"StopNo":51476,"Name":"WB W GEORGIA ST FS GILFORD ST","BayNo":"N","City":"VANCOUVER","OnStreet":"W GEORGIA ST","AtStreet":"GILFORD ST","Latitude":49.294006,"Longitude":-123.135628,"WheelchairAccess":1,"Distance":1597,"Routes":"019"},{"StopNo":61924,"Name":"SB MAIN ST FS E GEORGIA ST","BayNo":"N","City":"VANCOUVER","OnStreet":"MAIN ST","AtStreet":"E GEORGIA ST","Latitude":49.277980,"Longitude":-123.099990,"WheelchairAccess":1,"Distance":1605,"Routes":""},{"StopNo":50052,"Name":"WB DAVIE ST FS BROUGHTON ST","BayNo":"N","City":"VANCOUVER","OnStreet":"DAVIE ST","AtStreet":"BROUGHTON ST","Latitude":49.283897,"Longitude":-123.136505,"WheelchairAccess":1,"Distance":1610,"Routes":"006"},{"StopNo":50507,"Name":"WB E HASTINGS ST FS DUNLEVY AVE","BayNo":"N","City":"VANCOUVER","OnStreet":"E HASTINGS ST","AtStreet":"DUNLEVY AVE","Latitude":49.281357,"Longitude":-123.095848,"WheelchairAccess":1,"Distance":1616,"Routes":"014, 016, 020, N20, N35"},{"StopNo":61366,"Name":"YALETOWN-ROUNDHOUSE STATION PLATFORM 1","BayNo":"N","City":"VANCOUVER","OnStreet":"YALETOWN-ROUNDHOUSE STATION","AtStreet":"PLATFORM 1","Latitude":49.274357,"Longitude":-123.121803,"WheelchairAccess":0,"Distance":1623,"Routes":"980"},{"StopNo":61408,"Name":"WB DAVIE ST FS PACIFIC BLVD","BayNo":"N","City":"VANCOUVER","OnStreet":"DAVIE ST","AtStreet":"PACIFIC BLVD","Latitude":49.274330,"Longitude":-123.121710,"WheelchairAccess":1,"Distance":1624,"Routes":""},{"StopNo":61365,"Name":"YALETOWN-ROUNDHOUSE STATION PLATFORM 2","BayNo":"N","City":"VANCOUVER","OnStreet":"YALETOWN-ROUNDHOUSE STATION","AtStreet":"PLATFORM 2","Latitude":49.274357,"Longitude":-123.121841,"WheelchairAccess":0,"Distance":1624,"Routes":"980"},{"StopNo":61215,"Name":"YALETOWN-ROUNDHOUSE STN BAY 2","BayNo":"2","City":"VANCOUVER","OnStreet":"YALETOWN-ROUNDHOUSE STN","AtStreet":"BAY 2","Latitude":49.274323,"Longitude":-123.122009,"WheelchairAccess":1,"Distance":1631,"Routes":"006"},{"StopNo":50016,"Name":"YALETOWN-ROUNDHOUSE STN BAY 4","BayNo":"4","City":"VANCOUVER","OnStreet":"YALETOWN-ROUNDHOUSE STN","AtStreet":"BAY 4","Latitude":49.274036,"Longitude":-123.120842,"WheelchairAccess":1,"Distance":1639,"Routes":"023"},{"StopNo":60197,"Name":"SB BURRARD ST NS HARWOOD ST","BayNo":"N","City":"VANCOUVER","OnStreet":"BURRARD ST","AtStreet":"HARWOOD ST","Latitude":49.277843,"Longitude":-123.131279,"WheelchairAccess":1,"Distance":1641,"Routes":"002, N22"},{"StopNo":50426,"Name":"EB E CORDOVA ST FS DUNLEVY AVE","BayNo":"N","City":"VANCOUVER","OnStreet":"E CORDOVA ST","AtStreet":"DUNLEVY AVE","Latitude":49.282135,"Longitude":-123.094849,"WheelchairAccess":1,"Distance":1642,"Routes":"004, 007, 209"},{"StopNo":50635,"Name":"EB DAVIE ST FS NICOLA ST","BayNo":"N","City":"VANCOUVER","OnStreet":"DAVIE ST","AtStreet":"NICOLA ST","Latitude":49.284218,"Longitude":-123.137260,"WheelchairAccess":1,"Distance":1652,"Routes":"006, 023"},{"StopNo":50085,"Name":"YALETOWN-ROUNDHOUSE STN BAY 3","BayNo":"3","City":"VANCOUVER","OnStreet":"YALETOWN-ROUNDHOUSE STN","AtStreet":"BAY 3","Latitude":49.274063,"Longitude":-123.121895,"WheelchairAccess":1,"Distance":1657,"Routes":"023"},{"StopNo":51273,"Name":"SB GORE AVE FS KEEFER ST","BayNo":"N","City":"VANCOUVER","OnStreet":"GORE AVE","AtStreet":"KEEFER ST","Latitude":49.279106,"Longitude":-123.097252,"WheelchairAccess":1,"Distance":1669,"Routes":"022"},{"StopNo":50515,"Name":"WB POWELL ST FS JACKSON AVE","BayNo":"N","City":"VANCOUVER","OnStreet":"POWELL ST","AtStreet":"JACKSON AVE","Latitude":49.283146,"Longitude":-123.093727,"WheelchairAccess":1,"Distance":1674,"Routes":"004, 007, 209"},{"StopNo":50536,"Name":"SB GRANVILLE ST FS DRAKE ST","BayNo":"N","City":"VANCOUVER","OnStreet":"GRANVILLE ST","AtStreet":"DRAKE ST","Latitude":49.275860,"Longitude":-123.128387,"WheelchairAccess":0,"Distance":1678,"Routes":"004, 007, 010, 014, 016, 050"},{"StopNo":51366,"Name":"NB GORE AVE FS E GEORGIA ST","BayNo":"N","City":"VANCOUVER","OnStreet":"GORE AVE","AtStreet":"E GEORGIA ST","Latitude":49.278839,"Longitude":-123.097008,"WheelchairAccess":0,"Distance":1701,"Routes":"022"},{"StopNo":60505,"Name":"SB THURLOW ST FS HARWOOD ST","BayNo":"N","City":"VANCOUVER","OnStreet":"THURLOW ST","AtStreet":"HARWOOD ST","Latitude":49.278809,"Longitude":-123.133728,"WheelchairAccess":0,"Distance":1701,"Routes":"023"},{"StopNo":50073,"Name":"NB BURRARD ST FS PACIFIC ST","BayNo":"N","City":"VANCOUVER","OnStreet":"BURRARD ST","AtStreet":"PACIFIC ST","Latitude":49.277229,"Longitude":-123.131798,"WheelchairAccess":1,"Distance":1716,"Routes":"002, N22"},{"StopNo":50506,"Name":"WB E HASTINGS ST FS JACKSON AVE","BayNo":"N","City":"VANCOUVER","OnStreet":"E HASTINGS ST","AtStreet":"JACKSON AVE","Latitude":49.281322,"Longitude":-123.093903,"WheelchairAccess":1,"Distance":1743,"Routes":"014, 016, 020, N20, N35"},{"StopNo":50015,"Name":"EB PACIFIC BLVD FS DRAKE ST","BayNo":"N","City":"VANCOUVER","OnStreet":"PACIFIC BLVD","AtStreet":"DRAKE ST","Latitude":49.273430,"Longitude":-123.123138,"WheelchairAccess":1,"Distance":1751,"Routes":"023"},{"StopNo":59927,"Name":"NB QUEBEC ST FS NATIONAL AVE","BayNo":"N","City":"VANCOUVER","OnStreet":"QUEBEC ST","AtStreet":"NATIONAL AVE","Latitude":49.275246,"Longitude":-123.101807,"WheelchairAccess":1,"Distance":1758,"Routes":"023"},{"StopNo":50086,"Name":"WB PACIFIC BLVD FS DRAKE ST","BayNo":"N","City":"VANCOUVER","OnStreet":"PACIFIC BLVD","AtStreet":"DRAKE ST","Latitude":49.273418,"Longitude":-123.124214,"WheelchairAccess":1,"Distance":1779,"Routes":"023"},{"StopNo":51477,"Name":"WB STANLEY PARK DR NS PIPELINE RD","BayNo":"N","City":"VANCOUVER","OnStreet":"STANLEY PARK DR","AtStreet":"PIPELINE RD","Latitude":49.297005,"Longitude":-123.136101,"WheelchairAccess":1,"Distance":1785,"Routes":"019"},{"StopNo":59395,"Name":"EB PACIFIC ST FS HOWE ST","BayNo":"N","City":"VANCOUVER","OnStreet":"PACIFIC ST","AtStreet":"HOWE ST","Latitude":49.275435,"Longitude":-123.130316,"WheelchairAccess":0,"Distance":1798,"Routes":""},{"StopNo":58008,"Name":"SB LOST LAGOON RD NS CAUSEWAY","BayNo":"N","City":"VANCOUVER","OnStreet":"LOST LAGOON RD","AtStreet":"STANLEY PARK CAUSEWAY","Latitude":49.296638,"Longitude":-123.136711,"WheelchairAccess":1,"Distance":1801,"Routes":"019"},{"StopNo":59926,"Name":"EB NATIONAL AVE FS QUEBEC ST","BayNo":"N","City":"VANCOUVER","OnStreet":"NATIONAL AVE","AtStreet":"QUEBEC ST","Latitude":49.274872,"Longitude":-123.101463,"WheelchairAccess":1,"Distance":1807,"Routes":"023"},{"StopNo":51274,"Name":"SB GORE AVE FS UNION ST","BayNo":"N","City":"VANCOUVER","OnStreet":"GORE AVE","AtStreet":"UNION ST","Latitude":49.277359,"Longitude":-123.097023,"WheelchairAccess":0,"Distance":1807,"Routes":"022"},{"StopNo":50936,"Name":"EB E HASTINGS ST FS JACKSON AVE","BayNo":"N","City":"VANCOUVER","OnStreet":"E HASTINGS ST","AtStreet":"JACKSON AVE","Latitude":49.281113,"Longitude":-123.092957,"WheelchairAccess":1,"Distance":1815,"Routes":"014, 016, 020, N20, N35"},{"StopNo":50182,"Name":"NB MAIN ST FS NATIONAL AVE","BayNo":"N","City":"VANCOUVER","OnStreet":"MAIN ST","AtStreet":"NATIONAL AVE","Latitude":49.275322,"Longitude":-123.099747,"WheelchairAccess":1,"Distance":1839,"Routes":"003, 008, 019, N19, N8"},{"StopNo":50087,"Name":"WB PACIFIC ST NS RICHARDS ST","BayNo":"N","City":"VANCOUVER","OnStreet":"PACIFIC ST","AtStreet":"RICHARDS ST","Latitude":49.273624,"Longitude":-123.127083,"WheelchairAccess":1,"Distance":1844,"Routes":"023"},{"StopNo":50013,"Name":"EB PACIFIC ST FS RICHARDS ST","BayNo":"N","City":"VANCOUVER","OnStreet":"PACIFIC ST","AtStreet":"RICHARDS ST","Latitude":49.273529,"Longitude":-123.127319,"WheelchairAccess":1,"Distance":1861,"Routes":"023"},{"StopNo":50014,"Name":"EB PACIFIC BLVD FS HOMER ST","BayNo":"N","City":"VANCOUVER","OnStreet":"PACIFIC BLVD","AtStreet":"HOMER ST","Latitude":49.272930,"Longitude":-123.125549,"WheelchairAccess":1,"Distance":1866,"Routes":"023"},{"StopNo":59391,"Name":"WB BEACH AVE FS BUTE ST","BayNo":"N","City":"VANCOUVER","OnStreet":"BEACH AVE","AtStreet":"BUTE ST","Latitude":49.279591,"Longitude":-123.137337,"WheelchairAccess":1,"Distance":1866,"Routes":"023"},{"StopNo":59392,"Name":"WB BEACH AVE FS THURLOW ST","BayNo":"N","City":"VANCOUVER","OnStreet":"BEACH AVE","AtStreet":"THURLOW ST","Latitude":49.277897,"Longitude":-123.135651,"WheelchairAccess":1,"Distance":1874,"Routes":"023"},{"StopNo":50006,"Name":"EB BEACH AVE FS BUTE ST","BayNo":"N","City":"VANCOUVER","OnStreet":"BEACH AVE","AtStreet":"BUTE ST","Latitude":49.278937,"Longitude":-123.136907,"WheelchairAccess":1,"Distance":1879,"Routes":""},{"StopNo":50007,"Name":"EB BEACH AVE FS THURLOW ST","BayNo":"N","City":"VANCOUVER","OnStreet":"BEACH AVE","AtStreet":"THURLOW ST","Latitude":49.277297,"Longitude":-123.135251,"WheelchairAccess":1,"Distance":1893,"Routes":""},{"StopNo":50232,"Name":"SB MAIN ST FS NATIONAL AVE","BayNo":"N","City":"VANCOUVER","OnStreet":"MAIN ST","AtStreet":"NATIONAL AVE","Latitude":49.274506,"Longitude":-123.100143,"WheelchairAccess":1,"Distance":1895,"Routes":"003, 008, 019, N19, N8"},{"StopNo":59928,"Name":"EB NATIONAL AVE FS MAIN ST","BayNo":"N","City":"VANCOUVER","OnStreet":"NATIONAL AVE","AtStreet":"MAIN ST","Latitude":49.274845,"Longitude":-123.099442,"WheelchairAccess":1,"Distance":1895,"Routes":"023"},{"StopNo":58727,"Name":"STANLEY PARK LOOP BAY 1","BayNo":"1","City":"VANCOUVER","OnStreet":"STANLEY PARK LOOP","AtStreet":"BAY 1","Latitude":49.300495,"Longitude":-123.133743,"WheelchairAccess":1,"Distance":1897,"Routes":"019"},{"StopNo":59393,"Name":"WB BEACH AVE FS HORNBY ST","BayNo":"N","City":"VANCOUVER","OnStreet":"BEACH AVE","AtStreet":"HORNBY ST","Latitude":49.275543,"Longitude":-123.132973,"WheelchairAccess":1,"Distance":1911,"Routes":"023"},{"StopNo":59396,"Name":"WB BEACH AVE FS HOWE ST","BayNo":"N","City":"VANCOUVER","OnStreet":"BEACH AVE","AtStreet":"HOWE ST","Latitude":49.274963,"Longitude":-123.132057,"WheelchairAccess":1,"Distance":1917,"Routes":"023"},{"StopNo":59394,"Name":"EB BEACH AVE FS HORNBY ST","BayNo":"N","City":"VANCOUVER","OnStreet":"BEACH AVE","AtStreet":"HORNBY ST","Latitude":49.275128,"Longitude":-123.132556,"WheelchairAccess":1,"Distance":1926,"Routes":""},{"StopNo":58728,"Name":"STANLEY PARK LOOP BAY 2","BayNo":"2","City":"VANCOUVER","OnStreet":"STANLEY PARK LOOP","AtStreet":"BAY 2","Latitude":49.300678,"Longitude":-123.134048,"WheelchairAccess":1,"Distance":1927,"Routes":"019"},{"StopNo":59925,"Name":"NB QUEBEC ST FS TERMINAL AVE","BayNo":"N","City":"VANCOUVER","OnStreet":"QUEBEC ST","AtStreet":"TERMINAL AVE","Latitude":49.273357,"Longitude":-123.101524,"WheelchairAccess":1,"Distance":1946,"Routes":"023"},{"StopNo":51278,"Name":"EB PRIOR ST FS DUNLEVY AVE","BayNo":"N","City":"VANCOUVER","OnStreet":"PRIOR ST","AtStreet":"DUNLEVY AVE","Latitude":49.276623,"Longitude":-123.095192,"WheelchairAccess":0,"Distance":1961,"Routes":"022"}]